time;.header.seq;.header.stamp.secs;.header.stamp.nsecs;.header.frame_id;.pose.position.x;.pose.position.y;.pose.position.z;.pose.orientation.x;.pose.orientation.y;.pose.orientation.z;.pose.orientation.w
2024/05/03/13:34:20.737040;224857;1714768460;733199069;world;-2.27E-05;1.91E-05;1.47E-05;-2.03E-05;4.45E-05;5.99E-05;-1
2024/05/03/13:34:20.743103;224858;1714768460;742843674;world;-2.31E-05;3.00E-05;2.94E-05;-4.76E-05;2.11E-05;4.92E-05;-1
2024/05/03/13:34:20.773583;224859;1714768460;773222438;world;-3.98E-05;2.51E-05;2.46E-05;2.46E-05;4.79E-05;4.21E-05;-1
2024/05/03/13:34:20.773611;224860;1714768460;773263154;world;-1.67E-05;2.36E-05;9.43E-06;-3.02E-05;7.95E-06;4.11E-05;-1
2024/05/03/13:34:20.793583;224861;1714768460;793234104;world;-2.65E-05;2.97E-05;6.52E-06;-2.11E-05;4.33E-05;-4.68E-06;-1
2024/05/03/13:34:20.813560;224862;1714768460;813181123;world;-3.31E-05;3.38E-05;1.54E-05;1.64E-05;5.64E-05;1.01E-05;-1
2024/05/03/13:34:20.823988;224863;1714768460;823314724;world;-3.66E-05;2.33E-05;2.17E-05;4.99E-06;4.05E-05;2.42E-05;-1
2024/05/03/13:34:20.843824;224864;1714768460;843279036;world;-2.71E-05;2.27E-05;9.02E-06;-3.53E-06;-5.35E-06;2.23E-05;-1
2024/05/03/13:34:20.853890;224865;1714768460;853424268;world;-5.74E-06;3.24E-05;1.34E-05;-6.18E-05;1.14E-05;1.15E-05;-1
2024/05/03/13:34:20.873464;224866;1714768460;873112648;world;-2.45E-05;3.55E-05;1.37E-05;-6.37E-05;1.01E-05;9.62E-06;-1
2024/05/03/13:34:20.893927;224867;1714768460;893251843;world;-1.77E-05;2.32E-05;1.82E-05;-6.05E-05;9.72E-06;4.38E-06;-1
2024/05/03/13:34:20.903436;224868;1714768460;903043528;world;-3.37E-05;2.00E-05;7.62E-06;3.88E-05;3.39E-05;5.80E-05;-1
2024/05/03/13:34:20.913398;224869;1714768460;913008126;world;-2.75E-05;3.79E-05;1.02E-05;-7.04E-05;1.40E-05;1.03E-05;-1
2024/05/03/13:34:20.933431;224870;1714768460;933115952;world;-1.29E-05;2.70E-05;1.60E-05;-0.000100599;1.44E-05;2.89E-05;-1
2024/05/03/13:34:20.953507;224871;1714768460;953233567;world;-1.96E-05;2.95E-05;2.57E-05;-6.75E-05;3.44E-05;3.01E-05;-1
2024/05/03/13:34:20.973589;224872;1714768460;973302703;world;-3.04E-05;3.12E-05;1.28E-05;-5.58E-05;6.37E-06;1.53E-05;-1
2024/05/03/13:34:20.983322;224873;1714768460;983121598;world;-3.55E-05;2.33E-05;6.33E-06;-3.24E-06;7.08E-05;2.06E-05;-1
2024/05/03/13:34:20.993395;224874;1714768460;993154514;world;-8.08E-06;3.23E-05;1.87E-05;-4.84E-06;2.28E-05;3.43E-06;-1
2024/05/03/13:34:21.013707;224875;1714768461;13328153;world;-2.14E-05;2.88E-05;1.99E-05;-2.95E-05;3.35E-05;1.44E-05;-1
2024/05/03/13:34:21.033720;224876;1714768461;33458450;world;-2.73E-05;2.42E-05;1.65E-05;-2.10E-05;3.03E-05;1.87E-05;-1
2024/05/03/13:34:21.043273;224877;1714768461;42980129;world;-2.77E-05;2.32E-05;1.25E-05;4.92E-05;6.21E-05;3.11E-05;-1
2024/05/03/13:34:21.063730;224878;1714768461;63421764;world;-1.35E-05;4.01E-05;1.49E-05;-5.81E-05;1.15E-05;1.20E-05;-1
2024/05/03/13:34:21.073581;224879;1714768461;73311002;world;-2.39E-05;1.81E-05;2.23E-05;6.80E-06;4.08E-05;3.78E-05;-1
2024/05/03/13:34:21.093667;224880;1714768461;93332705;world;-2.00E-05;3.43E-05;1.92E-05;-3.13E-05;2.24E-05;2.18E-05;-1
2024/05/03/13:34:21.113480;224881;1714768461;113144167;world;-3.20E-05;3.19E-05;7.63E-06;-1.00E-05;5.13E-05;2.94E-05;-1
2024/05/03/13:34:21.123590;224882;1714768461;123323153;world;-3.27E-05;2.38E-05;6.46E-06;8.60E-06;2.71E-05;4.59E-05;-1
2024/05/03/13:34:21.133889;224883;1714768461;133485135;world;-2.00E-05;2.55E-05;2.69E-05;-1.14E-05;2.12E-05;2.49E-05;-1
2024/05/03/13:34:21.153493;224884;1714768461;153189945;world;-2.36E-05;2.38E-05;2.08E-05;-2.21E-05;4.46E-05;4.56E-05;-1
2024/05/03/13:34:21.183229;224885;1714768461;182907343;world;-1.44E-05;2.45E-05;7.85E-06;-5.75E-05;-1.36E-05;3.99E-05;-1
2024/05/03/13:34:21.183262;224886;1714768461;182942428;world;-2.19E-05;2.66E-05;8.25E-06;-8.72E-06;1.61E-05;2.35E-05;-1
2024/05/03/13:34:21.203343;224887;1714768461;202962643;world;-2.79E-05;2.57E-05;1.53E-05;-8.20E-05;4.29E-05;3.78E-05;-1
2024/05/03/13:34:21.213127;224888;1714768461;212936396;world;1.06E-06;2.22E-05;2.05E-05;-8.38E-05;8.71E-06;1.80E-05;-1
2024/05/03/13:34:21.233372;224889;1714768461;233077306;world;-3.85E-05;2.69E-05;-7.27E-06;-8.53E-05;5.99E-05;6.06E-05;-1
2024/05/03/13:34:21.243298;224890;1714768461;243041061;world;-1.44E-05;2.01E-05;4.22E-06;3.54E-05;5.44E-05;9.63E-06;-1
2024/05/03/13:34:21.263760;224891;1714768461;263389661;world;-2.58E-05;1.96E-05;1.37E-05;-7.81E-06;9.00E-06;3.42E-05;-1
2024/05/03/13:34:21.283869;224892;1714768461;283541093;world;-2.01E-05;1.86E-05;6.43E-06;-5.87E-06;3.54E-05;4.73E-05;-1
2024/05/03/13:34:21.303447;224893;1714768461;303110682;world;-1.84E-05;2.86E-05;2.70E-06;1.27E-05;1.24E-05;4.40E-05;-1
2024/05/03/13:34:21.303476;224894;1714768461;303149403;world;-2.33E-05;3.47E-05;3.11E-06;-1.71E-05;2.33E-05;1.80E-05;-1
2024/05/03/13:34:21.323511;224895;1714768461;323188154;world;-3.58E-05;1.94E-05;5.42E-06;-4.20E-06;1.36E-05;2.87E-05;-1
2024/05/03/13:34:21.333626;224896;1714768461;333358329;world;-3.17E-05;2.34E-05;1.07E-05;-7.03E-05;3.73E-05;4.71E-05;-1
2024/05/03/13:34:21.353355;224897;1714768461;353038728;world;-2.33E-05;3.43E-05;7.98E-06;-6.53E-05;5.21E-06;3.16E-05;-1
2024/05/03/13:34:21.373522;224898;1714768461;373261015;world;-2.17E-05;4.10E-05;1.12E-05;-3.21E-05;3.56E-07;-1.37E-05;-1
2024/05/03/13:34:21.383326;224899;1714768461;383065316;world;-3.96E-05;2.91E-05;1.78E-05;-2.77E-05;2.87E-05;3.47E-05;-1
2024/05/03/13:34:21.403886;224900;1714768461;403333441;world;-1.53E-05;2.93E-05;2.53E-05;-4.41E-05;-4.12E-06;1.68E-05;-1
2024/05/03/13:34:21.413371;224901;1714768461;413069871;world;-1.64E-05;3.95E-05;2.71E-05;-5.08E-05;1.48E-05;4.49E-05;-1
2024/05/03/13:34:21.433475;224902;1714768461;433072068;world;-3.75E-05;4.07E-05;1.74E-05;-3.46E-05;5.70E-05;3.75E-05;-1
2024/05/03/13:34:21.444150;224903;1714768461;443809699;world;-3.43E-05;4.40E-05;1.78E-05;-4.57E-06;3.08E-05;3.99E-05;-1
2024/05/03/13:34:21.463820;224904;1714768461;463431113;world;-3.55E-05;3.06E-05;1.99E-05;-7.38E-06;1.79E-05;5.09E-06;-1
2024/05/03/13:34:21.483527;224905;1714768461;483010900;world;-4.28E-05;3.83E-05;1.16E-05;-4.17E-05;6.07E-06;2.11E-05;-1
2024/05/03/13:34:21.504091;224906;1714768461;503471730;world;-2.85E-05;3.93E-05;1.02E-05;-1.81E-05;3.85E-05;2.15E-05;-1
2024/05/03/13:34:21.513331;224907;1714768461;512973522;world;-2.53E-05;4.51E-05;1.63E-05;-5.61E-05;3.36E-06;1.18E-05;-1
2024/05/03/13:34:21.523449;224908;1714768461;523207429;world;-1.42E-05;3.84E-05;2.25E-05;-9.47E-05;-2.66E-05;1.75E-05;-1
2024/05/03/13:34:21.543668;224909;1714768461;543269712;world;-3.44E-05;2.76E-05;1.14E-05;-3.36E-05;-1.59E-06;3.08E-05;-1
2024/05/03/13:34:21.553960;224910;1714768461;553612231;world;-2.95E-05;4.73E-05;1.36E-05;-1.90E-05;1.60E-05;-4.68E-06;-1
2024/05/03/13:34:21.574237;224911;1714768461;573853566;world;-2.91E-05;3.73E-05;8.32E-06;-4.53E-05;1.19E-05;8.91E-06;-1
2024/05/03/13:34:21.593301;224912;1714768461;592930480;world;-2.29E-05;3.30E-05;1.75E-05;-3.24E-05;5.83E-05;1.63E-05;-1
2024/05/03/13:34:21.613794;224913;1714768461;613402623;world;-2.38E-05;4.36E-05;2.02E-05;-2.28E-05;6.90E-06;3.06E-05;-1
2024/05/03/13:34:21.623299;224914;1714768461;623034082;world;-4.41E-05;2.71E-05;9.94E-06;3.40E-05;6.59E-05;3.30E-05;-1
2024/05/03/13:34:21.633574;224915;1714768461;633197508;world;-3.40E-05;2.51E-05;1.28E-05;-5.25E-05;2.73E-05;4.71E-05;-1
2024/05/03/13:34:21.653260;224916;1714768461;653012722;world;-1.65E-05;3.41E-05;2.54E-05;-2.57E-05;5.81E-05;4.09E-05;-1
2024/05/03/13:34:21.673540;224917;1714768461;673173379;world;-3.89E-05;3.48E-05;4.94E-06;-1.09E-05;4.24E-05;2.20E-05;-1
2024/05/03/13:34:21.693501;224918;1714768461;693225261;world;-4.16E-05;2.78E-05;1.60E-05;-7.98E-06;3.20E-05;4.18E-05;-1
2024/05/03/13:34:21.713213;224919;1714768461;712973359;world;-2.85E-05;4.51E-05;9.46E-06;-3.84E-05;1.86E-05;2.54E-05;-1
2024/05/03/13:34:21.723498;224920;1714768461;723190748;world;-2.11E-05;1.79E-05;1.72E-05;1.63E-05;9.19E-06;3.30E-05;-1
2024/05/03/13:34:21.733238;224921;1714768461;732948010;world;-3.09E-05;2.50E-05;2.13E-05;2.81E-05;-3.40E-07;6.09E-05;-1
2024/05/03/13:34:21.743829;224922;1714768461;743626673;world;-2.87E-05;5.04E-05;1.65E-05;-4.16E-05;3.81E-05;3.44E-05;-1
2024/05/03/13:34:21.763695;224923;1714768461;763430989;world;-2.25E-05;2.91E-05;1.77E-06;-4.38E-05;3.15E-05;1.92E-05;-1
2024/05/03/13:34:21.783377;224924;1714768461;783009243;world;-2.16E-05;3.44E-05;2.44E-05;-3.01E-05;6.96E-05;2.54E-05;-1
2024/05/03/13:34:21.793576;224925;1714768461;793142793;world;-2.06E-05;3.71E-05;1.61E-05;-3.53E-05;3.72E-05;3.63E-05;-1
2024/05/03/13:34:21.813429;224926;1714768461;813095943;world;-2.92E-05;3.50E-05;1.21E-05;-2.01E-06;2.55E-05;2.89E-05;-1
2024/05/03/13:34:21.823615;224927;1714768461;823305506;world;-8.48E-06;3.20E-05;1.92E-05;-6.81E-05;7.57E-05;1.65E-05;-1
2024/05/03/13:34:21.843460;224928;1714768461;843166114;world;-2.47E-05;3.64E-05;1.09E-05;-2.53E-05;8.62E-07;1.46E-05;-1
2024/05/03/13:34:21.863847;224929;1714768461;863611577;world;-3.03E-05;3.44E-05;2.25E-05;-2.95E-05;2.21E-05;3.04E-05;-1
2024/05/03/13:34:21.873595;224930;1714768461;873150966;world;-2.14E-05;3.48E-05;5.83E-06;-3.06E-05;5.42E-05;3.08E-05;-1
2024/05/03/13:34:21.893703;224931;1714768461;893225317;world;-2.46E-05;4.14E-05;3.52E-06;-5.24E-05;7.37E-06;3.51E-05;-1
2024/05/03/13:34:21.903729;224932;1714768461;903400999;world;-2.71E-05;4.17E-05;6.89E-06;-5.57E-05;4.61E-06;1.56E-05;-1
2024/05/03/13:34:21.924439;224933;1714768461;923138490;world;-3.00E-05;3.70E-05;1.44E-05;-3.13E-05;3.23E-05;2.04E-05;-1
2024/05/03/13:34:21.933422;224934;1714768461;932984529;world;-3.86E-05;3.28E-05;6.22E-06;-1.94E-05;4.98E-05;5.87E-05;-1
2024/05/03/13:34:21.953580;224935;1714768461;953211738;world;-2.12E-05;4.39E-05;1.14E-05;-5.55E-05;2.83E-05;5.73E-05;-1
2024/05/03/13:34:21.963809;224936;1714768461;963446307;world;-4.55E-05;3.67E-05;2.51E-06;2.40E-05;6.52E-05;5.16E-05;-1
2024/05/03/13:34:21.983793;224937;1714768461;983271519;world;-3.06E-05;3.63E-05;1.02E-05;-3.49E-06;2.53E-05;5.23E-05;-1
2024/05/03/13:34:21.993748;224938;1714768461;993319632;world;-4.42E-05;4.10E-05;1.95E-05;3.32E-06;3.86E-05;3.56E-05;-1
2024/05/03/13:34:22.023684;224939;1714768462;23336654;world;-1.83E-05;4.16E-05;6.50E-06;-0.000107493;6.72E-07;1.63E-05;-1
2024/05/03/13:34:22.023708;224940;1714768462;23372381;world;-2.18E-05;4.10E-05;-1.54E-07;-2.50E-05;-5.58E-06;2.87E-05;-1
2024/05/03/13:34:22.043961;224941;1714768462;43600852;world;-2.88E-05;3.49E-05;9.14E-06;-5.26E-05;2.76E-05;5.71E-05;-1
2024/05/03/13:34:22.053468;224942;1714768462;53007024;world;-3.14E-05;3.38E-05;8.34E-06;1.07E-05;-1.05E-05;4.11E-05;-1
2024/05/03/13:34:22.073425;224943;1714768462;73131142;world;-3.43E-05;3.99E-05;1.75E-05;-2.02E-05;1.34E-05;2.75E-05;-1
2024/05/03/13:34:22.093608;224944;1714768462;93288342;world;-3.62E-05;3.67E-05;-5.48E-07;2.18E-05;1.79E-05;4.63E-05;-1
2024/05/03/13:34:22.103694;224945;1714768462;103341334;world;-2.14E-05;4.17E-05;1.27E-05;-6.08E-05;3.83E-05;2.85E-05;-1
2024/05/03/13:34:22.123537;224946;1714768462;123239532;world;-1.93E-05;3.06E-05;2.08E-05;-1.91E-05;4.14E-05;4.62E-06;-1
2024/05/03/13:34:22.133716;224947;1714768462;133330797;world;-2.91E-05;3.12E-05;1.54E-05;5.58E-06;6.95E-05;4.09E-05;-1
2024/05/03/13:34:22.153512;224948;1714768462;153127466;world;-2.93E-05;3.56E-05;7.21E-07;-2.65E-05;2.17E-05;3.08E-05;-1
2024/05/03/13:34:22.173947;224949;1714768462;173364152;world;-2.66E-05;2.82E-05;4.14E-06;-8.22E-07;5.52E-05;3.75E-05;-1
2024/05/03/13:34:22.183574;224950;1714768462;183273689;world;-2.90E-05;3.80E-05;1.13E-05;-3.48E-05;2.72E-05;2.94E-05;-1
2024/05/03/13:34:22.203799;224951;1714768462;203317686;world;-4.00E-05;2.52E-05;3.24E-06;3.57E-05;8.09E-05;5.90E-05;-1
2024/05/03/13:34:22.223236;224952;1714768462;222948699;world;-3.77E-05;2.76E-05;6.40E-07;-2.29E-05;3.89E-05;3.99E-05;-1
2024/05/03/13:34:22.233495;224953;1714768462;233167579;world;-4.82E-05;2.81E-05;1.68E-05;2.14E-05;6.50E-05;0.000128835;-1
2024/05/03/13:34:22.243359;224954;1714768462;243105509;world;-3.93E-05;3.14E-05;2.22E-05;1.87E-05;7.42E-05;0.000926583;-0.999999642
2024/05/03/13:34:22.263503;224955;1714768462;262963231;world;-5.04E-05;1.36E-05;-2.16E-06;-4.00E-05;0.000100638;0.00162276;-0.999998689
2024/05/03/13:34:22.273444;224956;1714768462;273247052;world;-0.000145234;-8.54E-06;-4.14E-05;5.28E-05;-5.79E-05;0.003969028;-0.999992132
2024/05/03/13:34:22.303350;224957;1714768462;303091219;world;-0.000148967;-2.31E-05;-3.86E-05;7.59E-05;-4.71E-05;0.004907434;-0.99998796
2024/05/03/13:34:22.313699;224958;1714768462;313384157;world;-0.000124708;-6.64E-06;-8.53E-06;-4.51E-05;-0.000103287;0.007039581;-0.999975204
2024/05/03/13:34:22.323609;224959;1714768462;323420393;world;-0.000152107;-5.88E-05;-1.96E-05;0.000155687;-4.91E-05;0.009476838;-0.999955058
2024/05/03/13:34:22.343713;224960;1714768462;342940399;world;-0.000143267;-4.55E-05;-1.71E-06;7.16E-05;6.63E-06;0.011964602;-0.999928474
2024/05/03/13:34:22.353326;224961;1714768462;353011295;world;-8.94E-05;-7.32E-05;-5.69E-06;-0.000138176;-0.000195906;0.014766748;-0.999890924
2024/05/03/13:34:22.373516;224962;1714768462;373156072;world;-0.000103958;-5.34E-05;-3.87E-05;-0.000211673;-0.000320877;0.01732517;-0.999849916
2024/05/03/13:34:22.383676;224963;1714768462;383372285;world;-9.00E-05;-5.14E-05;-2.32E-05;-0.00019476;-0.000375612;0.018621722;-0.999826491
2024/05/03/13:34:22.404099;224964;1714768462;403793016;world;-9.34E-05;-1.36E-05;-3.11E-05;-3.20E-05;-0.000385038;0.021113122;-0.999777019
2024/05/03/13:34:22.413599;224965;1714768462;413267894;world;1.54E-05;6.89E-05;-2.34E-05;-0.000255768;-0.000171353;0.023549184;-0.99972266
2024/05/03/13:34:22.433188;224966;1714768462;432905038;world;-9.69E-05;-1.30E-05;3.61E-05;-0.000310199;-0.000250724;0.027507572;-0.999621511
2024/05/03/13:34:22.453879;224967;1714768462;453445409;world;-8.62E-05;7.12E-06;-1.45E-06;-0.000431613;-0.000243608;0.030157706;-0.999545038
2024/05/03/13:34:22.463894;224968;1714768462;463386464;world;-0.000102922;-3.58E-06;-1.35E-05;-0.000320056;-0.000216039;0.0315153;-0.999503255
2024/05/03/13:34:22.483629;224969;1714768462;483322972;world;-8.58E-05;-7.85E-06;-2.00E-05;-0.000173284;-0.00028838;0.034073565;-0.999419332
2024/05/03/13:34:22.493522;224970;1714768462;493265840;world;-2.39E-05;-8.83E-06;-3.90E-05;-0.00028586;-0.00047837;0.036424913;-0.999336302
2024/05/03/13:34:22.513317;224971;1714768462;513004973;world;-2.30E-05;-1.34E-05;-4.76E-05;-0.000418194;-0.000513576;0.037570506;-0.999293804
2024/05/03/13:34:22.533753;224972;1714768462;533367014;world;-5.48E-05;4.62E-06;-4.36E-05;-0.000742933;-0.000516138;0.041184425;-0.99915123
2024/05/03/13:34:22.553386;224973;1714768462;553096351;world;-5.95E-05;4.51E-06;-5.22E-05;-0.000685552;-0.000498284;0.042307787;-0.999104321
2024/05/03/13:34:22.553421;224974;1714768462;553134952;world;-7.44E-05;1.50E-05;-5.54E-05;-0.00073651;-0.000571791;0.04447804;-0.999009967
2024/05/03/13:34:22.573511;224975;1714768462;573195651;world;4.73E-05;3.29E-05;-2.64E-05;-0.000994343;-0.000630852;0.046563167;-0.998914719
2024/05/03/13:34:22.583291;224976;1714768462;582959628;world;-1.79E-05;3.42E-05;-6.34E-05;-0.000899034;-0.000560517;0.048753537;-0.998810291
2024/05/03/13:34:22.613363;224977;1714768462;613031582;world;9.26E-06;1.86E-05;-5.55E-05;-0.00104963;-0.000646307;0.050897744;-0.998703122
2024/05/03/13:34:22.643280;224978;1714768462;642925966;world;-8.14E-05;-1.17E-05;-4.89E-05;-0.000655712;-0.000523184;0.053044856;-0.99859184
2024/05/03/13:34:22.643314;224979;1714768462;642980989;world;-6.26E-05;-1.10E-05;-5.59E-05;-0.000589004;-0.000644933;0.055050634;-0.998483241
2024/05/03/13:34:22.663382;224980;1714768462;663093627;world;-0.000118569;-1.81E-05;-9.33E-05;-0.000419278;-0.000673493;0.056900881;-0.998379588
2024/05/03/13:34:22.673331;224981;1714768462;673018470;world;-6.89E-05;-5.79E-06;-8.78E-05;-0.000496738;-0.000719995;0.058554482;-0.998283923
2024/05/03/13:34:22.683454;224982;1714768462;683199370;world;-7.17E-05;-1.62E-05;-7.78E-05;-0.000536075;-0.000685214;0.060329463;-0.998178124
2024/05/03/13:34:22.703423;224983;1714768462;703129067;world;-3.89E-06;-1.23E-05;-5.82E-05;-0.000845915;-0.000804345;0.061137434;-0.998128712
2024/05/03/13:34:22.713242;224984;1714768462;712944230;world;-5.47E-05;3.54E-06;-5.49E-05;-0.000611756;-0.000682444;0.062833384;-0.998023629
2024/05/03/13:34:22.743570;224985;1714768462;743344753;world;-9.62E-06;8.04E-06;-1.82E-05;-0.000926754;-0.000808892;0.064429738;-0.997921526
2024/05/03/13:34:22.743580;224986;1714768462;743364810;world;2.65E-05;1.91E-05;-3.82E-05;-0.001102451;-0.000908299;0.066029914;-0.997816682
2024/05/03/13:34:22.763278;224987;1714768462;762998439;world;2.84E-05;2.69E-05;-4.46E-05;-0.00116885;-0.000930443;0.066870213;-0.997760653
2024/05/03/13:34:22.773175;224988;1714768462;772913603;world;8.45E-05;7.55E-05;-1.20E-05;-0.001227367;-0.000930257;0.068485402;-0.997650921
2024/05/03/13:34:22.793283;224989;1714768462;793003981;world;9.05E-05;9.06E-05;-2.02E-05;-0.001170469;-0.000975556;0.069967918;-0.997548163
2024/05/03/13:34:22.813316;224990;1714768462;812966267;world;7.68E-05;6.35E-05;-4.23E-06;-0.00107553;-0.000845404;0.071522333;-0.997438073
2024/05/03/13:34:22.823293;224991;1714768462;823022366;world;4.03E-05;2.34E-05;-1.12E-05;-0.000846362;-0.000841949;0.072984621;-0.997332335
2024/05/03/13:34:22.843347;224992;1714768462;843112069;world;8.68E-06;-1.16E-05;-3.10E-05;-0.000917795;-0.000876533;0.074439391;-0.997224808
2024/05/03/13:34:22.853407;224993;1714768462;852998501;world;-2.31E-05;-3.04E-05;-4.96E-05;-0.000800215;-0.0009639;0.07583303;-0.997119784
2024/05/03/13:34:22.883957;224994;1714768462;883508710;world;-3.07E-05;-1.70E-05;-9.23E-05;-0.001027157;-0.001115435;0.077195488;-0.99701488
2024/05/03/13:34:22.883988;224995;1714768462;883532194;world;-2.15E-05;-1.31E-05;-9.31E-05;-0.001022974;-0.00110791;0.077870078;-0.996962368
2024/05/03/13:34:22.903392;224996;1714768462;902996487;world;2.77E-05;2.11E-05;-7.64E-05;-0.001180557;-0.00108669;0.079867601;-0.996804237
2024/05/03/13:34:22.923635;224997;1714768462;923343836;world;6.33E-05;3.39E-05;-6.43E-05;-0.001186046;-0.001030479;0.080566935;-0.996747971
2024/05/03/13:34:22.943631;224998;1714768462;943284467;world;6.49E-05;4.64E-05;-8.04E-05;-0.001276438;-0.001103541;0.081870027;-0.996641636
2024/05/03/13:34:22.953435;224999;1714768462;953070634;world;5.52E-05;4.16E-05;-6.97E-05;-0.001345736;-0.001086574;0.083143145;-0.996536136
2024/05/03/13:34:22.963434;225000;1714768462;963181254;world;7.60E-05;5.86E-05;-6.09E-05;-0.001437203;-0.001009584;0.08434169;-0.996435404
2024/05/03/13:34:22.983296;225001;1714768462;983048082;world;6.53E-05;8.24E-05;-5.23E-05;-0.001181546;-0.00109269;0.085731074;-0.996317029
2024/05/03/13:34:22.993166;225002;1714768462;992909120;world;7.49E-05;6.76E-05;-5.93E-05;-0.001145024;-0.001112347;0.08704365;-0.996203244
2024/05/03/13:34:23.023805;225003;1714768463;23475581;world;3.26E-05;7.33E-05;-6.30E-05;-0.001082718;-0.001121268;0.088494971;-0.996075451
2024/05/03/13:34:23.023831;225004;1714768463;23509123;world;3.14E-05;8.05E-05;-5.43E-05;-0.000963796;-0.001118999;0.089144349;-0.996017635
2024/05/03/13:34:23.043370;225005;1714768463;43076068;world;2.12E-05;-2.55E-06;-6.07E-05;-0.00077735;-0.00097288;0.091206543;-0.995831192
2024/05/03/13:34:23.063294;225006;1714768463;63043145;world;4.83E-05;4.32E-05;-4.58E-05;-0.000954749;-0.000966715;0.09188091;-0.995769143
2024/05/03/13:34:23.073516;225007;1714768463;73220509;world;3.77E-05;6.00E-05;-4.45E-05;-0.001037692;-0.001003837;0.093157031;-0.99565047
2024/05/03/13:34:23.093409;225008;1714768463;93068614;world;5.15E-05;4.60E-05;-4.28E-05;-0.001003373;-0.001002139;0.094426677;-0.995530784
2024/05/03/13:34:23.103563;225009;1714768463;103234757;world;3.05E-05;3.77E-05;-7.27E-05;-0.0010433;-0.001154323;0.095719628;-0.995407104
2024/05/03/13:34:23.133626;225010;1714768463;133352278;world;6.15E-06;4.61E-05;-8.91E-05;-0.001031007;-0.001092604;0.096958086;-0.995287299
2024/05/03/13:34:23.143320;225011;1714768463;142966726;world;4.42E-05;4.63E-05;-8.03E-05;-0.001091132;-0.001098373;0.097538777;-0.995230496
2024/05/03/13:34:23.153380;225012;1714768463;153078638;world;3.32E-05;2.49E-05;-9.98E-05;-0.001069815;-0.000991094;0.099466838;-0.99503988
2024/05/03/13:34:23.163400;225013;1714768463;163101926;world;3.99E-05;2.10E-05;-9.83E-05;-0.001130101;-0.001009509;0.100100778;-0.994976163
2024/05/03/13:34:23.183580;225014;1714768463;183187372;world;5.43E-05;1.65E-05;-9.19E-05;-0.001144127;-0.001001612;0.10136319;-0.994848371
2024/05/03/13:34:23.203605;225015;1714768463;202913011;world;3.32E-05;1.04E-05;-0.000104574;-0.001050374;-0.001034211;0.102574892;-0.994724214
2024/05/03/13:34:23.223584;225016;1714768463;223275231;world;2.49E-05;2.54E-06;-9.74E-05;-0.001129734;-0.00102561;0.103832044;-0.99459368
2024/05/03/13:34:23.233666;225017;1714768463;233357959;world;2.73E-05;3.60E-05;-6.98E-05;-0.001180015;-0.00094611;0.10514345;-0.994455993
2024/05/03/13:34:23.253385;225018;1714768463;253106421;world;3.25E-05;2.15E-05;-7.79E-05;-0.001156686;-0.001032135;0.10641145;-0.994320989
2024/05/03/13:34:23.263180;225019;1714768463;262924122;world;6.18E-05;-1.34E-06;-6.08E-05;-0.001167928;-0.001023107;0.107836567;-0.994167447
2024/05/03/13:34:23.273234;225020;1714768463;272899736;world;6.87E-05;8.25E-07;-4.52E-05;-0.001094686;-0.001056048;0.109110497;-0.994028449
2024/05/03/13:34:23.293569;225021;1714768463;293225378;world;7.33E-05;5.90E-06;-2.90E-05;-0.001020882;-0.001112918;0.110435687;-0.993882179
2024/05/03/13:34:23.313472;225022;1714768463;313159393;world;7.97E-05;6.24E-06;-4.48E-05;-0.000960709;-0.001161037;0.111759946;-0.993734181
2024/05/03/13:34:23.333582;225023;1714768463;333245732;world;5.51E-05;1.56E-05;-6.25E-05;-0.000985112;-0.001241999;0.11306449;-0.993586361
2024/05/03/13:34:23.353472;225024;1714768463;353159860;world;5.16E-05;2.16E-05;-5.99E-05;-0.000995497;-0.001252522;0.113673046;-0.993516922
2024/05/03/13:34:23.353501;225025;1714768463;353193172;world;3.75E-05;4.21E-05;-0.000102909;-0.000829988;-0.001181133;0.115019612;-0.993362188
2024/05/03/13:34:23.373513;225026;1714768463;373193722;world;8.62E-05;5.08E-05;-8.58E-05;-0.000967877;-0.001270557;0.11635758;-0.993206143
2024/05/03/13:34:23.383739;225027;1714768463;383406191;world;0.000100695;3.40E-05;-8.76E-05;-0.001061988;-0.001292335;0.117657393;-0.9930529
2024/05/03/13:34:23.403908;225028;1714768463;403215394;world;0.000118844;3.99E-05;-8.66E-05;-0.001106298;-0.001313393;0.118259966;-0.992981195
2024/05/03/13:34:23.413317;225029;1714768463;412954334;world;0.000128921;5.76E-05;-7.03E-05;-0.00114895;-0.001282977;0.119566254;-0.992824793
2024/05/03/13:34:23.433647;225030;1714768463;433350456;world;0.000185873;8.25E-05;-6.55E-05;-0.001291756;-0.001250252;0.120807521;-0.99267441
2024/05/03/13:34:23.473619;225031;1714768463;473250671;world;0.000213768;7.11E-05;-6.59E-05;-0.001228169;-0.00128657;0.122159258;-0.992508948
2024/05/03/13:34:23.473648;225032;1714768463;473302267;world;0.000226863;5.32E-05;-5.99E-05;-0.001176469;-0.001339406;0.123529978;-0.992339253
2024/05/03/13:34:23.483483;225033;1714768463;483204057;world;0.000257235;1.97E-05;-5.73E-05;-0.001182563;-0.001383653;0.124859817;-0.992172718
2024/05/03/13:34:23.493096;225034;1714768463;492838694;world;0.000270475;2.61E-05;-5.71E-05;-0.001076806;-0.001436792;0.126203284;-0.992002845
2024/05/03/13:34:23.513987;225035;1714768463;513332397;world;0.00022456;-1.72E-05;-4.76E-05;-0.000914519;-0.001379913;0.127583921;-0.991826415
2024/05/03/13:34:23.533395;225036;1714768463;533108932;world;0.000226289;-1.82E-05;-5.68E-05;-0.000868375;-0.001370266;0.128953397;-0.991649389
2024/05/03/13:34:23.553272;225037;1714768463;552979258;world;0.000214335;-1.59E-05;-5.92E-05;-0.000807863;-0.001369447;0.13033466;-0.991468787
2024/05/03/13:34:23.563839;225038;1714768463;563161873;world;0.000190191;-2.44E-05;-7.49E-05;-0.000827609;-0.001447503;0.130967066;-0.991385341
2024/05/03/13:34:23.573294;225039;1714768463;573017669;world;0.000213705;-2.28E-05;-8.68E-05;-0.000914845;-0.001453676;0.132260218;-0.99121362
2024/05/03/13:34:23.593389;225040;1714768463;592973063;world;0.00022212;7.47E-06;-8.21E-05;-0.00101162;-0.001379063;0.133577138;-0.991037011
2024/05/03/13:34:23.603520;225041;1714768463;603128275;world;0.000201549;-1.98E-06;-8.89E-05;-0.000999984;-0.001395431;0.134912223;-0.990856051
2024/05/03/13:34:23.633333;225042;1714768463;633021910;world;0.000225294;1.40E-05;-0.00011284;-0.001066388;-0.001461224;0.13621439;-0.990677714
2024/05/03/13:34:23.643454;225043;1714768463;643137468;world;0.00021752;3.27E-05;-0.000108301;-0.001088285;-0.001435151;0.13741228;-0.990512311
2024/05/03/13:34:23.683559;225044;1714768463;683289789;world;0.000189912;4.79E-05;-0.00010585;-0.001087278;-0.001377544;0.138702229;-0.990332663
2024/05/03/13:34:23.683589;225046;1714768463;683336085;world;0.000173576;4.78E-05;-8.75E-05;-0.000970063;-0.001405192;0.140753925;-0.990043163
2024/05/03/13:34:23.703541;225047;1714768463;703235316;world;0.000184689;6.68E-05;-0.000118811;-0.001151912;-0.001359424;0.14196907;-0.989869535
2024/05/03/13:34:23.713145;225048;1714768463;712842090;world;0.000210889;3.07E-05;-0.000120605;-0.001347192;-0.001424369;0.143407583;-0.989661813
2024/05/03/13:34:23.744344;225049;1714768463;743084612;world;0.000217747;2.21E-05;-0.000124631;-0.001269317;-0.001403887;0.144724935;-0.989470124
2024/05/03/13:34:23.744379;225050;1714768463;743123604;world;0.000198245;2.20E-05;-0.00014674;-0.001256763;-0.001382973;0.146039262;-0.989277005
2024/05/03/13:34:23.763243;225051;1714768463;762935113;world;0.000245627;5.98E-06;-0.000131948;-0.001373212;-0.001450318;0.146639451;-0.989188015
2024/05/03/13:34:23.783333;225052;1714768463;782963584;world;0.000131063;3.64E-06;-0.000131426;-0.0011655;-0.001450179;0.148694336;-0.988881528
2024/05/03/13:34:23.793509;225053;1714768463;793040921;world;0.000208214;-5.92E-06;-0.000127306;-0.001357246;-0.001459222;0.149344698;-0.988783181
2024/05/03/13:34:23.803530;225054;1714768463;803153454;world;0.000193063;1.03E-05;-0.000142947;-0.001288669;-0.001505594;0.150618777;-0.988589942
2024/05/03/13:34:23.823333;225055;1714768463;823046414;world;0.000189535;1.35E-05;-0.000146915;-0.001417057;-0.001575277;0.15193288;-0.988388598
2024/05/03/13:34:23.844283;225056;1714768463;843894966;world;0.000144526;3.53E-05;-0.000115967;-0.001487173;-0.001513308;0.153389201;-0.98816365
2024/05/03/13:34:23.884296;225057;1714768463;883295571;world;0.000107285;3.03E-05;-0.000149511;-0.001247379;-0.001561795;0.154612407;-0.987973213
2024/05/03/13:34:23.884553;225059;1714768463;883339423;world;0.000129245;4.28E-05;-0.000230354;-0.001361396;-0.001746173;0.157141864;-0.987573564
2024/05/03/13:34:23.903642;225060;1714768463;903345812;world;0.000151608;7.55E-05;-0.000194571;-0.001422599;-0.001658301;0.158441871;-0.987365961
2024/05/03/13:34:23.923643;225061;1714768463;923269368;world;0.00016579;7.56E-05;-0.000193003;-0.001332939;-0.001748269;0.159751311;-0.987154841
2024/05/03/13:34:23.933786;225062;1714768463;933470445;world;0.000239003;6.17E-05;-0.000171463;-0.001418513;-0.001769224;0.160406396;-0.987048447
2024/05/03/13:34:23.953244;225063;1714768463;952914493;world;0.000354119;6.42E-05;-0.000168579;-0.001591303;-0.001700774;0.161687002;-0.986839354
2024/05/03/13:34:23.963333;225064;1714768463;963081978;world;0.00041927;4.68E-05;-9.80E-05;-0.001691302;-0.001470109;0.163098648;-0.986607313
2024/05/03/13:34:23.983165;225065;1714768463;982894027;world;0.000361878;5.41E-05;-9.15E-05;-0.001517663;-0.001480775;0.164569452;-0.986363232
2024/05/03/13:34:23.993384;225066;1714768463;992979099;world;0.000333741;7.33E-05;-0.000123627;-0.001362202;-0.001441487;0.165911004;-0.986138761
2024/05/03/13:34:24.013651;225067;1714768464;13304560;world;0.000327166;6.97E-05;-0.000112856;-0.001194056;-0.001455912;0.166566819;-0.986028373
2024/05/03/13:34:24.033219;225068;1714768464;32951795;world;0.000287622;2.85E-05;-7.99E-05;-0.001187914;-0.001275056;0.168665543;-0.985671878
2024/05/03/13:34:24.043242;225069;1714768464;42942481;world;0.000346016;8.40E-06;-8.37E-05;-0.001401024;-0.001318025;0.169136435;-0.985590816
2024/05/03/13:34:24.093175;225070;1714768464;92861233;world;0.000366613;-1.26E-05;-0.000119382;-0.001551694;-0.001475391;0.170433;-0.98536694
2024/05/03/13:34:24.093198;225072;1714768464;92913200;world;0.00027629;2.25E-05;-0.000176225;-0.001175573;-0.001727351;0.173262328;-0.984873533
2024/05/03/13:34:24.103447;225073;1714768464;103178873;world;0.000314079;2.36E-05;-0.000140329;-0.001255738;-0.001681733;0.17451869;-0.984651685
2024/05/03/13:34:24.123658;225074;1714768464;123411057;world;0.000259712;-4.59E-05;-0.000114334;-0.001208804;-0.00159673;0.176201493;-0.984352052
2024/05/03/13:34:24.153171;225075;1714768464;152886607;world;0.000253364;-3.33E-05;-0.000145914;-0.001375538;-0.001568187;0.17751497;-0.984115899
2024/05/03/13:34:24.153199;225076;1714768464;152916572;world;0.000335511;-6.05E-06;-0.000159678;-0.001736971;-0.00176512;0.178655073;-0.983908713
2024/05/03/13:34:24.163518;225077;1714768464;163215300;world;0.000355788;7.68E-06;-0.000152214;-0.001729819;-0.001762921;0.179388523;-0.983775198
2024/05/03/13:34:24.183598;225078;1714768464;183241719;world;0.000376333;8.43E-06;-0.000147934;-0.001782918;-0.001723372;0.180650488;-0.98354429
2024/05/03/13:34:24.203678;225079;1714768464;203411364;world;0.000381298;2.60E-05;-0.000156953;-0.001815349;-0.001695622;0.181908131;-0.983312428
2024/05/03/13:34:24.213579;225080;1714768464;213239256;world;0.000430495;2.75E-06;-0.000144524;-0.001836666;-0.001658553;0.18321608;-0.983069539
2024/05/03/13:34:24.233314;225081;1714768464;233007725;world;0.000376143;-4.44E-06;-0.000126466;-0.001756319;-0.001637291;0.184559971;-0.982818305
2024/05/03/13:34:24.253389;225082;1714768464;253044883;world;0.000373203;1.65E-05;-0.000129662;-0.001609013;-0.001561599;0.185895011;-0.982567132
2024/05/03/13:34:24.293703;225083;1714768464;293377178;world;0.000353761;-2.57E-07;-0.000137337;-0.001511307;-0.001560125;0.186575413;-0.982438266
2024/05/03/13:34:24.293730;225085;1714768464;293421019;world;0.000306044;-1.22E-06;-0.000128842;-0.001347039;-0.00158962;0.189261287;-0.981924534
2024/05/03/13:34:24.313620;225086;1714768464;313268013;world;0.000184737;-2.54E-05;-0.000153135;-0.000845638;-0.001642052;0.190751314;-0.981636703
2024/05/03/13:34:24.323882;225087;1714768464;323450737;world;0.000201054;-5.89E-06;-0.000156698;-0.000901829;-0.001715986;0.191955402;-0.981401742
2024/05/03/13:34:24.353278;225088;1714768464;352978072;world;0.000223499;3.87E-06;-0.000171197;-0.001258965;-0.001723883;0.193185195;-0.981159985
2024/05/03/13:34:24.353307;225089;1714768464;353011785;world;0.000299796;-1.59E-05;-0.000173413;-0.001540802;-0.001745505;0.194381401;-0.980923295
2024/05/03/13:34:24.403691;225090;1714768464;403171384;world;0.000356529;-2.63E-05;-0.000147063;-0.001695324;-0.001740943;0.195675775;-0.980665624
2024/05/03/13:34:24.403717;225092;1714768464;403215235;world;0.000413705;-2.67E-05;-0.000159998;-0.001788336;-0.001737014;0.197699711;-0.980259538
2024/05/03/13:34:24.413288;225093;1714768464;412968041;world;0.000387516;-1.89E-05;-0.000163738;-0.001773522;-0.001870529;0.198916033;-0.980013192
2024/05/03/13:34:24.433540;225094;1714768464;433258096;world;0.000418197;-3.73E-05;-0.000126276;-0.001929297;-0.001847157;0.20029071;-0.979732871
2024/05/03/13:34:24.453414;225095;1714768464;453122524;world;0.000392996;-2.39E-05;-0.000129339;-0.001709165;-0.001864845;0.201586649;-0.979467452
2024/05/03/13:34:24.463296;225096;1714768464;462966018;world;0.00037444;-2.20E-05;-0.000138733;-0.001742445;-0.001868109;0.202850759;-0.979206324
2024/05/03/13:34:24.483551;225097;1714768464;482905605;world;0.000329562;-3.61E-05;-0.000140685;-0.001862104;-0.001801645;0.204154164;-0.978935301
2024/05/03/13:34:24.493223;225098;1714768464;492924521;world;0.000326846;-3.87E-05;-0.000145651;-0.001799278;-0.001825429;0.205406174;-0.978673518
2024/05/03/13:34:24.513319;225099;1714768464;512924373;world;0.00030417;-4.80E-05;-0.000154006;-0.001697388;-0.001822478;0.20664984;-0.978411794
2024/05/03/13:34:24.523460;225100;1714768464;523155557;world;0.000308093;-3.60E-05;-0.000155353;-0.001715083;-0.001851118;0.207256585;-0.978283405
2024/05/03/13:34:24.553467;225101;1714768464;553176037;world;0.000327319;-3.03E-05;-0.000131317;-0.001765466;-0.001844772;0.209173724;-0.977875233
2024/05/03/13:34:24.563182;225102;1714768464;562911851;world;0.000309341;-1.93E-05;-0.000127437;-0.001692038;-0.001820493;0.209867626;-0.977726638
2024/05/03/13:34:24.583490;225103;1714768464;583194644;world;0.00026134;-1.56E-06;-0.000140756;-0.001689487;-0.001871961;0.211079478;-0.97746563
2024/05/03/13:34:24.593203;225104;1714768464;592903108;world;0.000241488;6.03E-06;-0.000151124;-0.001607386;-0.001972331;0.212486774;-0.977160692
2024/05/03/13:34:24.603448;225105;1714768464;603144441;world;0.000249147;1.60E-05;-0.000136842;-0.001643239;-0.001955776;0.213808909;-0.976872146
2024/05/03/13:34:24.623224;225106;1714768464;622897782;world;0.000197165;-5.12E-06;-0.000146695;-0.001578119;-0.001931646;0.215210438;-0.976564527
2024/05/03/13:34:24.633178;225107;1714768464;632883419;world;0.000247221;8.59E-06;-0.000134318;-0.001611008;-0.001880256;0.215848282;-0.9764238
2024/05/03/13:34:24.663485;225108;1714768464;663189870;world;0.000340365;-8.50E-06;-0.000156294;-0.00171951;-0.001866552;0.217804819;-0.975989103
2024/05/03/13:34:24.683553;225109;1714768464;683142998;world;0.000365946;-1.16E-05;-0.00014189;-0.001784139;-0.001821806;0.218445957;-0.975845754
2024/05/03/13:34:24.693336;225110;1714768464;693073584;world;0.000303682;-3.50E-05;-0.000135339;-0.001705016;-0.001824256;0.22000429;-0.975495756
2024/05/03/13:34:24.693357;225111;1714768464;693104071;world;0.000329416;-3.81E-05;-0.000133574;-0.001727503;-0.00178939;0.221184403;-0.975228906
2024/05/03/13:34:24.713454;225112;1714768464;713203829;world;0.000322748;-7.21E-05;-0.000150779;-0.001800025;-0.001769291;0.222476929;-0.974934697
2024/05/03/13:34:24.733279;225113;1714768464;732936121;world;0.000313461;-7.76E-05;-0.000145886;-0.001831049;-0.001803048;0.223776191;-0.97463721
2024/05/03/13:34:24.743448;225114;1714768464;743150362;world;0.000289783;-8.18E-05;-0.000143984;-0.001812609;-0.001855552;0.225024834;-0.974349558
2024/05/03/13:34:24.763548;225115;1714768464;763190595;world;0.000285055;-7.74E-05;-0.000168323;-0.001920128;-0.002007992;0.226309642;-0.974051535
2024/05/03/13:34:24.803470;225116;1714768464;803189050;world;0.00024277;-6.75E-05;-0.000165038;-0.001825962;-0.002036919;0.227629632;-0.973744035
2024/05/03/13:34:24.803497;225118;1714768464;803232731;world;0.000277277;-8.78E-05;-0.000176968;-0.001945264;-0.002184092;0.229628652;-0.973273933
2024/05/03/13:34:24.823642;225119;1714768464;823323068;world;0.000293914;-8.77E-05;-0.000201262;-0.002127301;-0.002315879;0.230870828;-0.972979426
2024/05/03/13:34:24.843237;225120;1714768464;842941227;world;0.000315201;-8.08E-05;-0.00020852;-0.002258374;-0.002250488;0.23216328;-0.972671628
2024/05/03/13:34:24.863099;225121;1714768464;862854445;world;0.000360299;-6.02E-05;-0.000201938;-0.002363871;-0.002180458;0.233532295;-0.972343743
2024/05/03/13:34:24.873789;225122;1714768464;873010739;world;0.000494163;-5.36E-05;-0.000195543;-0.002553999;-0.002145401;0.234619126;-0.972081661
2024/05/03/13:34:24.903176;225123;1714768464;902893682;world;0.000472251;-2.44E-05;-0.000188387;-0.002481696;-0.002084299;0.235323444;-0.971911728
2024/05/03/13:34:24.903200;225124;1714768464;902930781;world;0.000470459;3.52E-05;-0.000153436;-0.002415142;-0.00217809;0.236799926;-0.971552968
2024/05/03/13:34:24.913301;225125;1714768464;912972096;world;0.000405941;4.47E-05;-0.000135104;-0.002186121;-0.002078143;0.238076448;-0.971241713
2024/05/03/13:34:24.933292;225126;1714768464;932923076;world;0.000307582;-1.71E-06;-9.77E-05;-0.001927642;-0.001974991;0.239474103;-0.970898867
2024/05/03/13:34:24.953494;225127;1714768464;953219782;world;0.000301991;-3.97E-05;-7.64E-05;-0.002055213;-0.002082821;0.24074401;-0.970584214
2024/05/03/13:34:24.973310;225128;1714768464;972972352;world;0.000285015;-5.53E-05;-7.62E-05;-0.002028328;-0.001985235;0.242032006;-0.970264137
2024/05/03/13:34:25.023340;225129;1714768465;22953591;world;0.000270005;-5.91E-05;-8.50E-05;-0.001978681;-0.002088025;0.243318439;-0.969942153
2024/05/03/13:34:25.023392;225132;1714768465;23015316;world;0.000340734;-2.03E-05;-0.000111182;-0.002224277;-0.002135973;0.246353328;-0.96917522
2024/05/03/13:34:25.043468;225133;1714768465;43185741;world;0.000332691;-3.64E-05;-0.000151045;-0.002175304;-0.002252796;0.247586846;-0.968860686
2024/05/03/13:34:25.063825;225134;1714768465;63400114;world;0.000313625;-2.88E-05;-0.000151812;-0.002183101;-0.002241855;0.248935774;-0.968514919
2024/05/03/13:34:25.073403;225135;1714768465;73192739;world;0.000310834;-6.12E-05;-0.00013256;-0.002078517;-0.002191664;0.250258505;-0.968174338
2024/05/03/13:34:25.123492;225136;1714768465;123206047;world;0.00032153;-5.55E-05;-0.000131139;-0.002079736;-0.002181696;0.251520187;-0.967847347
2024/05/03/13:34:25.123517;225138;1714768465;123254046;world;0.000365689;-4.70E-05;-0.000138602;-0.002180546;-0.002145403;0.254183292;-0.967151284
2024/05/03/13:34:25.143648;225139;1714768465;143306242;world;0.000375457;-6.82E-05;-0.000121346;-0.002243123;-0.002163131;0.255485624;-0.966807842
2024/05/03/13:34:25.153307;225140;1714768465;153045534;world;0.000377979;-7.49E-05;-0.000119664;-0.002329153;-0.002071607;0.256671667;-0.966493726
2024/05/03/13:34:25.173517;225141;1714768465;173252846;world;0.000322688;-6.97E-05;-0.000129348;-0.002330868;-0.002052484;0.2579588;-0.966150999
2024/05/03/13:34:25.213973;225142;1714768465;213573380;world;0.000253119;-9.11E-05;-8.96E-05;-0.00219026;-0.001968131;0.25929749;-0.965793073
2024/05/03/13:34:25.214003;225144;1714768465;213620217;world;0.000258088;-0.000118341;-6.36E-05;-0.002194055;-0.002065171;0.261186153;-0.965283811
2024/05/03/13:34:25.233362;225145;1714768465;233105741;world;0.000229809;-9.87E-05;-7.06E-05;-0.00217797;-0.002094456;0.262476563;-0.964933634
2024/05/03/13:34:25.243309;225146;1714768465;242872973;world;0.000223756;-9.84E-05;-7.45E-05;-0.002002001;-0.002126781;0.263838768;-0.964562356
2024/05/03/13:34:25.263478;225147;1714768465;263135860;world;0.000219632;-0.000101637;-6.84E-05;-0.002088874;-0.00210684;0.264481485;-0.964386284
2024/05/03/13:34:25.273560;225148;1714768465;273291113;world;0.000200979;-8.97E-05;-6.51E-05;-0.002086233;-0.002065996;0.265745014;-0.964038968
2024/05/03/13:34:25.293378;225149;1714768465;293047430;world;0.000150099;-8.05E-05;-4.68E-05;-0.001941247;-0.002024352;0.267618984;-0.963520706
2024/05/03/13:34:25.313376;225150;1714768465;313101270;world;0.00015454;-7.44E-05;-6.77E-05;-0.001995247;-0.002169716;0.268849701;-0.963177681
2024/05/03/13:34:25.333651;225151;1714768465;333231311;world;0.000239659;-6.51E-05;-7.51E-05;-0.002028571;-0.002138262;0.270041257;-0.962844253
2024/05/03/13:34:25.343572;225152;1714768465;343300103;world;0.000210457;-7.08E-05;-8.93E-05;-0.001997524;-0.002177986;0.270746261;-0.962646246
2024/05/03/13:34:25.353232;225153;1714768465;352918299;world;0.000161421;-9.00E-05;-0.000106479;-0.002108077;-0.002236094;0.272116095;-0.962259531
2024/05/03/13:34:25.373766;225154;1714768465;373454653;world;0.000163779;-0.000107907;-0.000102463;-0.002099969;-0.002252518;0.27283898;-0.962054789
2024/05/03/13:34:25.383300;225155;1714768465;383030591;world;0.000216685;-9.41E-05;-0.000186384;-0.002435388;-0.002426818;0.27397415;-0.961730957
2024/05/03/13:34:25.413544;225156;1714768465;413234573;world;0.000249233;-9.93E-05;-0.000162017;-0.002538887;-0.00240768;0.275989622;-0.961154222
2024/05/03/13:34:25.423507;225157;1714768465;423198360;world;7.64E-05;-0.000131179;-0.000104805;-0.002228172;-0.002273132;0.27704671;-0.960851252
2024/05/03/13:34:25.433365;225158;1714768465;432989878;world;7.07E-05;-0.000140253;-0.000139518;-0.002323214;-0.002281448;0.278251529;-0.960502803
2024/05/03/13:34:25.453331;225159;1714768465;452943321;world;0.000220988;-8.50E-05;-0.000119451;-0.00220973;-0.002196259;0.279109508;-0.960254312
2024/05/03/13:34:25.463642;225160;1714768465;462976386;world;0.000289291;-8.01E-05;-0.000112894;-0.00224187;-0.002108364;0.280281067;-0.959913135
2024/05/03/13:34:25.483516;225161;1714768465;483273297;world;0.000270572;-4.96E-05;-0.00011709;-0.002192909;-0.002129214;0.281609595;-0.959524214
2024/05/03/13:34:25.503721;225162;1714768465;503095536;world;0.000308428;-6.72E-05;-0.000129667;-0.002267119;-0.00210357;0.282768458;-0.959183216
2024/05/03/13:34:25.513405;225163;1714768465;513106290;world;0.000305951;-5.61E-05;-0.000133671;-0.00232682;-0.002079078;0.283389449;-0.958999813
2024/05/03/13:34:25.523562;225164;1714768465;523230782;world;0.000315107;-5.92E-05;-0.000139971;-0.002219713;-0.002090784;0.284655005;-0.958625197
2024/05/03/13:34:25.543689;225165;1714768465;543402004;world;0.000296917;-3.69E-05;-8.49E-05;-0.002087242;-0.001903253;0.285974026;-0.958233178
2024/05/03/13:34:25.553414;225166;1714768465;553096973;world;0.000240717;-2.45E-05;-7.20E-05;-0.001974845;-0.001805982;0.28726092;-0.957848668
2024/05/03/13:34:25.583331;225167;1714768465;583053126;world;0.000238482;-5.20E-05;-2.34E-05;-0.002055251;-0.001566648;0.288671017;-0.957424939
2024/05/03/13:34:25.583354;225168;1714768465;583093190;world;0.000258051;-4.53E-05;-4.16E-05;-0.002298926;-0.001654791;0.290016085;-0.95701766
2024/05/03/13:34:25.613580;225169;1714768465;613280751;world;0.000262655;-4.57E-05;-3.71E-05;-0.002160855;-0.00166146;0.291220039;-0.956652224
2024/05/03/13:34:25.623619;225170;1714768465;623324827;world;0.000236824;-2.93E-05;-2.41E-05;-0.002137063;-0.001647152;0.292523682;-0.956254542
2024/05/03/13:34:25.633666;225171;1714768465;633261821;world;0.000222579;-1.05E-05;-6.02E-05;-0.002133607;-0.001691742;0.293127745;-0.956069469
2024/05/03/13:34:25.653230;225172;1714768465;652925660;world;0.000252474;-2.19E-05;-4.39E-05;-0.002096879;-0.001680622;0.294983715;-0.955498517
2024/05/03/13:34:25.673355;225173;1714768465;673150577;world;0.000169523;-2.35E-05;-8.47E-05;-0.001953454;-0.001910678;0.296322316;-0.955084145
2024/05/03/13:34:25.683377;225174;1714768465;683019760;world;0.000158731;-2.43E-05;-9.74E-05;-0.002039111;-0.001957561;0.296915501;-0.954899549
2024/05/03/13:34:25.733744;225175;1714768465;733351348;world;0.000166569;-3.69E-05;-0.000105076;-0.00210292;-0.001880599;0.298168391;-0.954509139
2024/05/03/13:34:25.733764;225177;1714768465;733395610;world;0.000170521;-5.89E-05;-0.000116234;-0.002088154;-0.00186012;0.300678998;-0.953721285
2024/05/03/13:34:25.743237;225178;1714768465;743014027;world;0.000152599;-5.78E-05;-0.000104713;-0.002021054;-0.001835509;0.301970065;-0.953313529
2024/05/03/13:34:25.763536;225179;1714768465;763338738;world;0.000197288;-6.79E-05;-0.000126155;-0.001984516;-0.001775132;0.303186148;-0.952927709
2024/05/03/13:34:25.783546;225180;1714768465;783265794;world;0.000217374;-7.28E-05;-0.000108743;-0.002011635;-0.001821299;0.303806871;-0.952729821
2024/05/03/13:34:25.793221;225181;1714768465;792978674;world;0.00021458;-7.67E-05;-9.76E-05;-0.001877858;-0.001733755;0.305129558;-0.952307463
2024/05/03/13:34:25.813341;225182;1714768465;813051660;world;0.000190157;-7.42E-05;-9.89E-05;-0.001930514;-0.001726558;0.306380004;-0.951905787
2024/05/03/13:34:25.823126;225183;1714768465;822861971;world;0.000226699;-5.75E-05;-8.84E-05;-0.002038308;-0.0017088;0.307614326;-0.95150739
2024/05/03/13:34:25.843554;225184;1714768465;843316623;world;0.000192169;-1.91E-05;-8.52E-05;-0.001888242;-0.001714581;0.308944106;-0.951076806
2024/05/03/13:34:25.853270;225185;1714768465;853039123;world;0.00022177;5.60E-06;-7.29E-05;-0.001894161;-0.001747714;0.310145289;-0.95068568
2024/05/03/13:34:25.873318;225186;1714768465;873080158;world;0.000254828;2.44E-05;-1.41E-05;-0.00211836;-0.001606786;0.311369985;-0.950285077
2024/05/03/13:34:25.893120;225187;1714768465;892854408;world;0.000221495;1.89E-05;-1.39E-05;-0.001878608;-0.00164692;0.312061816;-0.95005852
2024/05/03/13:34:25.923260;225188;1714768465;922994171;world;0.000221502;7.96E-06;-2.65E-05;-0.001890169;-0.001847834;0.313911974;-0.949448466
2024/05/03/13:34:25.923285;225189;1714768465;923027764;world;0.000213791;-5.22E-06;-1.46E-05;-0.001885198;-0.001870761;0.314520836;-0.949246824
2024/05/03/13:34:25.933201;225190;1714768465;932938504;world;0.000236817;-2.06E-05;6.51E-06;-0.001949011;-0.001821248;0.315708876;-0.94885236
2024/05/03/13:34:25.953314;225191;1714768465;953019423;world;0.000198796;-3.07E-06;1.70E-05;-0.001878051;-0.001850573;0.316974133;-0.948430538
2024/05/03/13:34:25.963269;225192;1714768465;962974395;world;0.00017545;-4.62E-07;-4.30E-06;-0.001958087;-0.001855227;0.31825754;-0.948000491
2024/05/03/13:34:25.993487;225193;1714768465;993096885;world;0.000188403;3.84E-07;-1.46E-05;-0.001976768;-0.001807493;0.319470435;-0.947592497
2024/05/03/13:34:25.993513;225194;1714768465;993133082;world;0.000201035;-1.34E-05;-2.97E-06;-0.002081912;-0.001804902;0.320773751;-0.947151899
2024/05/03/13:34:26.023503;225195;1714768466;23099203;world;0.000182562;-1.90E-05;-4.02E-06;-0.00207451;-0.001791754;0.321403354;-0.946938396
2024/05/03/13:34:26.033216;225196;1714768466;32867298;world;0.000131465;2.16E-05;3.18E-05;-0.002206785;-0.001689441;0.323340625;-0.946278572
2024/05/03/13:34:26.043508;225197;1714768466;43206643;world;0.000121351;6.24E-06;2.00E-05;-0.002205482;-0.00172952;0.324617445;-0.945841312
2024/05/03/13:34:26.063400;225198;1714768466;62991533;world;9.89E-05;3.63E-06;2.78E-05;-0.002156899;-0.001721107;0.325236738;-0.945628583
2024/05/03/13:34:26.073178;225199;1714768466;72889258;world;0.000141755;5.98E-06;3.17E-06;-0.002368035;-0.001771267;0.327030569;-0.945009112
2024/05/03/13:34:26.093730;225200;1714768466;93379158;world;0.000163298;-6.32E-06;4.48E-06;-0.002438956;-0.001731076;0.327642024;-0.944797218
2024/05/03/13:34:26.113590;225201;1714768466;113116782;world;0.000248462;-1.57E-05;1.48E-05;-0.002588046;-0.001688783;0.328803807;-0.944393158
2024/05/03/13:34:26.123630;225202;1714768466;123320132;world;0.000295281;-6.59E-06;3.49E-05;-0.002627383;-0.001796216;0.330126971;-0.943931222
2024/05/03/13:34:26.143426;225203;1714768466;143114139;world;0.000174008;-3.92E-05;9.02E-06;-0.002472924;-0.001995353;0.331561893;-0.943428099
2024/05/03/13:34:26.153658;225204;1714768466;153359661;world;0.000209872;-1.37E-05;-1.71E-05;-0.002601459;-0.001977168;0.332728654;-0.943016946
2024/05/03/13:34:26.163439;225205;1714768466;163138785;world;0.000233602;-2.65E-05;-2.57E-05;-0.002685219;-0.001955885;0.333356172;-0.942795217
2024/05/03/13:34:26.193255;225206;1714768466;192889467;world;0.000187356;-1.31E-05;-3.08E-05;-0.002465053;-0.001962431;0.33472693;-0.942309916
2024/05/03/13:34:26.203338;225207;1714768466;203028240;world;0.000215635;1.77E-05;-3.97E-05;-0.002576987;-0.002073188;0.336054087;-0.941836894
2024/05/03/13:34:26.243327;225208;1714768466;243046522;world;0.000193324;3.87E-05;-4.16E-05;-0.002480462;-0.002049435;0.337342054;-0.941376626
2024/05/03/13:34:26.243378;225209;1714768466;243079774;world;0.000186466;3.79E-05;-2.51E-05;-0.002481312;-0.00201271;0.338595361;-0.940926671
2024/05/03/13:34:26.253592;225210;1714768466;253308687;world;0.000182912;4.35E-05;-1.82E-05;-0.002517286;-0.001994019;0.33985734;-0.94047153
2024/05/03/13:34:26.263529;225211;1714768466;263164348;world;0.000172444;4.29E-05;-1.17E-05;-0.002458434;-0.0019815;0.340453148;-0.940256238
2024/05/03/13:34:26.283629;225212;1714768466;283354045;world;0.000121158;3.94E-05;-6.30E-06;-0.002494498;-0.002030813;0.342362374;-0.939562559
2024/05/03/13:34:26.303641;225213;1714768466;303366157;world;0.000142906;2.70E-05;-1.18E-05;-0.002466188;-0.002016857;0.342918962;-0.939359605
2024/05/03/13:34:26.303663;225214;1714768466;303394329;world;0.000120927;1.51E-05;8.94E-07;-0.002494978;-0.002093316;0.344225079;-0.938881516
2024/05/03/13:34:26.323551;225215;1714768466;323050740;world;0.00014789;5.70E-07;1.91E-05;-0.002550622;-0.002089246;0.345445931;-0.938432932
2024/05/03/13:34:26.343190;225216;1714768466;342923544;world;0.000125589;5.74E-06;1.56E-06;-0.002558906;-0.002122647;0.346749723;-0.937951863
2024/05/03/13:34:26.353540;225217;1714768466;353323120;world;0.000120673;2.64E-05;1.87E-05;-0.002558037;-0.002153724;0.348007917;-0.937485695
2024/05/03/13:34:26.373326;225218;1714768466;373103721;world;0.000145143;2.29E-05;5.42E-05;-0.00249978;-0.002179338;0.34935537;-0.93698442
2024/05/03/13:34:26.383439;225219;1714768466;383190318;world;0.000149593;1.80E-05;5.99E-05;-0.002495717;-0.002146881;0.350595504;-0.936521232
2024/05/03/13:34:26.413633;225220;1714768466;413315735;world;0.000157058;2.74E-05;5.14E-05;-0.00247905;-0.002113217;0.351151139;-0.936313093
2024/05/03/13:34:26.453402;225221;1714768466;453105143;world;0.000118149;3.31E-05;6.09E-05;-0.002401764;-0.002066957;0.353129268;-0.935569167
2024/05/03/13:34:26.453852;225223;1714768466;453150497;world;0.000143325;3.94E-05;3.15E-05;-0.002423045;-0.002114119;0.354928076;-0.934888124
2024/05/03/13:34:26.463638;225224;1714768466;463303176;world;0.000151539;3.38E-05;4.29E-05;-0.002415202;-0.002075649;0.356186807;-0.93440938
2024/05/03/13:34:26.483288;225225;1714768466;483017651;world;9.96E-05;4.64E-05;2.60E-05;-0.002387751;-0.002136427;0.357492357;-0.933910549
2024/05/03/13:34:26.503485;225226;1714768466;503197408;world;9.68E-05;4.86E-05;6.33E-06;-0.002474559;-0.002144598;0.358138323;-0.933662772
2024/05/03/13:34:26.513394;225227;1714768466;513103450;world;7.66E-05;2.14E-05;2.23E-05;-0.00256829;-0.002070892;0.359387457;-0.933182597
2024/05/03/13:34:26.543703;225228;1714768466;543044083;world;3.59E-05;1.74E-05;5.29E-05;-0.002485889;-0.002203783;0.36125955;-0.932459414
2024/05/03/13:34:26.543725;225229;1714768466;543078006;world;-1.54E-05;3.39E-05;3.88E-05;-0.002567599;-0.00215933;0.361955971;-0.932189167
2024/05/03/13:34:26.563204;225230;1714768466;562903985;world;-2.82E-05;5.81E-05;1.12E-05;-0.002559571;-0.00214702;0.363225073;-0.931695521
2024/05/03/13:34:26.573502;225231;1714768466;573252325;world;-4.26E-05;5.89E-05;6.05E-06;-0.002645886;-0.002229972;0.364430219;-0.931224287
2024/05/03/13:34:26.593804;225232;1714768466;593184749;world;-4.83E-05;6.62E-05;2.67E-05;-0.002650368;-0.002287714;0.365681261;-0.930733621
2024/05/03/13:34:26.603126;225233;1714768466;602851892;world;-9.21E-05;8.37E-05;1.57E-05;-0.002626055;-0.002309866;0.366905481;-0.930251718
2024/05/03/13:34:26.643579;225234;1714768466;643285228;world;-0.00010596;0.000103578;1.84E-05;-0.002730218;-0.002264524;0.368253589;-0.929718673
2024/05/03/13:34:26.643632;225235;1714768466;643319822;world;-9.64E-05;0.000102695;4.64E-05;-0.00272618;-0.002212306;0.368866503;-0.929475784
2024/05/03/13:34:26.653186;225236;1714768466;652922730;world;-4.78E-05;8.70E-05;5.14E-05;-0.002879159;-0.002231574;0.370667964;-0.928758264
2024/05/03/13:34:26.673292;225237;1714768466;672973445;world;-2.19E-05;0.000104807;2.11E-05;-0.00290328;-0.002245958;0.371982634;-0.928232431
2024/05/03/13:34:26.683723;225238;1714768466;683352964;world;-9.93E-06;0.000103109;3.89E-06;-0.002900822;-0.00220001;0.373127103;-0.927773118
2024/05/03/13:34:26.713714;225239;1714768466;713370310;world;-1.31E-05;0.000112478;1.44E-05;-0.002904564;-0.002208507;0.373707384;-0.927539527
2024/05/03/13:34:26.713739;225240;1714768466;713413079;world;0.00010062;6.66E-05;-5.31E-06;-0.003247477;-0.001939296;0.374725372;-0.927128136
2024/05/03/13:34:26.734043;225241;1714768466;733422939;world;8.47E-05;7.07E-05;-1.98E-05;-0.003133402;-0.002050352;0.375973761;-0.926622748
2024/05/03/13:34:26.753356;225242;1714768466;753049183;world;5.67E-05;5.71E-05;-1.86E-05;-0.003133248;-0.002079591;0.377235353;-0.926109791
2024/05/03/13:34:26.763191;225243;1714768466;762925390;world;4.29E-05;5.10E-05;-2.97E-05;-0.003067669;-0.002094635;0.377855659;-0.925857127
2024/05/03/13:34:26.773730;225244;1714768466;773309198;world;6.47E-05;1.47E-05;-1.50E-05;-0.002999695;-0.002090994;0.379076332;-0.925358176
2024/05/03/13:34:26.793463;225245;1714768466;793151543;world;5.91E-05;-2.10E-05;-1.62E-05;-0.003094676;-0.002017411;0.380901098;-0.924608409
2024/05/03/13:34:26.813390;225246;1714768466;813124752;world;4.57E-05;-2.20E-05;-3.86E-05;-0.003222016;-0.002038308;0.381537974;-0.924345374
2024/05/03/13:34:26.843213;225247;1714768466;842974130;world;2.37E-05;-1.84E-05;-7.03E-06;-0.003095974;-0.002027141;0.382861555;-0.923798323
2024/05/03/13:34:26.843235;225248;1714768466;843004997;world;6.70E-05;-3.43E-05;8.33E-06;-0.003081979;-0.00193158;0.384087741;-0.923289418
2024/05/03/13:34:26.853420;225249;1714768466;853075251;world;6.90E-05;-3.11E-05;1.95E-05;-0.003091362;-0.001864136;0.385302812;-0.922783136
2024/05/03/13:34:26.873565;225250;1714768466;873274401;world;0.00011513;-2.65E-05;3.22E-05;-0.003163989;-0.001794503;0.386585593;-0.922246337
2024/05/03/13:34:26.883543;225251;1714768466;883272594;world;0.000112623;-2.65E-05;2.67E-05;-0.003066577;-0.001839771;0.387220293;-0.921980381
2024/05/03/13:34:26.913371;225252;1714768466;912943615;world;9.28E-05;-2.18E-05;6.79E-05;-0.003110649;-0.001854005;0.389077395;-0.921197951
2024/05/03/13:34:26.923291;225253;1714768466;923015645;world;8.56E-05;-1.05E-05;7.41E-05;-0.003071582;-0.00190009;0.389754623;-0.92091161
2024/05/03/13:34:26.933725;225254;1714768466;933467528;world;4.67E-05;3.64E-05;7.88E-05;-0.002973657;-0.001988019;0.39102459;-0.920373321
2024/05/03/13:34:26.953269;225255;1714768466;953019185;world;3.61E-05;5.30E-05;7.11E-05;-0.002929312;-0.002082365;0.392160594;-0.919889748
2024/05/03/13:34:26.963742;225256;1714768466;963230292;world;6.46E-05;2.96E-05;8.61E-05;-0.002889112;-0.002067474;0.393380105;-0.919369042
2024/05/03/13:34:26.983790;225257;1714768466;983415598;world;5.66E-05;3.75E-05;9.63E-05;-0.002781851;-0.002092118;0.394582719;-0.918853819
2024/05/03/13:34:27.003636;225258;1714768467;3317243;world;3.43E-05;4.13E-05;9.62E-05;-0.002760561;-0.002078529;0.395754218;-0.918349981
2024/05/03/13:34:27.013324;225259;1714768467;13057676;world;2.96E-05;4.43E-05;8.97E-05;-0.002694035;-0.002106017;0.396353573;-0.918091536
2024/05/03/13:34:27.063804;225260;1714768467;63165702;world;2.72E-05;5.38E-05;0.000108985;-0.002632687;-0.002107823;0.397538185;-0.917579412
2024/05/03/13:34:27.063851;225262;1714768467;63244689;world;1.36E-05;6.40E-05;0.000144154;-0.002666312;-0.00221589;0.399960488;-0.916525841
2024/05/03/13:34:27.073223;225263;1714768467;72940459;world;2.31E-06;6.01E-05;0.000130052;-0.002654959;-0.002275415;0.401226521;-0.915972173
2024/05/03/13:34:27.093179;225264;1714768467;92877082;world;4.05E-06;4.20E-05;0.000160578;-0.002655057;-0.002192605;0.40242362;-0.915447116
2024/05/03/13:34:27.105252;225265;1714768467;104074330;world;4.10E-05;1.89E-05;0.000143354;-0.002542685;-0.002264271;0.403672636;-0.914897144
2024/05/03/13:34:27.123328;225266;1714768467;123047035;world;3.42E-05;2.46E-05;0.000112023;-0.00271066;-0.002369767;0.40493387;-0.914338946
2024/05/03/13:34:27.143632;225267;1714768467;143297918;world;6.58E-05;2.58E-05;0.000105406;-0.002857276;-0.002271817;0.406161666;-0.913793921
2024/05/03/13:34:27.153356;225268;1714768467;153061544;world;7.65E-05;2.29E-05;9.93E-05;-0.002971316;-0.00233721;0.407307684;-0.913283169
2024/05/03/13:34:27.173473;225269;1714768467;173164366;world;0.000128541;2.08E-05;0.000104328;-0.003212624;-0.002274198;0.407870352;-0.913031459
2024/05/03/13:34:27.183553;225270;1714768467;183271269;world;0.000111647;7.47E-06;0.000110288;-0.003220665;-0.002276919;0.409073323;-0.91249305
2024/05/03/13:34:27.193947;225271;1714768467;193675574;world;0.000100117;-4.59E-06;9.82E-05;-0.003269486;-0.002327711;0.410219699;-0.911977887
2024/05/03/13:34:27.223407;225272;1714768467;223105842;world;6.92E-05;-1.09E-05;0.000160433;-0.003264714;-0.002206575;0.411513567;-0.911395073
2024/05/03/13:34:27.293343;225273;1714768467;292915087;world;5.74E-05;-2.64E-05;0.000167379;-0.003251327;-0.002194192;0.412701786;-0.910857737
2024/05/03/13:34:27.293351;225277;1714768467;292976992;world;6.12E-05;-4.92E-05;0.000168894;-0.003230147;-0.002179751;0.417645693;-0.908601582
2024/05/03/13:34:27.313506;225278;1714768467;313201578;world;8.19E-05;-7.95E-05;0.000155612;-0.00314332;-0.002229323;0.418209136;-0.90834254
2024/05/03/13:34:27.323267;225279;1714768467;322970707;world;7.56E-05;-1.52E-05;0.000120467;-0.003259932;-0.002339781;0.419441491;-0.907773495
2024/05/03/13:34:27.343489;225280;1714768467;343196525;world;8.66E-05;-2.70E-05;0.000126735;-0.00333522;-0.00232664;0.420671016;-0.907204092
2024/05/03/13:34:27.353534;225281;1714768467;353239822;world;0.000140389;-3.22E-05;0.000133882;-0.00334449;-0.002368239;0.421779245;-0.906689346
2024/05/03/13:34:27.373596;225282;1714768467;373017588;world;0.00029931;-3.49E-05;8.63E-05;-0.003451949;-0.002415265;0.422593713;-0.906309426
2024/05/03/13:34:27.383579;225283;1714768467;383210318;world;0.000390628;-1.95E-05;5.36E-05;-0.003699635;-0.002385796;0.423609555;-0.905834198
2024/05/03/13:34:27.403666;225284;1714768467;403368626;world;0.000347866;-4.50E-05;2.69E-05;-0.003823378;-0.002497216;0.424367756;-0.905478477
2024/05/03/13:34:27.423571;225285;1714768467;423246969;world;0.000152862;-6.42E-05;0.000124223;-0.003609951;-0.00239062;0.426815838;-0.904328287
2024/05/03/13:34:27.433369;225286;1714768467;433062702;world;0.000301309;-6.63E-05;8.34E-05;-0.003746331;-0.002344878;0.427633911;-0.903941214
2024/05/03/13:34:27.473516;225287;1714768467;473224393;world;0.000320796;-5.63E-05;7.67E-05;-0.003756112;-0.002350869;0.428185344;-0.903680027
2024/05/03/13:34:27.473539;225288;1714768467;473257465;world;0.000376668;-8.54E-05;5.88E-05;-0.003795868;-0.002338255;0.429352969;-0.903125763
2024/05/03/13:34:27.483656;225289;1714768467;483395287;world;0.000249699;-9.48E-05;9.24E-05;-0.003517297;-0.00231935;0.430844456;-0.902416348
2024/05/03/13:34:27.493387;225290;1714768467;493077562;world;0.000247864;-9.65E-05;7.67E-05;-0.003606641;-0.002407641;0.432083666;-0.901823103
2024/05/03/13:34:27.513227;225291;1714768467;512973500;world;0.000238858;-0.00010683;9.71E-05;-0.00351856;-0.002413908;0.432749778;-0.90150398
2024/05/03/13:34:27.533659;225292;1714768467;533315756;world;0.00022414;-0.000137564;5.89E-05;-0.003169501;-0.002458712;0.434602261;-0.900613546
2024/05/03/13:34:27.573318;225293;1714768467;573045965;world;0.000198349;-0.000147402;6.03E-05;-0.003115711;-0.002540199;0.435227305;-0.900311649
2024/05/03/13:34:27.573345;225295;1714768467;573097471;world;0.00035784;-0.000163883;3.09E-05;-0.003389366;-0.002476416;0.437289208;-0.899311125
2024/05/03/13:34:27.593438;225296;1714768467;593145975;world;0.00032123;-0.000156052;3.30E-05;-0.003282309;-0.002463191;0.438536018;-0.898704231
2024/05/03/13:34:27.603288;225297;1714768467;602901394;world;0.000306414;-0.000120763;5.51E-05;-0.003222257;-0.002398786;0.439805955;-0.898083866
2024/05/03/13:34:27.633334;225298;1714768467;633037930;world;0.000285475;-9.76E-05;6.51E-05;-0.003130425;-0.002374938;0.441022128;-0.89748764
2024/05/03/13:34:27.633360;225299;1714768467;633080309;world;0.000271663;-0.000102352;7.66E-05;-0.003142033;-0.002407017;0.441622198;-0.897192419
2024/05/03/13:34:27.664220;225300;1714768467;663165747;world;0.000130529;-9.38E-05;9.79E-05;-0.002983845;-0.002489918;0.443787903;-0.896123469
2024/05/03/13:34:27.664316;225301;1714768467;663205370;world;0.000103498;-8.28E-05;0.000100609;-0.003026793;-0.002540148;0.444433033;-0.895803332
2024/05/03/13:34:27.683522;225302;1714768467;683229007;world;8.97E-05;-9.62E-05;9.30E-05;-0.003150549;-0.002571966;0.445709527;-0.895168424
2024/05/03/13:34:27.693346;225303;1714768467;693098740;world;0.000133712;-0.000105917;8.98E-05;-0.003217317;-0.002578742;0.44691357;-0.894567609
2024/05/03/13:34:27.713404;225304;1714768467;713096246;world;0.000145042;-9.77E-05;0.000107103;-0.003302454;-0.002580191;0.448120594;-0.893963277
2024/05/03/13:34:27.733106;225305;1714768467;732856832;world;0.000127573;-9.53E-05;0.000111745;-0.003234965;-0.002626492;0.449311137;-0.893365681
2024/05/03/13:34:27.763547;225306;1714768467;763306848;world;0.000106519;-5.93E-05;0.000109847;-0.003079358;-0.002655528;0.449963897;-0.893037438
2024/05/03/13:34:27.773292;225307;1714768467;773020627;world;0.000138955;-4.71E-05;0.000120382;-0.003093384;-0.002695838;0.451169908;-0.892428637
