time;.header.seq;.header.stamp.secs;.header.stamp.nsecs;.header.frame_id;.pose.position.x;.pose.position.y;.pose.position.z;.pose.orientation.x;.pose.orientation.y;.pose.orientation.z;.pose.orientation.w
2024/05/03/13:18:14.963491;163054;1714767494;963170505;world;-1.47E-05;1.71E-05;-9.99E-06;-6.11E-05;5.99E-05;-1.73E-05;1
2024/05/03/13:18:14.973499;163055;1714767494;973203711;world;1.46E-05;1.74E-06;-2.49E-05;4.70E-05;1.26E-05;-7.80E-06;1
2024/05/03/13:18:14.993622;163056;1714767494;993295607;world;-6.48E-06;1.89E-05;-1.30E-06;-7.06E-05;7.50E-05;-4.94E-06;1
2024/05/03/13:18:15.013749;163057;1714767495;13383815;world;2.62E-06;3.09E-06;-2.84E-05;4.64E-05;-2.43E-05;2.03E-05;1
2024/05/03/13:18:15.033708;163058;1714767495;33314884;world;-1.04E-05;1.80E-05;-8.58E-06;-5.62E-05;4.19E-06;9.36E-06;1
2024/05/03/13:18:15.033751;163059;1714767495;33351383;world;-1.63E-05;1.22E-05;-5.55E-06;2.97E-06;2.49E-05;-2.31E-05;1
2024/05/03/13:18:15.063669;163060;1714767495;63282645;world;3.32E-07;2.09E-05;-5.81E-06;5.69E-06;-2.66E-06;2.32E-05;1
2024/05/03/13:18:15.073579;163061;1714767495;73299901;world;1.59E-05;1.85E-05;-2.13E-05;4.85E-05;6.35E-06;5.90E-05;1
2024/05/03/13:18:15.083437;163062;1714767495;83049987;world;8.92E-07;2.20E-05;-1.54E-05;1.02E-05;-3.22E-06;7.23E-05;1
2024/05/03/13:18:15.093207;163063;1714767495;92908135;world;-6.15E-08;1.22E-05;-2.06E-05;-2.86E-05;-1.86E-05;2.99E-05;1
2024/05/03/13:18:15.113557;163064;1714767495;113245656;world;1.34E-05;7.13E-06;-2.29E-05;3.53E-05;-2.35E-05;4.99E-05;1
2024/05/03/13:18:15.133456;163065;1714767495;133071787;world;-1.79E-05;1.42E-05;-8.75E-06;-6.26E-05;4.68E-05;-3.88E-05;1
2024/05/03/13:18:15.143718;163066;1714767495;143364377;world;1.36E-05;1.93E-05;-2.32E-05;2.03E-05;-3.12E-05;6.71E-05;1
2024/05/03/13:18:15.163501;163067;1714767495;163159675;world;6.18E-07;1.57E-05;-1.10E-05;-1.57E-06;2.88E-05;1.13E-05;1
2024/05/03/13:18:15.183268;163068;1714767495;182966090;world;-1.14E-05;2.38E-05;-2.30E-06;-1.15E-05;2.31E-05;1.84E-05;1
2024/05/03/13:18:15.193203;163069;1714767495;192901483;world;9.58E-06;1.75E-05;-1.02E-05;8.81E-07;-2.40E-06;3.84E-05;1
2024/05/03/13:18:15.203386;163070;1714767495;203124214;world;1.66E-05;6.88E-06;-2.29E-05;8.59E-05;3.91E-06;4.04E-05;1
2024/05/03/13:18:15.223232;163071;1714767495;222951909;world;8.62E-06;2.47E-05;-1.87E-05;-1.10E-05;2.47E-06;4.32E-05;1
2024/05/03/13:18:15.233512;163072;1714767495;233228102;world;4.45E-07;2.10E-06;-1.30E-05;-3.41E-05;1.58E-06;2.13E-05;1
2024/05/03/13:18:15.263370;163073;1714767495;263076339;world;1.07E-05;1.07E-05;-1.07E-05;-1.04E-05;-1.17E-05;4.23E-05;1
2024/05/03/13:18:15.263402;163074;1714767495;263115562;world;2.20E-05;2.32E-05;-3.61E-05;7.95E-05;-8.99E-05;8.47E-05;1
2024/05/03/13:18:15.283564;163075;1714767495;283283566;world;4.96E-06;1.19E-05;-1.78E-05;1.56E-05;1.04E-06;4.80E-05;1
2024/05/03/13:18:15.304352;163076;1714767495;304053238;world;1.77E-05;2.17E-05;-9.05E-07;5.10E-05;2.89E-05;2.80E-05;1
2024/05/03/13:18:15.313441;163077;1714767495;313082241;world;1.64E-05;1.56E-05;-1.45E-05;-7.10E-07;-3.45E-06;4.61E-05;1
2024/05/03/13:18:15.343343;163078;1714767495;342974833;world;-4.57E-06;2.44E-05;-3.29E-06;-4.17E-05;5.42E-05;-1.59E-05;1
2024/05/03/13:18:15.343351;163079;1714767495;343019927;world;2.31E-05;1.40E-05;-1.89E-05;4.84E-05;-1.41E-05;7.28E-05;1
2024/05/03/13:18:15.373479;163080;1714767495;373160994;world;6.25E-06;1.04E-05;-1.32E-05;8.11E-06;2.19E-06;-6.52E-07;1
2024/05/03/13:18:15.373506;163081;1714767495;373195158;world;8.12E-06;1.52E-05;-9.45E-06;8.46E-06;-1.60E-06;2.03E-05;1
2024/05/03/13:18:15.393258;163082;1714767495;392970555;world;1.42E-06;1.97E-05;-1.17E-05;-4.50E-05;5.62E-05;-1.13E-06;1
2024/05/03/13:18:15.413371;163083;1714767495;413055822;world;4.67E-06;1.10E-05;-1.59E-05;6.78E-06;-2.03E-07;1.51E-05;1
2024/05/03/13:18:15.423450;163084;1714767495;423225586;world;1.30E-05;8.26E-06;-1.48E-05;-1.46E-05;-5.36E-06;3.65E-05;1
2024/05/03/13:18:15.443242;163085;1714767495;442886628;world;-7.15E-06;2.24E-05;-1.03E-05;-1.36E-05;5.34E-05;7.93E-06;1
2024/05/03/13:18:15.473496;163086;1714767495;473185199;world;1.13E-05;9.33E-06;-2.58E-05;2.94E-05;1.30E-06;1.27E-05;1
2024/05/03/13:18:15.473519;163087;1714767495;473222429;world;4.11E-06;1.41E-05;-2.07E-05;2.21E-05;-3.32E-05;5.75E-05;1
2024/05/03/13:18:15.493678;163088;1714767495;493390342;world;-9.79E-06;1.29E-05;-1.04E-05;-4.22E-05;8.55E-05;-1.73E-05;1
2024/05/03/13:18:15.503130;163089;1714767495;502927760;world;-8.89E-06;1.12E-05;-1.20E-05;-6.28E-05;1.84E-05;8.89E-06;1
2024/05/03/13:18:15.523184;163090;1714767495;522922047;world;-1.19E-05;2.51E-05;-3.13E-06;-2.60E-05;7.68E-06;1.65E-05;1
2024/05/03/13:18:15.543687;163091;1714767495;543306075;world;2.17E-06;7.86E-07;-2.56E-05;-1.72E-05;-1.01E-05;1.99E-05;1
2024/05/03/13:18:15.553244;163092;1714767495;552946384;world;-9.37E-06;7.58E-06;-1.55E-05;1.05E-05;2.42E-05;9.84E-06;1
2024/05/03/13:18:15.573844;163093;1714767495;573170503;world;1.01E-05;1.58E-05;-1.89E-05;4.18E-05;-1.93E-05;4.04E-05;1
2024/05/03/13:18:15.583834;163094;1714767495;583583431;world;-3.89E-07;1.21E-05;-2.46E-05;-4.64E-06;1.10E-05;3.99E-05;1
2024/05/03/13:18:15.603760;163095;1714767495;603382643;world;1.71E-05;1.85E-05;-1.66E-05;7.34E-05;1.43E-06;4.37E-05;1
2024/05/03/13:18:15.614017;163096;1714767495;613180728;world;-1.35E-05;2.58E-05;-2.34E-06;-5.81E-05;2.36E-05;7.46E-06;1
2024/05/03/13:18:15.633394;163097;1714767495;633153642;world;-1.16E-05;1.55E-05;-5.85E-06;-6.93E-05;2.95E-05;9.84E-06;1
2024/05/03/13:18:15.643590;163098;1714767495;643334337;world;4.40E-06;1.55E-05;-2.24E-05;3.78E-05;-1.39E-06;2.03E-05;1
2024/05/03/13:18:15.674053;163099;1714767495;673288965;world;9.70E-06;5.31E-06;-1.25E-05;1.70E-05;2.36E-05;2.94E-05;1
2024/05/03/13:18:15.683593;163100;1714767495;683147193;world;-2.00E-06;8.24E-06;-1.52E-05;1.02E-05;-2.17E-05;2.84E-05;1
2024/05/03/13:18:15.693511;163101;1714767495;693208584;world;3.79E-06;1.44E-05;-3.61E-06;-2.99E-05;9.04E-06;2.80E-05;1
2024/05/03/13:18:15.703584;163102;1714767495;703237841;world;1.03E-05;1.86E-05;-2.41E-05;6.47E-05;3.02E-05;1.51E-05;1
2024/05/03/13:18:15.723427;163103;1714767495;723056409;world;-1.63E-05;2.14E-05;-4.06E-06;-1.69E-05;4.23E-05;6.02E-06;1
2024/05/03/13:18:15.743388;163104;1714767495;743124811;world;2.27E-05;1.42E-05;-2.27E-05;2.15E-05;-1.15E-05;2.61E-05;1
2024/05/03/13:18:15.753411;163105;1714767495;753027067;world;-5.92E-06;2.44E-05;-2.34E-06;-6.66E-05;7.33E-05;-7.32E-06;1
2024/05/03/13:18:15.783518;163106;1714767495;783116577;world;1.74E-06;1.35E-05;-1.95E-05;-2.20E-05;-9.85E-07;3.99E-05;1
2024/05/03/13:18:15.783527;163107;1714767495;783157254;world;3.15E-06;2.16E-05;-6.81E-06;-3.91E-05;5.77E-05;4.60E-06;1
2024/05/03/13:18:15.803952;163108;1714767495;803502098;world;-3.95E-06;1.92E-05;-9.09E-06;-2.48E-05;4.83E-05;-3.40E-05;1
2024/05/03/13:18:15.823537;163109;1714767495;823162700;world;1.03E-05;1.34E-05;-7.45E-06;5.11E-05;-3.40E-05;3.99E-05;1
2024/05/03/13:18:15.833847;163110;1714767495;833494485;world;-6.63E-06;1.16E-05;-1.08E-05;-3.93E-05;3.71E-05;-8.28E-06;1
2024/05/03/13:18:15.853266;163111;1714767495;852926538;world;-5.33E-07;1.13E-05;-1.80E-05;2.26E-05;3.42E-06;4.32E-05;1
2024/05/03/13:18:15.883831;163112;1714767495;883308468;world;2.56E-06;1.57E-05;-1.42E-05;2.93E-05;-1.76E-05;6.37E-05;1
2024/05/03/13:18:15.883848;163113;1714767495;883389701;world;6.38E-06;5.90E-06;-1.38E-05;3.40E-05;3.71E-05;3.75E-05;1
2024/05/03/13:18:15.893710;163114;1714767495;893437442;world;6.13E-06;2.02E-05;-1.32E-05;-2.97E-05;1.19E-05;4.37E-05;1
2024/05/03/13:18:15.913513;163115;1714767495;913128250;world;-7.04E-06;1.75E-06;-3.12E-05;-5.57E-06;-1.93E-06;4.42E-05;1
2024/05/03/13:18:15.933675;163116;1714767495;933233947;world;-9.77E-06;2.27E-05;8.71E-07;-3.23E-05;9.94E-06;-4.47E-06;1
2024/05/03/13:18:15.953559;163117;1714767495;953182610;world;-1.21E-05;1.72E-05;-6.17E-06;-4.59E-05;3.76E-05;-1.97E-05;1
2024/05/03/13:18:15.953569;163118;1714767495;953225450;world;-2.73E-06;1.04E-05;-2.39E-05;-2.39E-05;-2.64E-05;1.46E-05;1
2024/05/03/13:18:15.983667;163119;1714767495;983282209;world;-1.52E-05;2.88E-05;-6.71E-06;-7.80E-05;4.44E-05;1.32E-05;1
2024/05/03/13:18:15.993452;163120;1714767495;992969371;world;5.37E-06;2.82E-06;-2.67E-05;5.99E-06;2.25E-05;4.18E-05;1
2024/05/03/13:18:16.003983;163121;1714767496;3313871;world;-6.33E-06;1.53E-06;-2.65E-05;3.07E-05;-1.02E-05;4.70E-05;1
2024/05/03/13:18:16.023297;163122;1714767496;22954279;world;-2.64E-06;1.44E-05;-3.41E-05;2.21E-05;-1.40E-05;1.65E-05;1
2024/05/03/13:18:16.033521;163123;1714767496;33134308;world;-1.83E-05;2.37E-05;-2.13E-05;-6.09E-05;5.70E-05;-9.23E-06;1
2024/05/03/13:18:16.053525;163124;1714767496;53254136;world;-2.79E-05;6.40E-06;-2.06E-05;-2.59E-05;4.82E-05;-3.45E-05;1
2024/05/03/13:18:16.063477;163125;1714767496;63215445;world;-5.67E-06;3.81E-06;-2.97E-05;4.92E-05;-2.97E-05;3.18E-05;1
2024/05/03/13:18:16.083357;163126;1714767496;82948292;world;-2.07E-05;1.75E-05;-1.61E-05;-4.53E-05;1.33E-05;-2.83E-05;1
2024/05/03/13:18:16.103938;163127;1714767496;103407822;world;-1.99E-05;1.02E-05;-1.22E-05;-8.08E-05;6.68E-05;-1.73E-05;1
2024/05/03/13:18:16.113394;163128;1714767496;113022740;world;-3.82E-07;7.52E-06;-2.64E-05;-1.42E-06;9.79E-06;3.03E-05;1
2024/05/03/13:18:16.133789;163129;1714767496;133394781;world;-7.98E-06;-1.63E-06;-1.64E-05;1.39E-05;4.76E-06;1.70E-05;1
2024/05/03/13:18:16.143997;163130;1714767496;143537913;world;-1.57E-05;5.37E-06;-1.07E-05;-4.17E-05;5.57E-05;2.80E-05;1
2024/05/03/13:18:16.163441;163131;1714767496;163153208;world;2.00E-06;6.92E-06;-2.17E-05;5.20E-05;3.16E-05;2.51E-05;1
2024/05/03/13:18:16.183590;163132;1714767496;183190186;world;2.63E-06;7.48E-06;-2.15E-05;6.26E-05;-5.60E-06;3.03E-05;1
2024/05/03/13:18:16.193371;163133;1714767496;193064465;world;-7.28E-06;1.05E-05;-1.76E-05;1.47E-05;9.38E-06;5.08E-05;1
2024/05/03/13:18:16.203672;163134;1714767496;203332821;world;3.35E-06;4.13E-07;-2.44E-05;-4.67E-06;5.66E-05;2.46E-05;1
2024/05/03/13:18:16.223382;163135;1714767496;223044830;world;2.04E-06;1.56E-05;-3.24E-05;7.45E-05;3.41E-05;3.32E-05;1
2024/05/03/13:18:16.233332;163136;1714767496;232973419;world;-1.87E-05;1.78E-05;-2.78E-05;1.58E-05;6.99E-05;6.98E-06;1
2024/05/03/13:18:16.263339;163137;1714767496;263068456;world;2.98E-07;3.09E-05;-1.03E-05;4.60E-05;2.78E-05;3.75E-05;1
2024/05/03/13:18:16.273515;163138;1714767496;273257138;world;1.93E-06;1.06E-05;-2.88E-05;0.000106009;2.41E-05;5.75E-05;1
2024/05/03/13:18:16.294295;163139;1714767496;293311488;world;-6.21E-06;2.13E-05;-2.05E-05;6.01E-05;6.90E-05;2.56E-05;1
2024/05/03/13:18:16.303322;163140;1714767496;303042568;world;8.19E-06;1.80E-05;-2.91E-05;0.000138439;8.99E-06;8.61E-05;1
2024/05/03/13:18:16.313299;163141;1714767496;312995263;world;-1.20E-05;2.78E-05;-3.14E-05;3.70E-05;6.79E-05;3.70E-05;1
2024/05/03/13:18:16.333332;163142;1714767496;333033132;world;6.52E-06;2.55E-06;-5.19E-05;0.000111615;-3.07E-05;0.000103779;1
2024/05/03/13:18:16.363401;163143;1714767496;363057951;world;7.78E-06;2.79E-05;-2.58E-05;5.91E-05;0.000106856;7.93E-06;1
2024/05/03/13:18:16.363429;163144;1714767496;363093107;world;1.74E-05;3.43E-05;-4.58E-05;0.000111166;2.40E-05;9.23E-05;1
2024/05/03/13:18:16.413327;163145;1714767496;413016674;world;1.79E-05;2.94E-05;-3.87E-05;0.000173054;1.84E-05;0.000140489;1
2024/05/03/13:18:16.413352;163147;1714767496;413055407;world;1.61E-05;2.90E-05;-4.03E-05;0.000150503;4.90E-05;9.04E-05;1
2024/05/03/13:18:16.433669;163148;1714767496;433354515;world;2.30E-05;3.05E-05;-4.53E-05;0.000125188;5.58E-05;1.00E-04;1
2024/05/03/13:18:16.443676;163149;1714767496;443334251;world;5.88E-06;3.90E-05;-4.27E-05;5.83E-05;0.000103529;3.46E-05;1
2024/05/03/13:18:16.463682;163150;1714767496;463084982;world;2.17E-05;2.99E-05;-5.08E-05;0.0001638;4.58E-05;7.85E-05;1
2024/05/03/13:18:16.473775;163151;1714767496;473458126;world;3.01E-05;5.12E-05;-5.25E-05;0.000167066;2.21E-05;6.80E-05;1
2024/05/03/13:18:16.513480;163152;1714767496;513132801;world;4.75E-05;6.09E-05;-4.21E-05;0.000164791;4.59E-05;9.33E-05;1
2024/05/03/13:18:16.513658;163153;1714767496;513240133;world;4.90E-05;5.46E-05;-4.78E-05;0.000198918;2.23E-05;8.04E-05;1
2024/05/03/13:18:16.523267;163154;1714767496;522952297;world;2.79E-05;7.62E-05;-3.33E-05;0.00014026;3.65E-05;3.27E-05;1
2024/05/03/13:18:16.543273;163155;1714767496;542944150;world;4.67E-05;6.76E-05;-5.11E-05;0.000213609;1.06E-05;8.14E-05;1
2024/05/03/13:18:16.553162;163156;1714767496;552849898;world;5.71E-05;7.31E-05;-5.61E-05;0.000175917;1.09E-05;0.000109973;1
2024/05/03/13:18:16.563705;163157;1714767496;563398249;world;3.71E-05;5.33E-05;-4.84E-05;0.000221983;1.74E-05;6.32E-05;1
2024/05/03/13:18:16.603204;163158;1714767496;602898909;world;0.000198267;4.10E-05;-4.97E-05;0.000646531;-2.60E-05;-4.55E-05;0.999999762
2024/05/03/13:18:16.603233;163159;1714767496;602933975;world;0.000758503;2.90E-05;-5.76E-05;0.000700203;0.000141067;-0.000671183;0.999999523
2024/05/03/13:18:16.613504;163160;1714767496;613201992;world;0.001813892;7.09E-05;-4.13E-05;0.000917312;0.000251435;-0.001063751;0.999999046
2024/05/03/13:18:16.633312;163161;1714767496;633041521;world;0.003132312;0.000169596;6.01E-05;0.0007037;0.00019919;-0.001539544;0.999998569
2024/05/03/13:18:16.643335;163162;1714767496;643055890;world;0.004498815;0.000176739;2.71E-07;0.000532041;7.06E-05;-0.002485961;0.999996781
2024/05/03/13:18:16.673378;163163;1714767496;673030916;world;0.005805738;9.05E-05;4.56E-05;0.000548631;-8.41E-05;-0.003764271;0.999992847
2024/05/03/13:18:16.673400;163164;1714767496;673060191;world;0.0064748;-2.24E-05;-1.56E-05;0.000255254;0.000323342;-0.004553083;0.999989629
2024/05/03/13:18:16.703667;163165;1714767496;703364795;world;0.008141342;8.79E-06;6.50E-05;0.000519881;0.000669577;-0.005606667;0.999983907
2024/05/03/13:18:16.713380;163166;1714767496;713154223;world;0.00988964;-3.99E-05;5.80E-05;0.000190913;0.000343757;-0.006717396;0.99997735
2024/05/03/13:18:16.723504;163167;1714767496;723284125;world;0.011528911;-4.71E-05;3.19E-05;8.63E-05;0.000234628;-0.008100617;0.999967217
2024/05/03/13:18:16.743571;163168;1714767496;743185374;world;0.013304716;1.78E-05;7.20E-05;0.000219466;0.000696528;-0.009478756;0.99995482
2024/05/03/13:18:16.753379;163169;1714767496;753123120;world;0.014950291;-3.23E-05;0.000113945;-9.47E-05;0.000792815;-0.010875115;0.999940634
2024/05/03/13:18:16.773279;163170;1714767496;773023612;world;0.016545223;-0.000186709;0.000125627;-0.000260255;0.000926515;-0.01203359;0.999927163
2024/05/03/13:18:16.813434;163171;1714767496;813107326;world;0.017369926;-0.000259353;0.000131433;-0.000379923;0.000950903;-0.012772031;0.999917984
2024/05/03/13:18:16.813455;163172;1714767496;813146660;world;0.019853268;-0.000290545;0.000100989;-7.84E-05;0.001132339;-0.01444204;0.999895096
2024/05/03/13:18:16.823413;163173;1714767496;823146493;world;0.021373421;-0.000324291;0.000161177;-7.30E-05;0.001217292;-0.015649255;0.999876857
2024/05/03/13:18:16.833234;163174;1714767496;832896267;world;0.022820652;-0.000415959;0.000124478;-4.67E-05;0.001191251;-0.016864585;0.999857068
2024/05/03/13:18:16.853318;163175;1714767496;853042385;world;0.024383688;-0.000405955;0.000111555;0.000834002;0.001087054;-0.017934909;0.999838233
2024/05/03/13:18:16.873513;163176;1714767496;873180055;world;0.025004471;-0.000441873;0.000115825;0.000574291;0.001366207;-0.018536473;0.999827087
2024/05/03/13:18:16.883320;163177;1714767496;883012686;world;0.026216958;-0.000488015;0.000110542;0.00033981;0.001243749;-0.019601652;0.99980706
2024/05/03/13:18:16.913485;163178;1714767496;913125946;world;0.027436547;-0.00052375;0.000171233;0.000726394;0.001337022;-0.02049751;0.999788821
2024/05/03/13:18:16.913491;163179;1714767496;913159619;world;0.028553989;-0.000640407;0.000102756;0.000749161;0.001459281;-0.021593163;0.999765575
2024/05/03/13:18:16.923237;163180;1714767496;922921351;world;0.029039877;-0.000680359;2.10E-05;0.000773147;0.001397518;-0.022038888;0.999755919
2024/05/03/13:18:16.943529;163181;1714767496;943223125;world;0.030559922;-0.000608752;9.91E-05;0.001447555;0.00149781;-0.023162114;0.999729574
2024/05/03/13:18:16.963645;163182;1714767496;963192856;world;0.031344734;-0.000686163;6.60E-05;0.000953836;0.001879935;-0.024299204;0.999702513
2024/05/03/13:18:16.973197;163183;1714767496;972897316;world;0.031714819;-0.000730321;8.95E-05;0.000728565;0.001954926;-0.02495669;0.99968636
2024/05/03/13:18:17.023670;163184;1714767497;23086731;world;0.032356188;-0.000694854;0.000177542;0.000122095;0.001276744;-0.025791043;0.999666572
2024/05/03/13:18:17.023691;163186;1714767497;23132637;world;0.033930555;-0.000775933;0.000135044;-0.000229651;0.001137999;-0.028000915;0.999607265
2024/05/03/13:18:17.033727;163187;1714767497;33446104;world;0.034477483;-0.000924609;9.83E-05;-0.000353766;0.001310883;-0.028659919;0.999588311
2024/05/03/13:18:17.053309;163188;1714767497;52992746;world;0.03481828;-0.001025699;6.09E-05;-0.000234944;0.001273889;-0.028742542;0.999586046
2024/05/03/13:18:17.063388;163189;1714767497;63106574;world;0.035370342;-0.001015333;0.00010952;-0.000131291;0.001378832;-0.029466199;0.999564826
2024/05/03/13:18:17.083222;163190;1714767497;82881299;world;0.036263976;-0.000893896;0.00021951;0.000463376;0.001644053;-0.030616757;0.999529719
2024/05/03/13:18:17.113487;163191;1714767497;113010681;world;0.0364663;-0.000875245;0.000230331;0.00037817;0.001713024;-0.03107086;0.999515653
2024/05/03/13:18:17.113497;163192;1714767497;113054924;world;0.036976017;-0.00091018;6.33E-05;8.59E-05;0.000734577;-0.031522065;0.999502778
2024/05/03/13:18:17.133389;163193;1714767497;133132673;world;0.037456028;-0.000911647;0.000174037;0.00044933;0.000774324;-0.03208616;0.999484777
2024/05/03/13:18:17.143264;163194;1714767497;142960822;world;0.037960544;-0.000914028;0.000219639;0.000658321;0.001232773;-0.033135105;0.999449909
2024/05/03/13:18:17.163662;163195;1714767497;163312730;world;0.038406834;-0.000850655;0.000272462;0.000765782;0.001265517;-0.033938274;0.999422908
2024/05/03/13:18:17.183283;163196;1714767497;182959888;world;0.038861852;-0.00099698;0.000230542;0.000654271;0.001180419;-0.034339819;0.999409318
2024/05/03/13:18:17.193369;163197;1714767497;193081251;world;0.039304495;-0.001024399;0.000239222;0.001296603;0.001562084;-0.034630287;0.999398112
2024/05/03/13:18:17.213326;163198;1714767497;213053571;world;0.0394978;-0.000939326;0.000328686;0.001242034;0.001786616;-0.035238102;0.999376595
2024/05/03/13:18:17.223572;163199;1714767497;223250478;world;0.039980639;-0.001085822;0.000259665;0.001202977;0.001533275;-0.035754282;0.999358714
2024/05/03/13:18:17.243682;163200;1714767497;243436376;world;0.040332384;-0.001039343;0.000336731;0.000581168;0.001601388;-0.036755089;0.999322891
2024/05/03/13:18:17.254751;163201;1714767497;254054024;world;0.040776484;-0.001143926;0.000391699;0.000358353;0.001534317;-0.037477579;0.999296308
2024/05/03/13:18:17.273521;163202;1714767497;273242415;world;0.041312315;-0.001127496;0.000416733;0.000426611;0.001406868;-0.03815043;0.999270976
2024/05/03/13:18:17.283620;163203;1714767497;283320590;world;0.0418595;-0.001103541;0.000378225;0.000483699;0.001243142;-0.038937576;0.999240756
2024/05/03/13:18:17.323423;163204;1714767497;323054091;world;0.042118136;-0.001157083;0.000367953;0.000156098;0.001339741;-0.039336488;0.99922514
2024/05/03/13:18:17.323466;163205;1714767497;323088395;world;0.042716995;-0.001123302;0.000398846;0.000465454;0.001070214;-0.039856564;0.999204814
2024/05/03/13:18:17.333467;163206;1714767497;333139721;world;0.043310229;-0.001359862;0.00026586;0.000414325;0.000792251;-0.040191341;0.999191582
2024/05/03/13:18:17.343536;163207;1714767497;343216213;world;0.044026557;-0.001623315;0.00012687;0.000463505;0.000491394;-0.040351797;0.999185383
2024/05/03/13:18:17.363356;163208;1714767497;363070137;world;0.044573601;-0.001527523;0.000285987;0.000876414;0.000928235;-0.04138957;0.999142289
2024/05/03/13:18:17.383668;163209;1714767497;383386424;world;0.045166578;-0.001522276;0.000361769;0.000864694;0.001060912;-0.042214356;0.999107659
2024/05/03/13:18:17.393564;163210;1714767497;393268811;world;0.045739677;-0.001522699;0.000443772;0.000764488;0.0011929;-0.042933263;0.999076962
2024/05/03/13:18:17.433414;163211;1714767497;433085413;world;0.04639069;-0.001556859;0.000437254;0.000698235;0.001265577;-0.043684516;0.999044359
2024/05/03/13:18:17.433440;163212;1714767497;433122072;world;0.047003794;-0.001582947;0.000454419;0.000758712;0.001261375;-0.044334352;0.999015689
2024/05/03/13:18:17.443719;163213;1714767497;443184173;world;0.047313921;-0.001615569;0.000463186;0.000669571;0.001374455;-0.044708747;0.99899894
2024/05/03/13:18:17.463559;163214;1714767497;463309869;world;0.048001681;-0.001733467;0.000450741;0.000623512;0.001389543;-0.045230791;0.998975396
2024/05/03/13:18:17.473191;163215;1714767497;472953372;world;0.0486627;-0.001807994;0.000458597;0.000570427;0.001445054;-0.045932882;0.998943388
2024/05/03/13:18:17.493201;163216;1714767497;492938372;world;0.049432121;-0.00190777;0.00039511;0.00066051;0.001208487;-0.046402976;0.998921871
2024/05/03/13:18:17.523308;163217;1714767497;522940809;world;0.050146334;-0.001971355;0.000455237;0.000641964;0.00146259;-0.04721953;0.998883307
2024/05/03/13:18:17.523336;163218;1714767497;522974191;world;0.050848529;-0.001986225;0.000479348;0.000887666;0.001416182;-0.047754701;0.998857737
2024/05/03/13:18:17.533632;163219;1714767497;533106002;world;0.051200412;-0.002118817;0.000341982;0.00037902;0.002027775;-0.048253462;0.998833001
2024/05/03/13:18:17.553278;163220;1714767497;552974994;world;0.052211344;-0.002142579;0.00042883;0.000611946;0.001669539;-0.049142864;0.998790205
2024/05/03/13:18:17.563360;163221;1714767497;563000257;world;0.052595161;-0.002208805;0.000436339;0.000819261;0.001199677;-0.049354229;0.99878031
2024/05/03/13:18:17.593437;163222;1714767497;593148467;world;0.053292356;-0.002194326;0.000527588;0.000921182;0.001233477;-0.050055891;0.998745322
2024/05/03/13:18:17.603274;163223;1714767497;602975435;world;0.054023251;-0.002274968;0.000519395;0.000770844;0.001349027;-0.050543964;0.998720706
2024/05/03/13:18:17.623746;163224;1714767497;623331232;world;0.054695234;-0.002448466;0.000425373;0.000680006;0.001090877;-0.050923686;0.998701811
2024/05/03/13:18:17.623866;163225;1714767497;623357421;world;0.055419058;-0.002515518;0.0004282;0.000703671;0.001005695;-0.05169652;0.998662114
2024/05/03/13:18:17.643608;163226;1714767497;643310620;world;0.056058854;-0.002572087;0.000428479;0.000616459;0.00094648;-0.0524064;0.998625278
2024/05/03/13:18:17.663488;163227;1714767497;663238378;world;0.056410547;-0.002639551;0.000413294;0.000574805;0.001030858;-0.05276021;0.998606503
2024/05/03/13:18:17.673766;163228;1714767497;673495831;world;0.057455495;-0.002732585;0.000436315;0.000800287;0.001169413;-0.053651433;0.9985587
2024/05/03/13:18:17.693409;163229;1714767497;693043248;world;0.057779282;-0.002791257;0.000438759;0.000760791;0.00118294;-0.05394901;0.998542666
2024/05/03/13:18:17.723503;163230;1714767497;723186229;world;0.058470912;-0.002864063;0.000468268;0.000818412;0.001099881;-0.054567967;0.998509109
2024/05/03/13:18:17.733364;163231;1714767497;733103278;world;0.059131421;-0.00295647;0.00046988;0.000845546;0.001059316;-0.055222631;0.998473227
2024/05/03/13:18:17.743721;163232;1714767497;743408193;world;0.05986134;-0.00305652;0.0004645;0.000604901;0.001140913;-0.055978984;0.998431146
2024/05/03/13:18:17.753590;163233;1714767497;753215196;world;0.060646292;-0.003092512;0.000519556;0.000842841;0.001197027;-0.056761462;0.998386741
2024/05/03/13:18:17.763715;163234;1714767497;763417428;world;0.061284944;-0.003236363;0.000405646;0.000464746;0.001778049;-0.057383113;0.998350501
2024/05/03/13:18:17.793227;163235;1714767497;792980411;world;0.06157694;-0.003213977;0.000469554;0.00060835;0.001551408;-0.057552662;0.998341084
2024/05/03/13:18:17.803387;163236;1714767497;803071696;world;0.062605456;-0.003329398;0.000540403;0.000849441;0.00162385;-0.058589865;0.998280525
2024/05/03/13:18:17.833451;163237;1714767497;833074354;world;0.062939905;-0.003395527;0.000535245;0.000875605;0.001617583;-0.05889741;0.998262346
2024/05/03/13:18:17.833465;163238;1714767497;833107636;world;0.063550413;-0.003578503;0.000511572;0.000827046;0.001742178;-0.059504349;0.998226225
2024/05/03/13:18:17.853405;163239;1714767497;853113305;world;0.064204052;-0.003591073;0.000493934;0.000940895;0.001669276;-0.06001804;0.998195469
2024/05/03/13:18:17.863310;163240;1714767497;863010405;world;0.064929277;-0.003660514;0.000512465;0.000793017;0.001500431;-0.060474616;0.998168349
2024/05/03/13:18:17.883594;163241;1714767497;883303532;world;0.065601274;-0.00378126;0.000495702;0.000795578;0.001641449;-0.061124414;0.998128474
2024/05/03/13:18:17.903532;163242;1714767497;903116780;world;0.066334456;-0.003850713;0.000535068;0.001058578;0.001751292;-0.061763633;0.998088777
2024/05/03/13:18:17.913560;163243;1714767497;913257629;world;0.066653624;-0.00400609;0.00042657;0.000903326;0.002374329;-0.062388439;0.998048782
2024/05/03/13:18:17.933288;163244;1714767497;933015615;world;0.067297451;-0.004045422;0.000493405;0.001173308;0.002142014;-0.062941223;0.998014331
2024/05/03/13:18:17.943196;163245;1714767497;942900691;world;0.068225116;-0.004152712;0.000505566;0.001096408;0.001923634;-0.063905895;0.997953534
2024/05/03/13:18:17.953451;163246;1714767497;953168320;world;0.068517871;-0.00420666;0.000526069;0.000998706;0.001980341;-0.064312175;0.997927427
2024/05/03/13:18:17.973494;163247;1714767497;973134464;world;0.069126308;-0.004307196;0.000509795;0.000947326;0.001986656;-0.064958282;0.997885525
2024/05/03/13:18:17.983705;163248;1714767497;983399222;world;0.069755152;-0.004453014;0.000510471;0.000992729;0.002037839;-0.065673567;0.997838676
2024/05/03/13:18:18.003511;163249;1714767498;3230071;world;0.070441559;-0.004540528;0.000549952;0.001092167;0.002020585;-0.066252314;0.997800291
2024/05/03/13:18:18.033663;163250;1714767498;33230447;world;0.071160138;-0.004582639;0.000562897;0.001295066;0.00206166;-0.066895969;0.997757018
2024/05/03/13:18:18.033690;163251;1714767498;33268048;world;0.071505696;-0.00460042;0.000575224;0.001344055;0.002081036;-0.067216761;0.997735381
2024/05/03/13:18:18.053494;163252;1714767498;53178267;world;0.072478473;-0.004736335;0.000564772;0.001316085;0.002043283;-0.068200484;0.997668684
2024/05/03/13:18:18.063685;163253;1714767498;63321813;world;0.073092952;-0.004877609;0.000528124;0.001197153;0.001909091;-0.068740509;0.997632027
2024/05/03/13:18:18.083465;163254;1714767498;83154325;world;0.073769137;-0.004975195;0.000521529;0.001565799;0.001852971;-0.069289029;0.997593701
2024/05/03/13:18:18.103661;163255;1714767498;103358466;world;0.074097157;-0.005058655;0.000508124;0.001473735;0.001746566;-0.069633588;0.997570097
2024/05/03/13:18:18.143455;163256;1714767498;143066565;world;0.074746817;-0.005185023;0.000481346;0.001564601;0.001869261;-0.070257984;0.997525871
2024/05/03/13:18:18.143479;163258;1714767498;143101901;world;0.07603956;-0.005425006;0.000535997;0.001721127;0.0019438;-0.071347579;0.997448206
2024/05/03/13:18:18.163567;163259;1714767498;163235329;world;0.076649189;-0.005486887;0.000584983;0.001514762;0.002064136;-0.072072737;0.997396111
2024/05/03/13:18:18.173330;163260;1714767498;173051808;world;0.077263452;-0.005520539;0.000567993;0.001743818;0.002268151;-0.072760724;0.997345388
2024/05/03/13:18:18.193265;163261;1714767498;192985412;world;0.077573583;-0.005581226;0.000572633;0.001367573;0.002085064;-0.073086455;0.9973225
2024/05/03/13:18:18.203622;163262;1714767498;203326938;world;0.078200996;-0.005725091;0.000582412;0.001422663;0.002214945;-0.073623642;0.997282624
2024/05/03/13:18:18.243565;163263;1714767498;243254918;world;0.078993075;-0.005737772;0.000592013;0.001463903;0.002127777;-0.074186146;0.997241139
2024/05/03/13:18:18.243588;163264;1714767498;243294843;world;0.079683229;-0.005803333;0.000637725;0.001685572;0.001784787;-0.074899174;0.997188151
2024/05/03/13:18:18.263650;163265;1714767498;263332311;world;0.080325246;-0.005900046;0.000670726;0.001778277;0.001772926;-0.075792708;0.9971205
2024/05/03/13:18:18.273315;163266;1714767498;272992216;world;0.080953807;-0.005976472;0.000671094;0.001857708;0.00191103;-0.076378368;0.997075319
2024/05/03/13:18:18.283393;163267;1714767498;283057764;world;0.08165919;-0.006075903;0.000619217;0.001892126;0.001839585;-0.076874144;0.997037292
2024/05/03/13:18:18.303650;163268;1714767498;303412858;world;0.081992313;-0.006093873;0.000640164;0.00194552;0.00191533;-0.077299893;0.997004211
2024/05/03/13:18:18.313508;163269;1714767498;313036375;world;0.082606994;-0.006215799;0.000614505;0.00172092;0.002014859;-0.077972427;0.996952057
2024/05/03/13:18:18.343339;163270;1714767498;342961657;world;0.083381638;-0.006325093;0.000659953;0.001872122;0.002075067;-0.078711018;0.996893525
2024/05/03/13:18:18.353542;163271;1714767498;353246034;world;0.084010653;-0.006545475;0.000574899;0.001825278;0.002412747;-0.079445064;0.996834695
2024/05/03/13:18:18.363668;163272;1714767498;363376804;world;0.084610492;-0.006634131;0.000668637;0.001551636;0.002116607;-0.08014749;0.996779621
2024/05/03/13:18:18.383347;163273;1714767498;383069026;world;0.085274823;-0.006715728;0.000684313;0.001507603;0.002056413;-0.080775656;0.996729136
2024/05/03/13:18:18.393476;163274;1714767498;393233980;world;0.085956402;-0.006794605;0.000700468;0.001671515;0.001996955;-0.081437387;0.996675134
2024/05/03/13:18:18.413318;163275;1714767498;412984810;world;0.086313792;-0.006853001;0.000692194;0.001691049;0.001923518;-0.081753775;0.996649325
2024/05/03/13:18:18.433153;163276;1714767498;432873277;world;0.087343678;-0.006983084;0.000728359;0.001815203;0.002054422;-0.082795903;0.996562779
2024/05/03/13:18:18.443807;163277;1714767498;443398378;world;0.087919205;-0.007152419;0.000638837;0.001766432;0.002238834;-0.083737992;0.996483803
2024/05/03/13:18:18.463467;163278;1714767498;463187762;world;0.088206038;-0.007174564;0.000701407;0.001418786;0.002252406;-0.083940268;0.996467233
2024/05/03/13:18:18.473317;163279;1714767498;472922125;world;0.089108855;-0.007369083;0.00068136;0.001265636;0.002425567;-0.085011184;0.996376336
2024/05/03/13:18:18.483455;163280;1714767498;483121443;world;0.089378215;-0.00746017;0.000635619;0.001025865;0.002362247;-0.085321322;0.996350169
2024/05/03/13:18:18.513295;163281;1714767498;512944583;world;0.089988582;-0.007541414;0.000736534;0.001019117;0.002520158;-0.086090177;0.99628371
2024/05/03/13:18:18.523249;163282;1714767498;522907138;world;0.090616964;-0.007690883;0.000660074;0.000651104;0.002307755;-0.086484894;0.996250331
2024/05/03/13:18:18.543296;163283;1714767498;542971476;world;0.090946063;-0.007723838;0.000673839;0.000592492;0.002303693;-0.086787388;0.996224046
2024/05/03/13:18:18.553810;163284;1714767498;553248503;world;0.092044957;-0.007865163;0.000704136;0.000740935;0.002254147;-0.087779947;0.996137083
2024/05/03/13:18:18.573745;163285;1714767498;573286931;world;0.092707053;-0.007964355;0.000713552;0.000633223;0.002363873;-0.088456206;0.99607712
2024/05/03/13:18:18.583407;163286;1714767498;583057395;world;0.093035139;-0.008037577;0.000718779;0.000629875;0.002385023;-0.088807195;0.996045768
2024/05/03/13:18:18.603525;163287;1714767498;603171425;world;0.093640648;-0.008087519;0.000774167;0.000503678;0.002499299;-0.089508481;0.995982885
2024/05/03/13:18:18.613366;163288;1714767498;613030937;world;0.094281383;-0.008273602;0.000746788;0.000595368;0.002623632;-0.090293825;0.995911598
2024/05/03/13:18:18.643302;163289;1714767498;642946090;world;0.09495268;-0.00849284;0.000725915;0.000491655;0.002415602;-0.090822913;0.995864034
2024/05/03/13:18:18.653433;163290;1714767498;653125961;world;0.095562682;-0.0085677;0.000765089;0.00044325;0.002447496;-0.091472909;0.995804489
2024/05/03/13:18:18.663185;163291;1714767498;662927752;world;0.095885076;-0.008595654;0.000761189;0.000351749;0.002408422;-0.091839723;0.995770872
2024/05/03/13:18:18.683634;163292;1714767498;683364611;world;0.097000375;-0.008800587;0.000690276;0.000434037;0.002257271;-0.09262228;0.99569869
2024/05/03/13:18:18.693222;163293;1714767498;692912897;world;0.097324856;-0.008781144;0.000730976;0.000452911;0.002264691;-0.092948981;0.995668173
2024/05/03/13:18:18.723208;163294;1714767498;722902399;world;0.097943798;-0.008885851;0.000765829;0.000436834;0.002385698;-0.09359327;0.995607555
2024/05/03/13:18:18.723237;163295;1714767498;722936332;world;0.0985649;-0.008981121;0.000750114;0.000407173;0.002493995;-0.094175309;0.99555248
2024/05/03/13:18:18.743970;163296;1714767498;743305813;world;0.099203542;-0.009225409;0.000698479;0.000650558;0.002854156;-0.094847873;0.995487511
2024/05/03/13:18:18.753466;163297;1714767498;753153392;world;0.099866606;-0.009353945;0.000691462;0.000570011;0.002971112;-0.095658965;0.995409548
2024/05/03/13:18:18.773405;163298;1714767498;773107464;world;0.100639075;-0.009434055;0.000674508;0.000988743;0.002531543;-0.095935352;0.995383918
2024/05/03/13:18:18.783153;163299;1714767498;782973516;world;0.100925989;-0.009456943;0.000692841;0.000809007;0.002512069;-0.096326031;0.995346367
2024/05/03/13:18:18.803725;163300;1714767498;803403331;world;0.101935595;-0.009603644;0.000652304;0.000707688;0.002366055;-0.097185627;0.995263219
2024/05/03/13:18:18.823545;163301;1714767498;823196030;world;0.102233842;-0.009647531;0.000630869;0.000603995;0.002260359;-0.097402662;0.995242357
2024/05/03/13:18:18.843443;163302;1714767498;843007154;world;0.102855004;-0.009732843;0.000688937;0.000582492;0.002471269;-0.098121762;0.995171249
2024/05/03/13:18:18.853283;163303;1714767498;852938560;world;0.103440076;-0.009868238;0.000686886;0.000672015;0.002518178;-0.098785833;0.995105386
2024/05/03/13:18:18.863513;163304;1714767498;863233596;world;0.104063168;-0.010045311;0.000721957;0.000719624;0.002475333;-0.09948577;0.995035648
2024/05/03/13:18:18.883392;163305;1714767498;883017078;world;0.104798049;-0.010215296;0.000700657;0.000801062;0.002564132;-0.100399837;0.994943559
2024/05/03/13:18:18.893346;163306;1714767498;893005783;world;0.105438277;-0.010351888;0.000688109;0.000857398;0.002463139;-0.100987174;0.994884312
2024/05/03/13:18:18.913462;163307;1714767498;913144119;world;0.106045082;-0.010465587;0.000727961;0.000666341;0.002456413;-0.101581156;0.994824052
2024/05/03/13:18:18.923537;163308;1714767498;923267712;world;0.106719926;-0.010589592;0.00072007;0.000659615;0.002412017;-0.102086768;0.994772375
2024/05/03/13:18:18.953298;163309;1714767498;952977062;world;0.107012764;-0.01065241;0.000745501;0.000582335;0.00242389;-0.102395877;0.994740665
2024/05/03/13:18:18.963737;163310;1714767498;963448122;world;0.107669353;-0.010741488;0.000815085;0.00078412;0.002607997;-0.103043467;0.994673193
2024/05/03/13:18:18.973538;163311;1714767498;973229654;world;0.108308099;-0.010908454;0.000750373;0.00076891;0.002611988;-0.103509188;0.994624794
2024/05/03/13:18:18.993328;163312;1714767498;992978231;world;0.108871803;-0.011040582;0.000817686;0.000182902;0.002465098;-0.104479477;0.994524002
2024/05/03/13:18:19.003385;163313;1714767499;3104222;world;0.109648094;-0.011202646;0.000846415;0.000313998;0.002575422;-0.105189249;0.9944489
2024/05/03/13:18:19.023226;163314;1714767499;22928540;world;0.110363588;-0.011379862;0.000751895;0.001015593;0.002691196;-0.105681792;0.994395852
2024/05/03/13:18:19.054079;163315;1714767499;53064226;world;0.110970929;-0.011479578;0.000803264;0.000832545;0.002752267;-0.106521122;0.994306266
2024/05/03/13:18:19.063331;163316;1714767499;63054352;world;0.111289635;-0.011525039;0.000804243;0.000740435;0.002662357;-0.106778771;0.994279027
2024/05/03/13:18:19.063354;163317;1714767499;63089257;world;0.111860126;-0.011603745;0.000841134;0.000718002;0.002649142;-0.107368931;0.994215548
2024/05/03/13:18:19.083307;163318;1714767499;83010487;world;0.112493724;-0.011775915;0.000813806;0.000608165;0.002638493;-0.107860774;0.994162381
2024/05/03/13:18:19.093263;163319;1714767499;92951080;world;0.11317341;-0.011882216;0.000846343;0.000891332;0.002955561;-0.108500786;0.99409157
2024/05/03/13:18:19.113250;163320;1714767499;112983499;world;0.113879032;-0.012007739;0.000842343;0.000933987;0.002568314;-0.109201953;0.994015813
2024/05/03/13:18:19.124085;163321;1714767499;123765590;world;0.114585429;-0.012305313;0.000702579;0.001130339;0.002584066;-0.10988681;0.993940115
2024/05/03/13:18:19.163610;163322;1714767499;163293681;world;0.115228452;-0.012368036;0.000773698;0.001180553;0.002954881;-0.110806882;0.993836939
2024/05/03/13:18:19.163648;163323;1714767499;163330410;world;0.115798898;-0.012513408;0.000753988;0.001041652;0.003073065;-0.111403793;0.993769944
2024/05/03/13:18:19.173224;163324;1714767499;172896449;world;0.11635951;-0.012641516;0.0007615;0.000695518;0.003098469;-0.111960605;0.993707657
2024/05/03/13:18:19.193338;163325;1714767499;193042333;world;0.116664961;-0.012670399;0.000754341;0.000651029;0.003002585;-0.112223357;0.993678272
2024/05/03/13:18:19.203531;163326;1714767499;203232041;world;0.117330335;-0.012795307;0.000734647;0.000532255;0.002722008;-0.112719342;0.993623078
2024/05/03/13:18:19.233977;163327;1714767499;233708466;world;0.118018188;-0.012878487;0.00082917;0.000550246;0.002964321;-0.113471493;0.993536651
2024/05/03/13:18:19.234004;163328;1714767499;233752118;world;0.118700683;-0.012995545;0.000861715;0.000592876;0.00274943;-0.114100091;0.993465364
2024/05/03/13:18:19.253701;163329;1714767499;253368398;world;0.11934787;-0.013106077;0.000871867;0.000599535;0.002488602;-0.114673518;0.993399978
2024/05/03/13:18:19.273226;163330;1714767499;272940121;world;0.119989708;-0.013309947;0.000826996;0.000574053;0.002518077;-0.115419514;0.993313491
2024/05/03/13:18:19.283548;163331;1714767499;283261078;world;0.120335907;-0.013423401;0.000800527;0.000666471;0.002741888;-0.11586611;0.993260801
2024/05/03/13:18:19.303586;163332;1714767499;303159776;world;0.121171057;-0.013593681;0.000794444;0.000127114;0.002604014;-0.116510235;0.993186116
2024/05/03/13:18:19.313285;163333;1714767499;312971866;world;0.121563472;-0.013703044;0.000740292;0.000746305;0.002746007;-0.116854236;0.993144989
2024/05/03/13:18:19.333286;163334;1714767499;332993756;world;0.122141033;-0.013848955;0.000728329;0.000626382;0.002487386;-0.117466487;0.993073523
2024/05/03/13:18:19.383537;163335;1714767499;383230711;world;0.122746229;-0.014064923;0.000733697;0.000194908;0.002192908;-0.118148185;0.992993534
2024/05/03/13:18:19.383568;163337;1714767499;383273481;world;0.124155745;-0.014330384;0.000834557;0.000404517;0.002533842;-0.119736813;0.992802441
2024/05/03/13:18:19.393602;163338;1714767499;392975806;world;0.124846809;-0.014466277;0.000802999;0.000282056;0.00230887;-0.120361738;0.992727399
2024/05/03/13:18:19.413447;163339;1714767499;413160763;world;0.125195444;-0.014550177;0.000798922;0.000388056;0.002321108;-0.120635092;0.992694139
2024/05/03/13:18:19.433277;163340;1714767499;433017777;world;0.126142204;-0.014735712;0.00084473;0.001144742;0.002527097;-0.121381924;0.99260205
2024/05/03/13:18:19.443787;163341;1714767499;443166225;world;0.12678954;-0.014883548;0.000851058;0.0008545;0.002412596;-0.122140341;0.992509604
2024/05/03/13:18:19.484280;163342;1714767499;483927168;world;0.127077386;-0.014941846;0.000828485;0.000784313;0.002478614;-0.122324362;0.992486835
2024/05/03/13:18:19.484306;163344;1714767499;483973425;world;0.128344059;-0.015330534;0.000838009;0.00025221;0.002600289;-0.123574436;0.992331862
2024/05/03/13:18:19.503932;163345;1714767499;503331328;world;0.129004285;-0.015435026;0.000796245;0.000391069;0.002780587;-0.124676861;0.99219346
2024/05/03/13:18:19.523922;163346;1714767499;523451533;world;0.129737169;-0.015633466;0.00079839;0.000702795;0.002682913;-0.125255659;0.992120624
2024/05/03/13:18:19.543574;163347;1714767499;543220316;world;0.130388647;-0.015861841;0.000822208;0.000793494;0.0029135;-0.125809595;0.992049873
2024/05/03/13:18:19.593196;163348;1714767499;592890787;world;0.130701169;-0.015927164;0.000834977;0.000746857;0.002971336;-0.12607114;0.992016554
2024/05/03/13:18:19.593202;163350;1714767499;592932085;world;0.131921589;-0.016327353;0.000818413;0.000641825;0.002991897;-0.127557531;0.991826534
2024/05/03/13:18:19.603190;163351;1714767499;602903706;world;0.132540315;-0.016474238;0.000849187;0.000643568;0.003016842;-0.128206849;0.991742671
2024/05/03/13:18:19.613403;163352;1714767499;613142710;world;0.133594647;-0.016775137;0.000833317;0.000724573;0.00288695;-0.1288964;0.991653621
2024/05/03/13:18:19.633530;163353;1714767499;633223057;world;0.133863211;-0.01674425;0.000897998;0.000660237;0.002502084;-0.129072711;0.991631806
2024/05/03/13:18:19.643682;163354;1714767499;643401827;world;0.134482279;-0.016843434;0.000925716;0.000632623;0.002458087;-0.129783288;0.99153918
2024/05/03/13:18:19.673480;163355;1714767499;673044918;world;0.135156095;-0.017024588;0.000945025;0.000677306;0.002518043;-0.130439624;0.991452813
2024/05/03/13:18:19.673508;163356;1714767499;673079633;world;0.13556391;-0.017140102;0.00091991;0.000878641;0.002615336;-0.130781516;0.991407335
2024/05/03/13:18:19.693510;163357;1714767499;693040725;world;0.136186972;-0.017339744;0.000888275;0.000930325;0.002587245;-0.131387144;0.991327345
2024/05/03/13:18:19.703241;163358;1714767499;702954521;world;0.136727214;-0.017428039;0.000890073;0.000522428;0.002678395;-0.132133171;0.991228223
2024/05/03/13:18:19.723586;163359;1714767499;723306911;world;0.137353286;-0.01767499;0.000777304;0.0003715;0.002461085;-0.132507488;0.99117893
2024/05/03/13:18:19.744092;163360;1714767499;743090362;world;0.138026625;-0.01783932;0.000745396;0.000159495;0.002350618;-0.133220568;0.991083622
2024/05/03/13:18:19.753660;163361;1714767499;753298095;world;0.138692737;-0.018006038;0.000778767;9.61E-05;0.002438563;-0.133874968;0.990995228
2024/05/03/13:18:19.773505;163362;1714767499;773078905;world;0.139336541;-0.018135209;0.000826995;0.000341759;0.002499319;-0.134610802;0.990895391
2024/05/03/13:18:19.783622;163363;1714767499;783309861;world;0.139646456;-0.018223142;0.000846877;0.00044085;0.002571005;-0.134807616;0.990868449
2024/05/03/13:18:19.803273;163364;1714767499;802965922;world;0.14054741;-0.018528258;0.000822727;0.000271499;0.002972009;-0.135622486;0.990756094
2024/05/03/13:18:19.823547;163365;1714767499;823229395;world;0.141174763;-0.018703781;0.000812587;-1.53E-05;0.002898664;-0.136199892;0.990677118
2024/05/03/13:18:19.853768;163366;1714767499;853326079;world;0.14195852;-0.018867001;0.000834143;0.000270933;0.002582988;-0.137097985;0.990554154
2024/05/03/13:18:19.853793;163367;1714767499;853363329;world;0.142303541;-0.018925438;0.000852091;0.000581264;0.002546763;-0.137442499;0.990506351
2024/05/03/13:18:19.883449;163368;1714767499;883139782;world;0.142965466;-0.019147238;0.000810696;0.000494555;0.002494543;-0.138161123;0.990406573
2024/05/03/13:18:19.883474;163369;1714767499;883176651;world;0.143618166;-0.019301735;0.000836467;0.000571387;0.00266348;-0.138966605;0.990293384
2024/05/03/13:18:19.893323;163370;1714767499;893010763;world;0.144230142;-0.019457018;0.000848429;0.00060733;0.002713521;-0.139591426;0.990205348
2024/05/03/13:18:19.913529;163371;1714767499;913222639;world;0.144556358;-0.019568242;0.000840091;0.000604907;0.002735705;-0.139890775;0.990162969
2024/05/03/13:18:19.933258;163372;1714767499;932893630;world;0.145509988;-0.019922763;0.000832248;0.000386671;0.002678127;-0.140937343;0.990014911
2024/05/03/13:18:19.953274;163373;1714767499;952908596;world;0.146163866;-0.020043029;0.000823017;0.00059726;0.002681089;-0.14152889;0.989930391
2024/05/03/13:18:19.983550;163374;1714767499;983229809;world;0.14679186;-0.02025196;0.000801257;0.000274384;0.002673951;-0.142273918;0.989823759
2024/05/03/13:18:19.983563;163375;1714767499;983265456;world;0.147409931;-0.020440688;0.000781158;0.000193235;0.002568415;-0.142966002;0.989724278
2024/05/03/13:18:19.993438;163376;1714767499;993098227;world;0.147682473;-0.020535406;0.000785792;1.65E-06;0.002683144;-0.143342212;0.989669621
2024/05/03/13:18:20.003647;163377;1714767500;3372456;world;0.148328871;-0.020696783;0.000850097;1.02E-05;0.002887588;-0.144052014;0.989565969
2024/05/03/13:18:20.013287;163378;1714767500;12951320;world;0.148933053;-0.020852193;0.000824919;-0.000264535;0.002941323;-0.144700497;0.989471078
2024/05/03/13:18:20.053446;163379;1714767500;53101057;world;0.149549752;-0.021052405;0.000840934;-0.000114371;0.002934452;-0.145270869;0.989387631
2024/05/03/13:18:20.053474;163380;1714767500;53135090;world;0.149897933;-0.021154162;0.000827225;-2.80E-06;0.002842517;-0.145592421;0.989340603
2024/05/03/13:18:20.083382;163381;1714767500;83066032;world;0.150555208;-0.021336803;0.000853932;-7.63E-05;0.002727019;-0.14631772;0.989233971
2024/05/03/13:18:20.083426;163382;1714767500;83102100;world;0.151211441;-0.021504417;0.00084407;6.65E-05;0.002700766;-0.146987379;0.989134669
2024/05/03/13:18:20.103332;163383;1714767500;103027117;world;0.151864544;-0.021713387;0.000839825;-4.84E-05;0.002761274;-0.147693142;0.989029408
2024/05/03/13:18:20.113628;163384;1714767500;113320213;world;0.152537346;-0.021934563;0.000762289;0.000347465;0.002671679;-0.148181707;0.988956511
2024/05/03/13:18:20.133245;163385;1714767500;132944315;world;0.153198868;-0.022142276;0.000810464;0.000707974;0.002685386;-0.148687124;0.988880396
2024/05/03/13:18:20.153360;163386;1714767500;152981063;world;0.153979093;-0.022386523;0.000718535;0.000818013;0.00240746;-0.149093032;0.988819897
2024/05/03/13:18:20.183213;163387;1714767500;182887727;world;0.154547691;-0.022561062;0.000749143;0.000451564;0.002621778;-0.149850622;0.988705099
2024/05/03/13:18:20.183240;163388;1714767500;182928173;world;0.154877931;-0.022638367;0.000747274;0.000318689;0.00264434;-0.150193989;0.988653004
2024/05/03/13:18:20.193735;163389;1714767500;193293941;world;0.155460328;-0.022743586;0.000768494;9.27E-05;0.002998709;-0.150901705;0.988544285
2024/05/03/13:18:20.203860;163390;1714767500;203481610;world;0.156190827;-0.022984955;0.000787051;0.000374833;0.003033154;-0.151998818;0.988376021
2024/05/03/13:18:20.223210;163391;1714767500;222938439;world;0.156848773;-0.023108924;0.000790356;0.000511476;0.00308375;-0.152451202;0.988306105
2024/05/03/13:18:20.244104;163392;1714767500;242865901;world;0.15745309;-0.023333613;0.0007636;6.12E-05;0.002912417;-0.152931005;0.988232553
2024/05/03/13:18:20.253758;163393;1714767500;253350356;world;0.158048555;-0.023517231;0.000736342;-0.000510755;0.002836761;-0.153438747;0.988153994
2024/05/03/13:18:20.293669;163394;1714767500;293311969;world;0.158687562;-0.023775518;0.000780187;0.000152048;0.00316253;-0.154479653;0.987990916
2024/05/03/13:18:20.293698;163395;1714767500;293346273;world;0.159350649;-0.023973931;0.000790806;0.000169233;0.003193514;-0.155090243;0.987895131
2024/05/03/13:18:20.303590;163396;1714767500;303357939;world;0.159982249;-0.024248602;0.00077194;-0.000147336;0.002997836;-0.155563608;0.9878214
2024/05/03/13:18:20.323282;163397;1714767500;323005124;world;0.160577849;-0.02436943;0.000840167;-0.000235769;0.003042225;-0.156362161;0.987695098
2024/05/03/13:18:20.333246;163398;1714767500;332966266;world;0.160882205;-0.024463939;0.000843696;-0.000178544;0.003007403;-0.156719312;0.987638593
2024/05/03/13:18:20.363547;163399;1714767500;363258435;world;0.161873132;-0.024701348;0.000845321;9.41E-05;0.002969237;-0.157658622;0.987489283
2024/05/03/13:18:20.363584;163400;1714767500;363299993;world;0.162186444;-0.024804082;0.000846965;1.22E-05;0.002981136;-0.158048719;0.987426877
2024/05/03/13:18:20.393165;163401;1714767500;392868988;world;0.162765741;-0.024996014;0.000866185;-5.61E-05;0.003078837;-0.158664867;0.987327754
2024/05/03/13:18:20.393194;163402;1714767500;392901809;world;0.163420558;-0.025245024;0.000899744;0.000140197;0.003239027;-0.159463957;0.987198412
2024/05/03/13:18:20.413489;163403;1714767500;413096082;world;0.163709611;-0.025350016;0.000888513;7.15E-05;0.003209189;-0.159748077;0.987152636
2024/05/03/13:18:20.423913;163404;1714767500;423486607;world;0.164680272;-0.025688827;0.000884114;0.000206051;0.003172161;-0.160820186;0.98697865
2024/05/03/13:18:20.443769;163405;1714767500;443259840;world;0.16502142;-0.025851138;0.00081457;0.00010432;0.00312372;-0.161037728;0.986943364
2024/05/03/13:18:20.463375;163406;1714767500;463108234;world;0.16565159;-0.026021214;0.000836934;0.000171294;0.00332623;-0.161702529;0.98683399
2024/05/03/13:18:20.493194;163407;1714767500;492945662;world;0.166182116;-0.026196606;0.000827342;0.000105787;0.003491007;-0.162252486;0.986743093
2024/05/03/13:18:20.503332;163408;1714767500;503065159;world;0.166835815;-0.026401183;0.000761488;0.000258816;0.003375977;-0.162686229;0.986672044
2024/05/03/13:18:20.503362;163409;1714767500;503098572;world;0.167456612;-0.026581569;0.000802045;0.000219124;0.003389996;-0.16328834;0.986572623
2024/05/03/13:18:20.523894;163410;1714767500;523351053;world;0.16810374;-0.026865151;0.000805321;0.000115324;0.003381145;-0.164253235;0.986412406
2024/05/03/13:18:20.533286;163411;1714767500;533008166;world;0.168450281;-0.026972314;0.00080068;0.000240502;0.003272658;-0.164557874;0.98636198
2024/05/03/13:18:20.553493;163412;1714767500;553223518;world;0.169377774;-0.027310377;0.000787995;0.000260638;0.003398393;-0.165494397;0.986204803
2024/05/03/13:18:20.563493;163413;1714767500;563128422;world;0.169681698;-0.027425973;0.000778727;0.000238317;0.003373279;-0.165733203;0.986164927
2024/05/03/13:18:20.583464;163414;1714767500;583152645;world;0.170288324;-0.027617186;0.000791887;0.00018826;0.003203542;-0.166243121;0.986079633
2024/05/03/13:18:20.603194;163415;1714767500;602956706;world;0.170929849;-0.027783889;0.000807379;0.000252491;0.003145311;-0.166842759;0.985978544
2024/05/03/13:18:20.613151;163416;1714767500;612856823;world;0.171554849;-0.027939904;0.000805569;-4.96E-05;0.003121992;-0.167509913;0.985865474
2024/05/03/13:18:20.633417;163417;1714767500;633102843;world;0.172121808;-0.028120415;0.000866345;-0.000310518;0.003231107;-0.168284297;0.985733151
2024/05/03/13:18:20.643404;163418;1714767500;643078330;world;0.172812149;-0.028387841;0.000813987;-0.000213731;0.003300684;-0.168986335;0.98561281
2024/05/03/13:18:20.663716;163419;1714767500;663500390;world;0.173136309;-0.028549999;0.000792421;-0.000109504;0.003042232;-0.169199497;0.985577166
2024/05/03/13:18:20.683217;163420;1714767500;682934687;world;0.173789293;-0.028779482;0.000785041;-1.28E-06;0.003063936;-0.169825748;0.985469401
2024/05/03/13:18:20.693552;163421;1714767500;693151701;world;0.174364477;-0.028974842;0.000801073;-0.000179763;0.003089624;-0.170450658;0.985361397
2024/05/03/13:18:20.703243;163422;1714767500;702980342;world;0.175013319;-0.029198039;0.000842178;0.000367598;0.00314512;-0.171069145;0.98525399
2024/05/03/13:18:20.723228;163423;1714767500;722929633;world;0.175575405;-0.029448917;0.000826467;-9.82E-05;0.003058007;-0.171682268;0.985147655
2024/05/03/13:18:20.743482;163424;1714767500;743180883;world;0.176279053;-0.029646406;0.000769699;0.00037008;0.002844496;-0.172013149;0.985090494
2024/05/03/13:18:20.773621;163425;1714767500;773236111;world;0.176884338;-0.029847102;0.000875157;0.000374212;0.00286291;-0.172923416;0.984931111
2024/05/03/13:18:20.773664;163426;1714767500;773272559;world;0.177543163;-0.030110411;0.000874077;0.00031277;0.002980307;-0.173740044;0.984787047
2024/05/03/13:18:20.793644;163427;1714767500;793274611;world;0.177847952;-0.030212941;0.000895662;0.000426696;0.002903605;-0.174056277;0.984731317
2024/05/03/13:18:20.803646;163428;1714767500;803377667;world;0.178774387;-0.030433223;0.000929093;0.00028698;0.002864687;-0.174917981;0.984578848
2024/05/03/13:18:20.823350;163429;1714767500;823044609;world;0.179279149;-0.030628398;0.000867851;0.001012442;0.002727021;-0.174949512;0.984573185
2024/05/03/13:18:20.833347;163430;1714767500;833049834;world;0.179880112;-0.030843319;0.000940591;0.000951388;0.003005271;-0.175810218;0.984419048
2024/05/03/13:18:20.853511;163431;1714767500;853151573;world;0.180497468;-0.031142801;0.000898894;0.00105956;0.002854504;-0.176188111;0.984351814
2024/05/03/13:18:20.863515;163432;1714767500;863267654;world;0.181428865;-0.031472854;0.000835675;0.001263473;0.003079417;-0.177040771;0.984197915
2024/05/03/13:18:20.883534;163433;1714767500;883235301;world;0.181681097;-0.031678416;0.000755135;0.000961177;0.003358883;-0.177551538;0.984105289
2024/05/03/13:18:20.903653;163434;1714767500;903351859;world;0.182370484;-0.031864744;0.000824815;0.001085588;0.003451084;-0.17822583;0.98398304
2024/05/03/13:18:20.913900;163435;1714767500;913266462;world;0.182663888;-0.031970888;0.000842623;0.00111601;0.003433529;-0.178555742;0.983923256
2024/05/03/13:18:20.923356;163436;1714767500;923038097;world;0.183583885;-0.032346271;0.000837407;0.001174413;0.003339676;-0.17931053;0.983786166
2024/05/03/13:18:20.943890;163437;1714767500;943401196;world;0.183895424;-0.032462377;0.000851815;0.001192982;0.003387634;-0.179653138;0.983723521
2024/05/03/13:18:20.963315;163438;1714767500;963003108;world;0.184488997;-0.032691102;0.000863063;0.001141131;0.003348121;-0.180301145;0.983605087
2024/05/03/13:18:20.973571;163439;1714767500;973196225;world;0.185045719;-0.032971382;0.000873182;0.001032187;0.00327487;-0.181098968;0.983458877
2024/05/03/13:18:21.013673;163440;1714767501;13380506;world;0.185617834;-0.033171408;0.00088788;0.000977595;0.003191965;-0.181571424;0.983372152
2024/05/03/13:18:21.013697;163441;1714767501;13415562;world;0.186251104;-0.033415981;0.00084496;0.000937394;0.003145823;-0.182068273;0.98328042
2024/05/03/13:18:21.023525;163442;1714767501;23230771;world;0.186904147;-0.033634789;0.000887204;0.001168359;0.003180482;-0.18280445;0.983143508
2024/05/03/13:18:21.033207;163443;1714767501;32907638;world;0.187304661;-0.033813927;0.000897767;0.001116818;0.003104643;-0.183370039;0.983038425
2024/05/03/13:18:21.053607;163444;1714767501;53299377;world;0.18821989;-0.034152284;0.000901039;0.000752996;0.002971199;-0.184422687;0.982842267
2024/05/03/13:18:21.063309;163445;1714767501;62948886;world;0.188454583;-0.034273602;0.000867289;0.000250887;0.002881679;-0.184766293;0.982778251
2024/05/03/13:18:21.083483;163446;1714767501;83148929;world;0.189058349;-0.034523688;0.000831499;0.000109926;0.003017829;-0.185482502;0.982643008
2024/05/03/13:18:21.103272;163447;1714767501;102950956;world;0.189532205;-0.034661114;0.000895343;-0.00015788;0.002989595;-0.186051056;0.982535601
2024/05/03/13:18:21.113639;163448;1714767501;113372844;world;0.190124214;-0.034910567;0.000958703;4.49E-05;0.003150355;-0.186611056;0.982428849
2024/05/03/13:18:21.123240;163449;1714767501;122977595;world;0.190771684;-0.035140388;0.001006803;0.000364548;0.003313894;-0.187259451;0.982304811
2024/05/03/13:18:21.143503;163450;1714767501;143183248;world;0.191461161;-0.035419825;0.000965265;0.000360651;0.00312216;-0.18772389;0.982216835
2024/05/03/13:18:21.164265;163451;1714767501;163918241;world;0.192204416;-0.035747081;0.000913107;0.000518942;0.003063309;-0.188453451;0.982077241
2024/05/03/13:18:21.173453;163452;1714767501;173141262;world;0.192797303;-0.036025304;0.000942943;0.000501392;0.002945408;-0.189165533;0.981940627
2024/05/03/13:18:21.203452;163453;1714767501;203151915;world;0.193114132;-0.036171224;0.000940563;0.000527602;0.002880597;-0.189483017;0.981879711
2024/05/03/13:18:21.203481;163454;1714767501;203191389;world;0.193795264;-0.036449928;0.000894367;0.000769496;0.003008088;-0.190163925;0.981747448
2024/05/03/13:18:21.223568;163455;1714767501;223278260;world;0.194494277;-0.036758281;0.000845727;0.00096502;0.002866622;-0.190684229;0.981646836
2024/05/03/13:18:21.243656;163456;1714767501;243323211;world;0.195080325;-0.036945298;0.00085773;0.00098888;0.002959359;-0.191375688;0.981511891
2024/05/03/13:18:21.253497;163457;1714767501;253152365;world;0.195553631;-0.037092805;0.001010189;0.000698551;0.003430085;-0.1923832;0.981313705
2024/05/03/13:18:21.273439;163458;1714767501;272889561;world;0.196183756;-0.03729466;0.001067185;0.000936225;0.003317037;-0.192969501;0.981198668
2024/05/03/13:18:21.283236;163459;1714767501;282937163;world;0.196880192;-0.037571691;0.001046163;0.00085179;0.003360455;-0.193767473;0.981041372
2024/05/03/13:18:21.303684;163460;1714767501;303420870;world;0.197217688;-0.037681788;0.001037771;0.000935115;0.003437672;-0.194118142;0.980971694
2024/05/03/13:18:21.313578;163461;1714767501;313239293;world;0.197755322;-0.037895862;0.001039563;0.000908436;0.003252422;-0.194725469;0.980852067
2024/05/03/13:18:21.333396;163462;1714767501;333060435;world;0.198352173;-0.038270462;0.000901631;0.000800103;0.003012626;-0.195055082;0.980787396
2024/05/03/13:18:21.343203;163463;1714767501;342929639;world;0.198912382;-0.038521476;0.00095799;0.000790409;0.003092887;-0.195557386;0.980687082
2024/05/03/13:18:21.363226;163464;1714767501;362920394;world;0.199516013;-0.038729809;0.000975233;0.000740554;0.00315999;-0.19617644;0.980563283
2024/05/03/13:18:21.383348;163465;1714767501;383019538;world;0.200114667;-0.039009508;0.001008987;0.000809958;0.003168697;-0.196815297;0.980435133
2024/05/03/13:18:21.403784;163466;1714767501;403448932;world;0.200707674;-0.039278172;0.001037753;0.000918452;0.003181341;-0.197423294;0.980312765
2024/05/03/13:18:21.403809;163467;1714767501;403488416;world;0.201093212;-0.039460026;0.001053116;0.001182406;0.003360125;-0.197935566;0.980208516
2024/05/03/13:18:21.423508;163468;1714767501;423204521;world;0.202012762;-0.039863892;0.001007278;0.000868413;0.003243149;-0.198991314;0.979995549
2024/05/03/13:18:21.443941;163469;1714767501;443362896;world;0.202333525;-0.039987743;0.000990348;0.000907638;0.00321282;-0.199261919;0.979940593
2024/05/03/13:18:21.463276;163470;1714767501;462990436;world;0.202988684;-0.040158398;0.000971298;0.000817308;0.002949017;-0.199957132;0.979799926
2024/05/03/13:18:21.483473;163471;1714767501;482977319;world;0.203552142;-0.040415145;0.000959949;0.001076886;0.002982432;-0.200642556;0.979659438
2024/05/03/13:18:21.493287;163472;1714767501;492971694;world;0.204424426;-0.040747836;0.000948719;0.001253295;0.003157512;-0.201516688;0.979479253
2024/05/03/13:18:21.513208;163473;1714767501;512920325;world;0.204651594;-0.040871616;0.000970407;0.000959898;0.0031735;-0.201945737;0.979391098
2024/05/03/13:18:21.523380;163474;1714767501;523102030;world;0.205229416;-0.04117322;0.000952557;0.000642666;0.003274461;-0.20263575;0.979248524
2024/05/03/13:18:21.533236;163475;1714767501;532938377;world;0.205937684;-0.04150553;0.000928685;0.000686104;0.003174903;-0.203243718;0.979122877
2024/05/03/13:18:21.553576;163476;1714767501;553300354;world;0.206236988;-0.041595638;0.000975623;0.000524385;0.002948114;-0.203546017;0.979060829
2024/05/03/13:18:21.563425;163477;1714767501;563067401;world;0.206821203;-0.041848779;0.000949795;0.000495816;0.002968963;-0.204186931;0.978927255
2024/05/03/13:18:21.583668;163478;1714767501;583353515;world;0.207405522;-0.042059749;0.000988491;0.000524883;0.002907499;-0.204712495;0.978817761
2024/05/03/13:18:21.593296;163479;1714767501;592989228;world;0.208028212;-0.042271413;0.001064044;0.000710118;0.002863262;-0.205454484;0.978662193
2024/05/03/13:18:21.613211;163480;1714767501;612917330;world;0.208703876;-0.042510428;0.001093657;0.000732464;0.002922991;-0.206061229;0.97853446
2024/05/03/13:18:21.633600;163481;1714767501;633285468;world;0.209368348;-0.042825967;0.001070239;0.000994203;0.00303691;-0.206666142;0.97840631
2024/05/03/13:18:21.643200;163482;1714767501;642906520;world;0.209987208;-0.043088891;0.001077068;0.001039386;0.003029283;-0.207273677;0.978277802
2024/05/03/13:18:21.663418;163483;1714767501;663088501;world;0.210306183;-0.04322594;0.001078228;0.001107117;0.002979732;-0.207531214;0.978223264
2024/05/03/13:18:21.683541;163484;1714767501;683229322;world;0.211175621;-0.043691423;0.001034957;0.000897576;0.00300089;-0.20842582;0.978033185
2024/05/03/13:18:21.693152;163485;1714767501;692833304;world;0.21143119;-0.043833978;0.001022502;0.000703228;0.003133425;-0.208845273;0.97794342
2024/05/03/13:18:21.723631;163486;1714767501;723288159;world;0.212058097;-0.044111054;0.001015079;0.000661804;0.003090411;-0.209402829;0.97782439
2024/05/03/13:18:21.723656;163487;1714767501;723322443;world;0.212746829;-0.044326983;0.001025274;0.001037162;0.002815988;-0.209708139;0.977759421
