time;.header.seq;.header.stamp.secs;.header.stamp.nsecs;.header.frame_id;.pose.position.x;.pose.position.y;.pose.position.z;.pose.orientation.x;.pose.orientation.y;.pose.orientation.z;.pose.orientation.w
2024/05/03/12:34:34.823195;2014;1714764874;822971396;world;7.16E-05;-1.20E-05;8.82E-05;-4.27E-05;1.02E-05;-2.38E-05;1
2024/05/03/12:34:34.833544;2015;1714764874;833191217;world;7.16E-05;-1.34E-05;6.74E-05;5.85E-06;2.77E-05;3.67E-05;1
2024/05/03/12:34:34.843422;2016;1714764874;843018039;world;7.27E-05;-1.36E-05;8.50E-05;7.33E-06;-5.00E-06;-8.74E-06;1
2024/05/03/12:34:34.863830;2017;1714764874;862878542;world;7.38E-05;-1.77E-05;9.28E-05;-8.97E-06;-3.83E-06;-4.17E-05;1
2024/05/03/12:34:34.893563;2018;1714764874;893144235;world;5.56E-05;-3.92E-06;8.19E-05;-7.86E-05;1.60E-05;-3.65E-05;1
2024/05/03/12:34:34.893601;2019;1714764874;893180132;world;5.42E-05;-2.01E-05;8.18E-05;6.23E-06;-6.63E-06;-3.13E-06;1
2024/05/03/12:34:34.923615;2020;1714764874;923278555;world;8.48E-05;-1.33E-05;8.76E-05;-6.13E-05;1.25E-05;1.34E-05;1
2024/05/03/12:34:34.923642;2021;1714764874;923311658;world;8.04E-05;-9.53E-06;8.20E-05;-2.62E-05;3.18E-05;-9.73E-06;1
2024/05/03/12:34:34.943862;2022;1714764874;943229863;world;4.38E-05;-1.70E-05;8.11E-05;8.41E-06;-2.22E-06;-1.18E-05;1
2024/05/03/12:34:34.953344;2023;1714764874;952994774;world;6.21E-05;-5.49E-06;8.83E-05;1.03E-06;3.00E-05;2.46E-05;1
2024/05/03/12:34:34.973458;2024;1714764874;973171787;world;8.40E-05;-1.33E-05;9.53E-05;-5.72E-05;-5.31E-06;1.81E-05;1
2024/05/03/12:34:34.993241;2025;1714764874;992913947;world;6.49E-05;-1.73E-05;8.38E-05;5.00E-06;8.46E-06;1.34E-05;1
2024/05/03/12:34:35.003645;2026;1714764875;3352810;world;7.94E-05;-4.83E-06;9.39E-05;-6.27E-06;6.02E-06;6.24E-06;1
2024/05/03/12:34:35.023635;2027;1714764875;23389534;world;7.24E-05;-1.17E-05;8.08E-05;8.80E-06;-4.76E-05;-3.08E-05;1
2024/05/03/12:34:35.033405;2028;1714764875;33107182;world;6.49E-05;-2.03E-05;9.00E-05;-4.33E-05;-5.66E-05;-1.45E-05;1
2024/05/03/12:34:35.053339;2029;1714764875;52968697;world;6.54E-05;-8.01E-06;8.42E-05;2.64E-07;-5.62E-06;-7.03E-06;1
2024/05/03/12:34:35.073496;2030;1714764875;73130297;world;5.63E-05;-1.91E-05;9.52E-05;-2.50E-05;2.49E-06;-2.27E-05;1
2024/05/03/12:34:35.093248;2031;1714764875;92889329;world;7.93E-05;-1.87E-05;8.45E-05;-5.63E-05;-3.24E-05;4.27E-06;1
2024/05/03/12:34:35.103818;2032;1714764875;102949510;world;7.40E-05;-8.50E-06;9.72E-05;-3.67E-05;-1.85E-05;-2.06E-05;1
2024/05/03/12:34:35.123394;2033;1714764875;122889393;world;7.71E-05;-5.06E-06;0.000100377;-1.86E-05;2.71E-06;-4.90E-05;1
2024/05/03/12:34:35.123426;2034;1714764875;122927725;world;5.94E-05;-1.52E-05;9.28E-05;-0.000103205;3.03E-05;-3.23E-05;1
2024/05/03/12:34:35.143445;2035;1714764875;143138653;world;7.34E-05;-2.39E-06;9.18E-05;-2.82E-05;2.56E-06;-3.39E-05;1
2024/05/03/12:34:35.163788;2036;1714764875;163197844;world;6.41E-05;-8.51E-06;9.01E-05;-1.61E-06;2.86E-05;-1.77E-05;1
2024/05/03/12:34:35.173717;2037;1714764875;173249515;world;6.63E-05;-2.28E-05;8.86E-05;-4.85E-06;-1.91E-06;-8.57E-06;1
2024/05/03/12:34:35.193400;2038;1714764875;193094894;world;7.38E-05;-1.24E-05;9.78E-05;-4.09E-05;-2.04E-05;-6.88E-06;1
2024/05/03/12:34:35.213271;2039;1714764875;212929568;world;5.71E-05;-9.97E-06;7.88E-05;-5.49E-05;-1.14E-05;-5.90E-06;1
2024/05/03/12:34:35.233275;2040;1714764875;232889701;world;7.21E-05;-1.11E-05;7.65E-05;-2.29E-05;2.48E-05;-8.54E-06;1
2024/05/03/12:34:35.243196;2041;1714764875;242997391;world;8.24E-05;-1.07E-05;0.000105951;3.70E-06;6.73E-06;-5.95E-06;1
2024/05/03/12:34:35.253277;2042;1714764875;252939208;world;7.23E-05;-1.13E-05;9.63E-05;-4.77E-06;2.15E-05;-3.35E-05;1
2024/05/03/12:34:35.273309;2043;1714764875;272933043;world;6.20E-05;-1.83E-05;8.57E-05;1.63E-05;3.61E-05;2.52E-06;1
2024/05/03/12:34:35.283653;2044;1714764875;283351666;world;7.54E-05;-1.61E-05;8.89E-05;-9.54E-05;-1.24E-05;3.68E-06;1
2024/05/03/12:34:35.293622;2045;1714764875;293327626;world;8.34E-05;-1.19E-05;9.41E-05;-4.38E-05;-7.19E-06;7.19E-06;1
2024/05/03/12:34:35.343302;2046;1714764875;342978573;world;5.69E-05;-1.45E-05;9.01E-05;-9.79E-05;-4.75E-05;-2.53E-05;1
2024/05/03/12:34:35.343312;2047;1714764875;343021794;world;4.42E-05;-8.67E-06;7.78E-05;-3.45E-05;-1.68E-05;-3.47E-05;1
2024/05/03/12:34:35.353567;2048;1714764875;353249670;world;7.34E-05;-1.21E-05;9.48E-05;-5.99E-05;1.62E-05;1.41E-05;1
2024/05/03/12:34:35.363395;2049;1714764875;363098740;world;7.69E-05;-1.05E-05;0.000100829;-5.08E-05;-2.52E-05;-2.96E-05;1
2024/05/03/12:34:35.373339;2050;1714764875;373024403;world;7.00E-05;-3.04E-06;7.93E-05;-1.05E-05;6.11E-06;1.60E-05;1
2024/05/03/12:34:35.403883;2051;1714764875;403372279;world;6.94E-05;-1.53E-05;0.000102465;-4.29E-05;-1.96E-05;-7.62E-05;1
2024/05/03/12:34:35.403911;2052;1714764875;403409779;world;6.86E-05;-7.68E-06;7.72E-05;4.28E-05;1.59E-05;2.70E-05;1
2024/05/03/12:34:35.433257;2053;1714764875;432943677;world;7.75E-05;-1.37E-05;8.54E-05;2.75E-06;-2.11E-05;-3.24E-05;1
2024/05/03/12:34:35.443799;2054;1714764875;443313880;world;7.19E-05;-5.12E-06;7.53E-05;-4.01E-05;2.65E-05;-3.58E-05;1
2024/05/03/12:34:35.453163;2055;1714764875;452880825;world;5.89E-05;-1.17E-05;0.000101881;-7.60E-05;-2.26E-05;-3.02E-05;1
2024/05/03/12:34:35.474094;2056;1714764875;473123946;world;8.56E-05;-2.11E-05;8.45E-05;-2.79E-05;-3.97E-05;1.51E-05;1
2024/05/03/12:34:35.483712;2057;1714764875;483336123;world;7.51E-05;-8.76E-06;9.24E-05;-3.83E-05;-4.33E-06;-4.64E-05;1
2024/05/03/12:34:35.503784;2058;1714764875;503166842;world;6.35E-05;-4.49E-06;8.78E-05;-2.89E-05;8.75E-06;-5.14E-06;1
2024/05/03/12:34:35.513453;2059;1714764875;513102334;world;7.54E-05;-1.46E-05;9.63E-05;2.60E-06;-8.30E-07;-6.78E-07;1
2024/05/03/12:34:35.533592;2060;1714764875;533216929;world;8.20E-05;-9.09E-06;9.05E-05;-5.34E-05;4.69E-05;-4.51E-05;1
2024/05/03/12:34:35.553575;2061;1714764875;553253002;world;7.19E-05;-1.50E-05;7.92E-05;-2.17E-05;3.56E-05;-1.21E-08;1
2024/05/03/12:34:35.563734;2062;1714764875;563371254;world;6.37E-05;-1.33E-05;8.85E-05;-6.07E-05;1.23E-05;-1.82E-05;1
2024/05/03/12:34:35.583632;2063;1714764875;583316015;world;7.48E-05;-1.94E-05;8.23E-05;-4.83E-05;-1.55E-07;6.08E-06;1
2024/05/03/12:34:35.603568;2064;1714764875;603261588;world;7.70E-05;-2.78E-05;7.76E-05;-3.20E-05;-1.42E-05;3.01E-05;1
2024/05/03/12:34:35.613308;2065;1714764875;612969267;world;6.76E-05;-1.13E-05;7.93E-05;-3.04E-05;2.23E-05;-1.12E-05;1
2024/05/03/12:34:35.643572;2066;1714764875;643140202;world;6.23E-05;-1.01E-05;8.86E-05;-1.12E-06;4.11E-06;-1.47E-05;1
2024/05/03/12:34:35.653579;2067;1714764875;653241841;world;7.97E-05;-1.96E-05;9.89E-05;-5.23E-05;-1.74E-05;-1.89E-05;1
2024/05/03/12:34:35.663847;2068;1714764875;663199138;world;7.00E-05;-1.59E-05;8.91E-05;-2.52E-05;3.64E-05;-3.25E-05;1
2024/05/03/12:34:35.673634;2069;1714764875;673335353;world;5.27E-05;-1.05E-05;8.86E-05;-1.83E-05;-1.18E-06;-2.83E-05;1
2024/05/03/12:34:35.693332;2070;1714764875;693006821;world;7.04E-05;-8.07E-06;8.52E-05;3.99E-06;-1.84E-05;-5.96E-06;1
2024/05/03/12:34:35.703679;2071;1714764875;703335686;world;7.91E-05;-1.30E-05;0.000103918;-1.85E-05;7.60E-06;-5.00E-05;1
2024/05/03/12:34:35.723744;2072;1714764875;722847454;world;6.38E-05;-9.94E-06;8.62E-05;-1.33E-05;-2.43E-06;-5.85E-05;1
2024/05/03/12:34:35.743475;2073;1714764875;743111857;world;6.52E-05;-5.50E-06;7.41E-05;2.62E-05;-1.69E-05;-2.83E-05;1
2024/05/03/12:34:35.753645;2074;1714764875;753354045;world;7.75E-05;-2.50E-05;9.11E-05;8.10E-06;1.59E-05;2.15E-05;1
2024/05/03/12:34:35.773306;2075;1714764875;772999128;world;7.13E-05;-5.14E-06;8.98E-05;-3.48E-05;-1.22E-05;-2.15E-05;1
2024/05/03/12:34:35.784288;2076;1714764875;783010397;world;6.88E-05;-4.99E-06;8.68E-05;-4.82E-06;1.95E-05;-2.38E-05;1
2024/05/03/12:34:35.813481;2077;1714764875;813071556;world;5.64E-05;-9.46E-06;8.61E-05;-8.11E-05;-1.20E-05;-3.66E-05;1
2024/05/03/12:34:35.823200;2078;1714764875;822951263;world;7.44E-05;-1.39E-05;0.000101603;-2.55E-05;2.85E-06;-2.23E-05;1
2024/05/03/12:34:35.843467;2079;1714764875;843119109;world;5.44E-05;-1.92E-05;9.52E-05;-7.02E-05;-1.65E-05;1.94E-06;1
2024/05/03/12:34:35.853491;2080;1714764875;853184189;world;7.33E-05;-1.93E-05;9.83E-05;-5.22E-05;2.13E-05;1.11E-07;1
2024/05/03/12:34:35.863596;2081;1714764875;863264908;world;7.82E-05;-1.88E-05;8.93E-05;-1.02E-05;7.45E-06;4.12E-06;1
2024/05/03/12:34:35.873226;2082;1714764875;872930547;world;5.63E-05;-1.59E-05;9.20E-05;-4.89E-05;-8.26E-06;-3.20E-05;1
2024/05/03/12:34:35.893539;2083;1714764875;893144185;world;6.98E-05;-1.34E-05;8.36E-05;-4.67E-06;-1.22E-05;6.46E-06;1
2024/05/03/12:34:35.913262;2084;1714764875;912969562;world;7.06E-05;-3.53E-06;9.63E-05;-2.51E-05;-1.53E-05;-1.84E-05;1
2024/05/03/12:34:35.923501;2085;1714764875;923175829;world;9.06E-05;-1.22E-05;8.30E-05;-7.32E-05;-1.14E-05;-9.14E-06;1
2024/05/03/12:34:35.953749;2086;1714764875;952918188;world;6.52E-05;-1.03E-05;8.57E-05;-3.29E-05;-1.23E-05;1.27E-05;1
2024/05/03/12:34:35.963782;2087;1714764875;963335320;world;5.71E-05;-1.64E-05;8.94E-05;-4.78E-05;-8.38E-06;-5.49E-06;1
2024/05/03/12:34:35.973195;2088;1714764875;972893607;world;7.75E-05;-1.12E-05;8.96E-05;-6.27E-05;3.87E-06;-7.33E-07;1
2024/05/03/12:34:35.993339;2089;1714764875;992943046;world;8.47E-05;-1.62E-05;9.50E-05;-3.83E-05;-5.05E-05;-4.63E-05;1
2024/05/03/12:34:36.013360;2090;1714764876;13072260;world;6.97E-05;-1.66E-05;8.52E-05;-1.63E-05;-4.81E-05;-3.48E-05;1
2024/05/03/12:34:36.023315;2091;1714764876;23004674;world;7.77E-05;-2.00E-05;7.88E-05;-4.25E-05;-9.25E-06;1.99E-05;1
2024/05/03/12:34:36.033661;2092;1714764876;33363597;world;7.19E-05;-6.11E-06;0.000101648;-7.44E-05;1.04E-06;-6.04E-05;1
2024/05/03/12:34:36.053353;2093;1714764876;52988689;world;8.01E-05;-2.01E-05;9.63E-05;-9.10E-06;-5.57E-05;-3.24E-05;1
2024/05/03/12:34:36.063273;2094;1714764876;62968269;world;6.97E-05;-1.60E-05;7.28E-05;-5.11E-05;-2.71E-05;1.95E-05;1
2024/05/03/12:34:36.083755;2095;1714764876;83350583;world;6.62E-05;-1.28E-05;8.19E-05;-2.65E-05;8.56E-06;-2.96E-05;1
2024/05/03/12:34:36.093601;2096;1714764876;93284967;world;6.35E-05;-1.38E-05;8.73E-05;-7.08E-05;-2.18E-05;-4.50E-05;1
2024/05/03/12:34:36.113580;2097;1714764876;113200231;world;7.84E-05;-1.78E-05;9.07E-05;-5.00E-06;1.70E-05;-2.09E-05;1
2024/05/03/12:34:36.133382;2098;1714764876;132913613;world;6.01E-05;-1.90E-05;7.80E-05;3.51E-05;1.54E-05;2.43E-06;1
2024/05/03/12:34:36.153521;2099;1714764876;153130050;world;7.88E-05;-1.41E-05;0.00010178;-4.18E-05;4.14E-05;-1.71E-06;1
2024/05/03/12:34:36.163460;2100;1714764876;163081308;world;7.31E-05;-4.26E-06;0.000104161;-5.17E-05;2.91E-05;-4.65E-05;1
2024/05/03/12:34:36.173759;2101;1714764876;173361422;world;6.75E-05;-2.04E-05;8.57E-05;8.85E-06;9.50E-06;7.28E-09;1
2024/05/03/12:34:36.193319;2102;1714764876;192943983;world;6.71E-05;-1.73E-05;7.90E-05;3.59E-05;1.54E-05;2.54E-05;1
2024/05/03/12:34:36.203574;2103;1714764876;203139212;world;8.34E-05;-1.49E-05;7.68E-05;3.83E-06;2.46E-05;5.56E-05;1
2024/05/03/12:34:36.223736;2104;1714764876;223340042;world;7.72E-05;-9.02E-06;0.000103584;-1.40E-05;-1.68E-05;-3.12E-05;1
2024/05/03/12:34:36.253407;2105;1714764876;253055205;world;6.63E-05;-6.23E-06;8.65E-05;-3.85E-05;3.46E-06;-1.60E-05;1
2024/05/03/12:34:36.253430;2106;1714764876;253093877;world;6.82E-05;-1.71E-05;7.75E-05;-2.84E-05;-4.70E-06;2.95E-06;1
2024/05/03/12:34:36.273507;2107;1714764876;273181278;world;6.33E-05;-1.84E-05;9.66E-05;-1.56E-06;-4.34E-05;-3.08E-05;1
2024/05/03/12:34:36.293484;2108;1714764876;292997748;world;6.12E-05;-1.58E-05;9.12E-05;5.30E-07;9.42E-07;-1.46E-05;1
2024/05/03/12:34:36.303370;2109;1714764876;303045627;world;8.40E-05;-8.34E-06;8.84E-05;2.96E-05;-3.43E-06;-1.10E-05;1
2024/05/03/12:34:36.323461;2110;1714764876;323146883;world;7.28E-05;-1.21E-05;9.49E-05;-3.93E-05;-1.15E-05;-3.59E-05;1
2024/05/03/12:34:36.333702;2111;1714764876;333366514;world;8.72E-05;-1.33E-05;9.04E-05;-1.93E-05;-1.48E-05;-4.64E-05;1
2024/05/03/12:34:36.353595;2112;1714764876;353095697;world;7.48E-05;-1.31E-05;8.70E-05;-6.13E-05;5.65E-06;-1.07E-05;1
2024/05/03/12:34:36.363546;2113;1714764876;363147427;world;5.18E-05;-8.06E-06;9.31E-05;2.19E-05;-2.85E-05;-8.20E-07;1
2024/05/03/12:34:36.373470;2114;1714764876;373173443;world;6.01E-05;-1.89E-05;9.20E-05;-2.16E-05;6.73E-06;3.70E-05;1
2024/05/03/12:34:36.393729;2115;1714764876;393260272;world;6.30E-05;-9.76E-06;7.80E-05;-7.09E-05;8.24E-06;-4.83E-05;1
2024/05/03/12:34:36.413410;2116;1714764876;413042239;world;5.65E-05;7.04E-06;8.53E-05;-3.57E-05;2.09E-05;-3.58E-05;1
2024/05/03/12:34:36.423382;2117;1714764876;422964126;world;4.35E-05;-3.23E-06;9.96E-05;-2.14E-05;-4.76E-05;-5.36E-05;1
2024/05/03/12:34:36.443981;2118;1714764876;443327230;world;6.93E-05;-1.57E-05;9.76E-05;-4.18E-05;4.89E-06;-4.96E-06;1
2024/05/03/12:34:36.463529;2119;1714764876;463142288;world;8.07E-05;-1.99E-05;8.23E-05;-6.70E-05;5.36E-06;1.11E-05;1
2024/05/03/12:34:36.473628;2120;1714764876;473270296;world;6.87E-05;-1.84E-05;8.42E-05;-3.66E-05;-3.65E-05;-4.79E-05;1
2024/05/03/12:34:36.483483;2121;1714764876;482916810;world;6.88E-05;-8.80E-06;9.55E-05;-4.12E-05;-4.82E-07;1.63E-05;1
2024/05/03/12:34:36.504141;2122;1714764876;503682585;world;6.74E-05;-9.67E-06;8.51E-05;-2.10E-05;1.57E-05;-3.32E-05;1
2024/05/03/12:34:36.523300;2123;1714764876;522980047;world;4.49E-05;-1.25E-05;0.000102971;-3.43E-05;-2.74E-05;-7.12E-05;1
2024/05/03/12:34:36.533427;2124;1714764876;533103046;world;6.74E-05;-9.67E-06;9.12E-05;-4.31E-05;-3.66E-05;-1.41E-05;1
2024/05/03/12:34:36.563555;2125;1714764876;563281920;world;7.24E-05;-1.51E-05;9.13E-05;-5.20E-05;-1.52E-06;6.61E-06;1
2024/05/03/12:34:36.563585;2126;1714764876;563320152;world;7.61E-05;-1.77E-05;0.000101254;-1.46E-05;4.24E-06;-1.32E-05;1
2024/05/03/12:34:36.583394;2127;1714764876;583036515;world;4.90E-05;-1.13E-05;8.27E-05;-9.88E-05;8.96E-07;-4.17E-05;1
2024/05/03/12:34:36.593470;2128;1714764876;593152647;world;7.45E-05;-1.18E-05;9.12E-05;-1.53E-05;-1.38E-05;-1.80E-05;1
2024/05/03/12:34:36.613341;2129;1714764876;613041459;world;8.07E-05;-1.84E-05;9.11E-05;-2.00E-05;-1.88E-05;2.12E-05;1
2024/05/03/12:34:36.633243;2130;1714764876;632954602;world;5.88E-05;-1.58E-05;8.30E-05;-5.67E-05;-2.87E-05;-1.29E-05;1
2024/05/03/12:34:36.643557;2131;1714764876;643096175;world;4.59E-05;-7.86E-06;8.37E-05;-1.40E-05;2.96E-05;-2.59E-05;1
2024/05/03/12:34:36.663237;2132;1714764876;662927427;world;7.59E-05;-1.42E-05;8.81E-05;1.12E-05;1.73E-05;-7.78E-06;1
2024/05/03/12:34:36.673598;2133;1714764876;673252374;world;7.10E-05;-5.47E-06;8.95E-05;-5.54E-05;2.29E-06;-2.19E-05;1
2024/05/03/12:34:36.693539;2134;1714764876;693071490;world;6.87E-05;-8.46E-06;8.65E-05;-6.88E-05;4.49E-05;-4.90E-05;1
2024/05/03/12:34:36.703251;2135;1714764876;703027426;world;7.23E-05;-1.32E-05;9.71E-05;-8.04E-05;1.10E-05;-5.32E-05;1
2024/05/03/12:34:36.733813;2136;1714764876;733273783;world;6.36E-05;-1.82E-05;7.84E-05;4.97E-05;-8.74E-06;-1.36E-05;1
2024/05/03/12:34:36.733826;2137;1714764876;733331792;world;8.98E-05;-1.68E-05;0.000102774;-3.16E-05;1.29E-05;-2.26E-05;1
2024/05/03/12:34:36.773450;2138;1714764876;773094408;world;6.61E-05;-1.89E-05;8.54E-05;-5.00E-05;-1.12E-05;-1.30E-06;1
2024/05/03/12:34:36.773487;2139;1714764876;773141907;world;5.37E-05;-9.25E-06;8.66E-05;-3.58E-05;-4.95E-05;-4.78E-05;1
2024/05/03/12:34:36.783416;2140;1714764876;783169206;world;8.86E-05;-2.07E-05;9.49E-05;6.10E-06;2.67E-06;-8.55E-06;1
2024/05/03/12:34:36.803618;2141;1714764876;803260784;world;5.37E-05;-2.38E-06;7.81E-05;-3.61E-05;-1.70E-07;8.03E-06;1
2024/05/03/12:34:36.813532;2142;1714764876;813255092;world;5.32E-05;-2.34E-06;8.74E-05;-2.10E-06;-2.38E-05;-7.72E-06;1
2024/05/03/12:34:36.833346;2143;1714764876;833078989;world;7.60E-05;-1.56E-05;9.22E-05;-1.31E-05;-4.68E-05;-6.08E-05;1
2024/05/03/12:34:36.853228;2144;1714764876;852932989;world;7.39E-05;-1.53E-05;8.82E-05;-3.70E-05;-3.89E-05;-4.00E-05;1
2024/05/03/12:34:36.863123;2145;1714764876;862931123;world;6.08E-05;-3.61E-06;8.99E-05;-3.99E-05;-2.95E-05;-1.58E-05;1
2024/05/03/12:34:36.883404;2146;1714764876;883048390;world;6.22E-05;-1.07E-05;9.34E-05;-4.01E-05;2.30E-05;-2.20E-05;1
2024/05/03/12:34:36.893414;2147;1714764876;893127458;world;6.39E-05;-2.17E-05;9.42E-05;-5.70E-05;1.59E-05;-1.86E-05;1
2024/05/03/12:34:36.913222;2148;1714764876;912909854;world;6.21E-05;-1.43E-05;8.77E-05;-7.21E-05;2.97E-05;-9.01E-06;1
2024/05/03/12:34:36.923631;2149;1714764876;923326817;world;5.26E-05;-1.13E-05;8.10E-05;-8.48E-05;-3.11E-05;-9.84E-06;1
2024/05/03/12:34:36.943537;2150;1714764876;943187119;world;5.35E-05;-9.69E-06;0.000100635;-7.94E-05;-1.46E-05;-9.74E-06;1
2024/05/03/12:34:36.973684;2151;1714764876;973315887;world;7.48E-05;-2.69E-05;8.73E-05;3.44E-05;4.82E-06;2.45E-05;1
2024/05/03/12:34:36.973707;2152;1714764876;973353257;world;7.28E-05;-1.95E-05;8.39E-05;-5.80E-05;-1.77E-05;-3.28E-05;1
2024/05/03/12:34:36.993278;2153;1714764876;992937461;world;4.66E-05;-6.60E-06;8.62E-05;-1.64E-05;-3.13E-05;-4.13E-05;1
2024/05/03/12:34:37.003562;2154;1714764877;3106627;world;8.64E-05;-8.80E-06;9.48E-05;4.20E-05;-1.02E-05;-2.70E-05;1
2024/05/03/12:34:37.023586;2155;1714764877;23222450;world;6.30E-05;-1.66E-05;8.86E-05;9.38E-06;-1.46E-05;-2.70E-05;1
2024/05/03/12:34:37.043927;2156;1714764877;43425628;world;6.64E-05;-3.94E-06;8.78E-05;-4.77E-05;1.18E-05;-3.41E-05;1
2024/05/03/12:34:37.053360;2157;1714764877;53056413;world;7.39E-05;-1.21E-05;0.000109885;-2.62E-05;2.73E-05;-1.72E-05;1
2024/05/03/12:34:37.073511;2158;1714764877;73132834;world;6.47E-05;-2.18E-05;0.000106715;-2.54E-05;5.22E-06;-2.87E-05;1
2024/05/03/12:34:37.083616;2159;1714764877;83140045;world;7.36E-05;-8.42E-06;8.35E-05;1.96E-06;2.87E-06;-2.35E-05;1
2024/05/03/12:34:37.104351;2160;1714764877;103174455;world;7.23E-05;-7.25E-06;7.74E-05;4.42E-05;4.72E-05;-8.20E-06;1
2024/05/03/12:34:37.113606;2161;1714764877;113207116;world;4.96E-05;-2.77E-05;9.55E-05;-3.85E-06;1.21E-05;3.15E-05;1
2024/05/03/12:34:37.133430;2162;1714764877;133007628;world;6.08E-05;-6.78E-06;0.000104267;-7.56E-05;-6.80E-06;-4.79E-05;1
2024/05/03/12:34:37.143436;2163;1714764877;143070995;world;6.84E-05;-1.96E-05;9.27E-05;1.13E-05;-1.40E-05;-7.35E-05;1
2024/05/03/12:34:37.173531;2164;1714764877;173163483;world;8.54E-05;-1.36E-05;9.35E-05;-6.18E-05;6.52E-06;-6.11E-05;1
2024/05/03/12:34:37.173548;2165;1714764877;173204741;world;5.54E-05;-2.21E-05;9.63E-05;-3.72E-05;6.29E-06;-1.96E-06;1
2024/05/03/12:34:37.193832;2166;1714764877;193128486;world;6.19E-05;-1.28E-05;0.000100008;-1.65E-05;-1.72E-06;-3.63E-05;1
2024/05/03/12:34:37.203325;2167;1714764877;202934939;world;6.58E-05;-6.94E-06;9.36E-05;-3.89E-05;9.65E-06;-1.14E-05;1
2024/05/03/12:34:37.223873;2168;1714764877;223247823;world;0.000200571;-9.95E-07;7.71E-05;5.92E-05;-4.06E-05;-1.44E-05;1
2024/05/03/12:34:37.243690;2169;1714764877;243388474;world;0.001773378;8.34E-05;0.000192454;0.000320045;0.00014068;0.000135264;1
2024/05/03/12:34:37.253487;2170;1714764877;253181454;world;0.002642364;0.000115114;0.000304343;0.000671367;0.000230432;0.000165069;0.999999762
2024/05/03/12:34:37.283561;2171;1714764877;283257000;world;0.004319028;0.000129664;0.000419416;0.000973196;0.00048103;0.000155598;0.999999404
2024/05/03/12:34:37.283585;2172;1714764877;283290613;world;0.006043252;0.000120239;0.000276251;4.28E-06;-0.000106671;4.22E-05;1
2024/05/03/12:34:37.303299;2173;1714764877;302989905;world;0.008179382;7.12E-05;0.00028306;-0.000212703;-0.000438279;-4.38E-05;0.999999881
2024/05/03/12:34:37.313292;2174;1714764877;313001654;world;0.009166917;5.50E-05;0.000270049;-5.26E-05;-0.000380638;0.000150769;1
2024/05/03/12:34:37.333251;2175;1714764877;332937011;world;0.011111205;8.51E-05;0.000224975;0.000128441;6.00E-05;0.000516903;0.999999881
2024/05/03/12:34:37.353515;2176;1714764877;353149846;world;0.013206108;0.000100217;0.000263914;-6.81E-05;8.34E-05;0.000631727;0.999999881
2024/05/03/12:34:37.363404;2177;1714764877;363086145;world;0.015323684;0.000126594;0.000303353;0.000161027;9.31E-05;0.000597213;0.999999881
2024/05/03/12:34:37.383635;2178;1714764877;383296818;world;0.01723177;0.000193117;0.00029791;0.000206499;4.87E-05;0.000427515;0.999999881
2024/05/03/12:34:37.393564;2179;1714764877;393146763;world;0.019401213;0.000172945;0.000372501;1.50E-05;-3.04E-05;0.00038364;1
2024/05/03/12:34:37.413193;2180;1714764877;412932067;world;0.021428868;0.000219801;0.00032722;0.00016595;6.62E-05;0.000584493;0.999999881
2024/05/03/12:34:37.423441;2181;1714764877;423136461;world;0.02341504;0.000162454;0.00031364;0.000223423;0.000291266;0.000502029;0.999999881
2024/05/03/12:34:37.453308;2182;1714764877;453021137;world;0.024422888;0.000171358;0.000277294;0.000126739;0.00055025;0.000650786;0.999999642
2024/05/03/12:34:37.453331;2183;1714764877;453061442;world;0.02645985;0.000238826;0.000288076;7.80E-05;0.000485324;0.000686529;0.999999642
2024/05/03/12:34:37.483254;2184;1714764877;482869648;world;0.028542053;0.000256671;0.000370489;0.000266276;0.000517916;0.000500712;0.999999762
2024/05/03/12:34:37.483279;2185;1714764877;482902409;world;0.030655775;0.000235257;0.000381981;-3.91E-05;0.000155881;0.000146908;1
2024/05/03/12:34:37.503693;2186;1714764877;503416141;world;0.032641958;0.000240183;0.000409823;7.40E-05;0.000218137;0.000369183;0.999999881
2024/05/03/12:34:37.513603;2187;1714764877;513276807;world;0.03447333;0.000247098;0.0004668;0.000380165;0.000364714;0.000409078;0.999999762
2024/05/03/12:34:37.533537;2188;1714764877;533210008;world;0.036209907;0.000203749;0.000386798;0.000255608;0.000366484;0.000287176;0.999999881
2024/05/03/12:34:37.553619;2189;1714764877;553326494;world;0.037170205;0.000209047;0.000386833;0.000155657;0.000460224;0.000330829;0.999999881
2024/05/03/12:34:37.573190;2190;1714764877;572901643;world;0.039428025;0.000204973;0.000384359;-7.42E-05;0.000488048;0.000584916;0.999999762
2024/05/03/12:34:37.583792;2191;1714764877;583388164;world;0.040196564;0.000247283;0.000401853;0.000101439;0.000433541;0.00048631;0.999999762
2024/05/03/12:34:37.593158;2192;1714764877;592877483;world;0.041470625;0.000215449;0.000416169;0.000132307;0.000193572;0.000302797;1
2024/05/03/12:34:37.613577;2193;1714764877;613253587;world;0.042795129;0.000224315;0.000489437;7.97E-05;0.000248717;0.000299128;1
2024/05/03/12:34:37.634603;2194;1714764877;634249300;world;0.044071883;0.000291636;0.000579123;0.000514376;0.000298759;0.000363714;0.999999762
2024/05/03/12:34:37.653560;2195;1714764877;653263297;world;0.045173977;0.00028224;0.000606057;0.000348814;-6.68E-07;0.000327436;0.999999881
2024/05/03/12:34:37.663902;2196;1714764877;662974743;world;0.046070311;0.000260657;0.000573621;2.56E-05;-9.21E-05;0.0003393;1
2024/05/03/12:34:37.693446;2197;1714764877;693159466;world;0.046908781;0.000257331;0.000553865;0.000172504;5.52E-05;0.000440434;0.999999881
2024/05/03/12:34:37.693470;2198;1714764877;693195885;world;0.047787249;0.000246285;0.000504698;0.000451893;0.000212092;0.000577448;0.999999762
2024/05/03/12:34:37.713278;2199;1714764877;712992214;world;0.048549909;0.000219538;0.000479575;0.000266388;0.00024777;0.00066672;0.999999762
2024/05/03/12:34:37.733444;2200;1714764877;733145051;world;0.048880417;0.000203891;0.000454429;0.000241283;0.000261909;0.000685636;0.999999762
2024/05/03/12:34:37.743250;2201;1714764877;742953185;world;0.049957708;0.000206849;0.000434618;0.0003038;0.000288302;0.000755012;0.999999642
2024/05/03/12:34:37.773284;2202;1714764877;772930851;world;0.05030477;0.000211131;0.000426205;0.000260244;0.000328;0.000751691;0.999999642
2024/05/03/12:34:37.773309;2203;1714764877;772960197;world;0.050867636;0.000184834;0.000434934;0.000356436;0.000655087;0.000842826;0.999999404
2024/05/03/12:34:37.793463;2204;1714764877;793164377;world;0.051681206;0.000238021;0.000535503;0.000660658;0.000447147;0.000553956;0.999999523
2024/05/03/12:34:37.803810;2205;1714764877;803456514;world;0.052210364;0.000235345;0.000491097;0.000448032;0.000455245;0.000594002;0.999999642
2024/05/03/12:34:37.813532;2206;1714764877;813256747;world;0.05280168;0.000232411;0.000508162;0.000435958;0.000293536;0.000555937;0.999999762
2024/05/03/12:34:37.833767;2207;1714764877;833341563;world;0.053087898;0.0001962;0.000523427;0.000310968;0.000298576;0.000569023;0.999999762
2024/05/03/12:34:37.863648;2208;1714764877;863377997;world;0.053559657;0.000172376;0.00050595;6.60E-06;0.000310068;0.000614274;0.999999762
2024/05/03/12:34:37.863672;2209;1714764877;863419435;world;0.054265421;0.000134205;0.000514986;-0.000122949;0.000346647;0.000559704;0.999999762
2024/05/03/12:34:37.893261;2210;1714764877;892968471;world;0.054538652;0.000147441;0.000517075;-3.33E-05;0.000281474;0.000536938;0.999999881
2024/05/03/12:34:37.893290;2211;1714764877;893002124;world;0.05505541;0.000166349;0.000498827;-1.21E-06;0.000292442;0.000613686;0.999999762
2024/05/03/12:34:37.913684;2212;1714764877;913335538;world;0.055717375;0.000207257;0.000574905;0.000362636;0.000282577;0.000640558;0.999999762
2024/05/03/12:34:37.923286;2213;1714764877;923052014;world;0.056285214;0.000199706;0.000623701;0.00046765;0.000268218;0.000569647;0.999999762
2024/05/03/12:34:37.943441;2214;1714764877;943127200;world;0.05688091;0.000217959;0.000679347;0.000592578;0.000360625;0.000548388;0.999999642
2024/05/03/12:34:37.963989;2215;1714764877;963217857;world;0.057529725;0.000224679;0.000735932;0.00079434;0.000266452;0.000495049;0.999999523
2024/05/03/12:34:37.973363;2216;1714764877;973048084;world;0.057794727;0.000203894;0.00070244;0.000530358;0.00019605;0.000513136;0.999999762
2024/05/03/12:34:38.003455;2217;1714764878;2970546;world;0.058519401;0.000201004;0.000708324;0.000705897;0.000216153;0.000691487;0.999999523
2024/05/03/12:34:38.003476;2218;1714764878;3004339;world;0.059155259;0.000160471;0.000678674;0.000496731;0.000109201;0.000700039;0.999999642
2024/05/03/12:34:38.023201;2219;1714764878;22948171;world;0.059824679;0.000150923;0.000660363;0.000427896;0.000172911;0.000707956;0.999999642
2024/05/03/12:34:38.033534;2220;1714764878;33254825;world;0.060502913;0.00015811;0.000649462;0.000502411;0.000318523;0.000804658;0.999999523
2024/05/03/12:34:38.063312;2221;1714764878;62965788;world;0.061158571;0.000153622;0.000565886;0.000456346;0.000529887;0.001006337;0.999999285
2024/05/03/12:34:38.063339;2222;1714764878;63000002;world;0.061889831;0.00015129;0.000549092;0.000530606;0.000633921;0.001054304;0.999999166
2024/05/03/12:34:38.083836;2223;1714764878;83403107;world;0.062397938;0.000166939;0.000619872;0.000676893;0.000680328;0.001021857;0.999999046
2024/05/03/12:34:38.103271;2224;1714764878;102984698;world;0.063175209;0.000146803;0.00062586;0.00053168;0.000767126;0.00106561;0.999999046
2024/05/03/12:34:38.113372;2225;1714764878;112880861;world;0.064034417;0.000144514;0.000642576;0.000602936;0.000702466;0.000966009;0.999999166
2024/05/03/12:34:38.123733;2226;1714764878;123364076;world;0.064937681;0.00013405;0.000665973;0.000597065;0.000313426;0.000785446;0.999999523
2024/05/03/12:34:38.143319;2227;1714764878;143065564;world;0.06578701;0.000107722;0.000679396;0.000448074;0.000177758;0.000770778;0.999999642
2024/05/03/12:34:38.163535;2228;1714764878;163186307;world;0.06649746;0.000120515;0.000686895;0.000167605;0.000197865;0.00078638;0.999999642
2024/05/03/12:34:38.173357;2229;1714764878;173054817;world;0.066869445;0.000110954;0.000707767;0.000146821;0.0002697;0.000863028;0.999999642
2024/05/03/12:34:38.203586;2230;1714764878;203296167;world;0.067855299;0.000143339;0.000777116;0.00047683;0.000384028;0.000918879;0.999999404
2024/05/03/12:34:38.203614;2231;1714764878;203331824;world;0.068797432;9.27E-05;0.000838217;0.000423387;0.000349046;0.000897648;0.999999523
2024/05/03/12:34:38.223178;2232;1714764878;222881674;world;0.069614388;9.74E-05;0.000851787;0.000282089;0.000294269;0.00082293;0.999999642
2024/05/03/12:34:38.233304;2233;1714764878;233006554;world;0.07047379;0.000125964;0.000868274;0.000394846;0.000492857;0.000690569;0.999999642
2024/05/03/12:34:38.253601;2234;1714764878;253268237;world;0.07135506;0.000125204;0.000859846;0.000530016;0.000582583;0.00079791;0.999999404
2024/05/03/12:34:38.273482;2235;1714764878;273191449;world;0.072215274;0.000137007;0.000840467;0.000402624;0.000487833;0.000731202;0.999999523
2024/05/03/12:34:38.283422;2236;1714764878;283118190;world;0.073209301;0.000107536;0.000807575;0.000732408;0.000676193;0.000941824;0.999999046
2024/05/03/12:34:38.303689;2237;1714764878;303234497;world;0.074300349;8.64E-05;0.000841592;0.000729089;0.000721611;0.000970317;0.999999046
2024/05/03/12:34:38.313457;2238;1714764878;313177447;world;0.074731566;6.68E-05;0.000817379;0.000463795;0.0006281;0.000948884;0.999999285
2024/05/03/12:34:38.333470;2239;1714764878;333222365;world;0.075514309;3.30E-05;0.000796826;0.000187964;0.000688392;0.001072056;0.999999166
2024/05/03/12:34:38.343524;2240;1714764878;343155942;world;0.076440878;6.97E-05;0.000832845;0.000398377;0.000664425;0.000973751;0.999999285
2024/05/03/12:34:38.373198;2241;1714764878;373005685;world;0.077323459;6.67E-05;0.000819175;0.000441844;0.000408187;0.000968246;0.999999404
2024/05/03/12:34:38.383870;2242;1714764878;383351975;world;0.078163274;2.28E-05;0.000857937;0.000444729;0.000317397;0.000962542;0.999999404
2024/05/03/12:34:38.413245;2243;1714764878;412923543;world;0.079082012;2.38E-05;0.000890234;0.000457807;0.00036341;0.000892689;0.999999404
2024/05/03/12:34:38.413269;2244;1714764878;412955363;world;0.07999289;4.18E-05;0.000927619;0.000332695;0.000288253;0.001022574;0.999999404
2024/05/03/12:34:38.423450;2245;1714764878;423017821;world;0.080897979;7.24E-05;0.000971374;0.000466555;0.000229464;0.001034776;0.999999404
2024/05/03/12:34:38.443388;2246;1714764878;443018148;world;0.081829436;6.91E-05;0.001042788;0.000687024;0.000386694;0.001024704;0.999999166
2024/05/03/12:34:38.453368;2247;1714764878;453005643;world;0.082255691;6.22E-05;0.001067614;0.00063612;0.000262116;0.000974384;0.999999285
2024/05/03/12:34:38.473268;2248;1714764878;472989720;world;0.083021306;1.38E-05;0.0010352;0.000453977;0.000215246;0.000912342;0.999999523
2024/05/03/12:34:38.493605;2249;1714764878;493261567;world;0.083890475;6.17E-05;0.001012417;0.000744862;0.000395491;0.000883968;0.999999285
2024/05/03/12:34:38.513551;2250;1714764878;513214586;world;0.084740169;4.27E-05;0.001015462;0.000756123;0.000406206;0.000919195;0.999999285
2024/05/03/12:34:38.523217;2251;1714764878;523034307;world;0.085637644;7.75E-05;0.000994852;0.000789244;0.000497964;0.000902406;0.999999166
2024/05/03/12:34:38.533363;2252;1714764878;533086062;world;0.08658056;0.000124409;0.001066797;0.00082211;0.000636504;0.000932397;0.999999046
2024/05/03/12:34:38.553534;2253;1714764878;553214911;world;0.087536074;0.000125054;0.001179189;0.001050613;0.000575081;0.000928767;0.999998927
2024/05/03/12:34:38.573268;2254;1714764878;572950231;world;0.088441558;0.000128479;0.001110097;0.001038687;0.000444479;0.00096336;0.999998927
2024/05/03/12:34:38.584202;2255;1714764878;583346042;world;0.089288637;9.52E-05;0.001060784;0.001181783;0.000355373;0.001011738;0.999998808
2024/05/03/12:34:38.593826;2256;1714764878;593496830;world;0.089608297;7.41E-05;0.001039208;0.001051176;0.00031969;0.001073467;0.999998808
2024/05/03/12:34:38.613222;2257;1714764878;612950380;world;0.090252608;4.43E-05;0.001030897;0.000916932;0.000426148;0.001145833;0.999998808
2024/05/03/12:34:38.623202;2258;1714764878;622957067;world;0.091180213;3.37E-05;0.001106649;0.001102062;0.000212055;0.000905265;0.999999046
2024/05/03/12:34:38.643242;2259;1714764878;642901879;world;0.091996364;2.17E-05;0.001110158;0.000950004;0.000335956;0.001073529;0.999998927
2024/05/03/12:34:38.663333;2260;1714764878;663061732;world;0.092875458;-6.92E-06;0.001208716;0.001068431;0.000436519;0.001129161;0.999998689
2024/05/03/12:34:38.673393;2261;1714764878;673019362;world;0.093764305;-1.87E-05;0.001260817;0.001217248;0.000276642;0.001065933;0.999998689
2024/05/03/12:34:38.693685;2262;1714764878;693406751;world;0.094692722;3.06E-05;0.001271568;0.001556202;-6.96E-06;0.001071202;0.999998212
2024/05/03/12:34:38.713690;2263;1714764878;713093959;world;0.095431149;3.53E-05;0.001245928;0.001620879;2.23E-05;0.001030489;0.999998212
2024/05/03/12:34:38.723274;2264;1714764878;723007446;world;0.096152775;9.79E-06;0.001251219;0.001563832;-1.04E-05;0.000937032;0.999998331
2024/05/03/12:34:38.733222;2265;1714764878;732924096;world;0.096572593;1.90E-05;0.001258391;0.001562792;3.02E-05;0.000862341;0.99999845
2024/05/03/12:34:38.753559;2266;1714764878;753283037;world;0.097363539;-1.48E-06;0.001263079;0.001416059;0.000237872;0.000857508;0.999998689
2024/05/03/12:34:38.783601;2267;1714764878;783310635;world;0.098286398;-3.36E-05;0.001308649;0.00136664;0.000288775;0.000985303;0.999998569
2024/05/03/12:34:38.783625;2268;1714764878;783344528;world;0.099202029;-6.33E-05;0.001258712;0.001181326;0.000516871;0.001112367;0.999998569
2024/05/03/12:34:38.803545;2269;1714764878;803159157;world;0.100019284;-2.74E-05;0.001255867;0.001230822;0.000460782;0.001146321;0.99999845
2024/05/03/12:34:38.813600;2270;1714764878;813324016;world;0.100859843;2.39E-05;0.001276572;0.001301095;0.000406834;0.001081553;0.999998569
2024/05/03/12:34:38.833378;2271;1714764878;833012487;world;0.101285785;-4.23E-06;0.001289723;0.001355421;0.000460654;0.001104945;0.99999845
2024/05/03/12:34:38.843393;2272;1714764878;843035481;world;0.101973407;-4.82E-05;0.001262852;0.001224357;0.000510083;0.001024059;0.999998569
2024/05/03/12:34:38.864043;2273;1714764878;863443633;world;0.102768809;-5.55E-05;0.001263885;0.001234142;3.29E-05;0.000914818;0.999998808
2024/05/03/12:34:38.883569;2274;1714764878;883123498;world;0.103699379;-5.70E-05;0.001311352;0.001279223;-0.000245644;0.00073034;0.999998927
2024/05/03/12:34:38.893186;2275;1714764878;892897322;world;0.104574606;-8.99E-05;0.001363846;0.001231199;-0.000298456;0.000862149;0.999998808
2024/05/03/12:34:38.913704;2276;1714764878;913169731;world;0.105395019;-8.70E-05;0.00139919;0.001166509;-0.000383092;0.00093034;0.999998808
2024/05/03/12:34:38.923443;2277;1714764878;923139782;world;0.106270291;-4.95E-05;0.001450778;0.001357558;-0.000147922;0.001054267;0.999998569
2024/05/03/12:34:38.943789;2278;1714764878;943471143;world;0.107050456;-1.85E-05;0.001435189;0.001451204;2.08E-05;0.001026389;0.99999845
2024/05/03/12:34:38.953311;2279;1714764878;953053928;world;0.107818581;-2.22E-05;0.001422249;0.00148385;-5.28E-06;0.001059653;0.999998331
2024/05/03/12:34:38.983259;2280;1714764878;982971447;world;0.108218022;-5.53E-05;0.001420391;0.001454244;-6.65E-05;0.001011275;0.99999845
2024/05/03/12:34:38.983282;2281;1714764878;983005210;world;0.109151945;-8.81E-05;0.001428809;0.001589802;-0.000182859;0.001053407;0.999998212
2024/05/03/12:34:39.013293;2282;1714764879;12988415;world;0.110024549;-0.00010488;0.001485355;0.001536815;-0.000240505;0.001105089;0.999998212
2024/05/03/12:34:39.023511;2283;1714764879;23161217;world;0.110917605;-3.74E-05;0.001447219;0.001460933;7.76E-06;0.001253466;0.999998212
2024/05/03/12:34:39.033363;2284;1714764879;33160085;world;0.111777909;-4.45E-05;0.00141652;0.00133834;-4.45E-06;0.001274985;0.999998331
2024/05/03/12:34:39.053291;2285;1714764879;52988280;world;0.112542368;-4.57E-05;0.001388441;0.001032368;-0.000168187;0.00131064;0.999998569
2024/05/03/12:34:39.063462;2286;1714764879;63206618;world;0.113146335;-8.96E-05;0.001335331;0.000853109;-3.07E-05;0.001530743;0.99999845
2024/05/03/12:34:39.083674;2287;1714764879;82947989;world;0.11409653;-9.83E-05;0.001430579;0.000835457;-9.65E-05;0.001175559;0.999998927
2024/05/03/12:34:39.103204;2288;1714764879;102901268;world;0.115017347;-0.000117211;0.001426209;0.000884708;-0.000201266;0.001202072;0.999998927
2024/05/03/12:34:39.113238;2289;1714764879;112933247;world;0.115471132;-0.00011049;0.001415983;0.001004085;-0.000364703;0.001136706;0.999998808
2024/05/03/12:34:39.133401;2290;1714764879;133085751;world;0.116390266;-9.48E-05;0.001460326;0.001228683;-0.000262769;0.001250526;0.99999845
2024/05/03/12:34:39.143452;2291;1714764879;143174236;world;0.117259488;-0.000105977;0.001523395;0.001399243;-0.000357208;0.001196445;0.999998212
2024/05/03/12:34:39.163320;2292;1714764879;163046204;world;0.118118823;-9.32E-05;0.001496968;0.001324615;-0.000240895;0.001315182;0.999998212
2024/05/03/12:34:39.193995;2293;1714764879;193038363;world;0.118954517;-5.32E-05;0.00154017;0.001318324;-0.000384539;0.001111172;0.99999845
2024/05/03/12:34:39.194002;2294;1714764879;193071615;world;0.119788781;-0.000119877;0.001562366;0.00116217;-0.00053762;0.001213063;0.99999845
2024/05/03/12:34:39.203323;2295;1714764879;202965777;world;0.120120309;-0.000152317;0.00150595;0.000789351;-0.000524839;0.001389172;0.999998569
2024/05/03/12:34:39.223395;2296;1714764879;223029950;world;0.121466421;-9.74E-05;0.001508486;0.001086653;-0.000411269;0.001313192;0.99999845
2024/05/03/12:34:39.243124;2297;1714764879;242983375;world;0.122427225;-7.87E-05;0.001580516;0.001424676;-0.000352602;0.001096736;0.999998331
2024/05/03/12:34:39.253395;2298;1714764879;253037254;world;0.122858144;-5.04E-05;0.001569231;0.001416161;-0.000290507;0.00115777;0.999998331
2024/05/03/12:34:39.263204;2299;1714764879;262930782;world;0.123737067;-3.22E-05;0.001589211;0.001523568;-0.000451699;0.001139631;0.999998093
2024/05/03/12:34:39.293785;2300;1714764879;293435576;world;0.124642588;-5.09E-05;0.001585366;0.001447366;-0.000534155;0.001223245;0.999998093
2024/05/03/12:34:39.303895;2301;1714764879;303089996;world;0.125361487;-7.00E-05;0.00153309;0.001250256;-0.000477404;0.001351996;0.999998212
2024/05/03/12:34:39.324152;2302;1714764879;323459267;world;0.126280427;-5.71E-05;0.00153447;0.001316154;-0.000394539;0.001347454;0.999998212
2024/05/03/12:34:39.333446;2303;1714764879;333177647;world;0.127065301;-6.09E-05;0.001542409;0.001352491;-0.000441206;0.001412217;0.999997973
2024/05/03/12:34:39.353473;2304;1714764879;353182229;world;0.127710864;-8.67E-05;0.001481946;0.000986762;-0.000387637;0.001721813;0.999997973
2024/05/03/12:34:39.363317;2305;1714764879;362945367;world;0.128147364;-0.000106592;0.001500983;0.000910401;-0.000480547;0.0016678;0.999998093
2024/05/03/12:34:39.373424;2306;1714764879;373189255;world;0.129166946;-8.74E-05;0.001576995;0.001382996;-0.000804187;0.001422107;0.999997735
2024/05/03/12:34:39.393209;2307;1714764879;392863198;world;0.130134195;-0.000100604;0.00167467;0.001886776;-0.00106507;0.001445089;0.999996662
2024/05/03/12:34:39.413494;2308;1714764879;413187987;world;0.130921185;-0.00011661;0.001700228;0.001943659;-0.000958217;0.001555965;0.999996424
2024/05/03/12:34:39.433521;2309;1714764879;433260019;world;0.131691664;-7.70E-05;0.001737818;0.002025743;-0.000766724;0.001596342;0.999996424
2024/05/03/12:34:39.443645;2310;1714764879;443214347;world;0.132530719;1.16E-05;0.001700799;0.00181352;-0.000707041;0.001502708;0.99999702
2024/05/03/12:34:39.454405;2311;1714764879;453992691;world;0.132937819;1.93E-05;0.001709481;0.001790361;-0.000725686;0.001539383;0.99999702
2024/05/03/12:34:39.473377;2312;1714764879;473073122;world;0.133767426;-4.67E-05;0.001719484;0.001552003;-0.000860575;0.001480297;0.999997377
2024/05/03/12:34:39.493621;2313;1714764879;493251990;world;0.13464658;-6.84E-05;0.00170887;0.001484692;-0.000825905;0.001522989;0.999997377
2024/05/03/12:34:39.503686;2314;1714764879;502906735;world;0.135382548;-4.10E-05;0.001649585;0.001210933;-0.000859597;0.001604988;0.999997616
2024/05/03/12:34:39.533232;2315;1714764879;532974378;world;0.136255383;-3.82E-06;0.001646562;0.001343577;-0.000823682;0.001743209;0.999997258
2024/05/03/12:34:39.533240;2316;1714764879;533008723;world;0.137213454;-1.38E-05;0.001706509;0.00154289;-0.000951813;0.00151656;0.999997258
2024/05/03/12:34:39.554451;2317;1714764879;554134043;world;0.13800694;-4.51E-05;0.00169012;0.00140685;-0.00095558;0.001581287;0.999997377
2024/05/03/12:34:39.573357;2318;1714764879;573065324;world;0.138714537;-3.90E-05;0.001706681;0.001343592;-0.0009599;0.001622697;0.999997377
2024/05/03/12:34:39.583461;2319;1714764879;583169137;world;0.139583543;-6.87E-06;0.001668131;0.001250288;-0.000882525;0.001717556;0.999997377
2024/05/03/12:34:39.603832;2320;1714764879;603516498;world;0.14037028;-4.84E-05;0.001643141;0.000954583;-0.001119482;0.001708882;0.999997497
2024/05/03/12:34:39.613109;2321;1714764879;612854302;world;0.140843868;-3.08E-05;0.001684241;0.001071368;-0.001331316;0.001547604;0.999997377
2024/05/03/12:34:39.643507;2322;1714764879;643074933;world;0.141720101;-1.02E-05;0.001715995;0.001095192;-0.001529545;0.001605413;0.99999702
2024/05/03/12:34:39.643533;2323;1714764879;643114527;world;0.142494962;1.64E-05;0.001698144;0.001009024;-0.001321014;0.001722115;0.999997139
2024/05/03/12:34:39.653332;2324;1714764879;653039563;world;0.143394068;1.82E-05;0.001745826;0.001130831;-0.001372654;0.001581324;0.999997139
2024/05/03/12:34:39.673343;2325;1714764879;673041095;world;0.14380227;7.12E-06;0.001752011;0.001036002;-0.001332924;0.001546244;0.999997377
2024/05/03/12:34:39.703266;2326;1714764879;702952654;world;0.144686967;8.95E-06;0.001794047;0.001105669;-0.001571142;0.001391675;0.999997258
2024/05/03/12:34:39.703284;2327;1714764879;702985917;world;0.145510182;1.60E-05;0.001802969;0.001210688;-0.00136754;0.001420818;0.999997377
2024/05/03/12:34:39.743249;2328;1714764879;742900121;world;0.146323398;7.26E-05;0.0017921;0.00131134;-0.001324803;0.001542405;0.999997139
2024/05/03/12:34:39.743278;2329;1714764879;742932693;world;0.147175893;0.000136303;0.001793384;0.001354343;-0.001132657;0.001627688;0.999997139
2024/05/03/12:34:39.753342;2330;1714764879;752965868;world;0.147958472;0.000141218;0.00178636;0.001069339;-0.000946586;0.001676099;0.999997616
2024/05/03/12:34:39.763609;2331;1714764879;763307322;world;0.14896217;0.000150024;0.001921458;0.001641716;-0.001086982;0.001498573;0.99999702
2024/05/03/12:34:39.783368;2332;1714764879;783080760;world;0.1499051;0.000125498;0.001973237;0.00218384;-0.001760927;0.00149371;0.999994993
2024/05/03/12:34:39.803166;2333;1714764879;802872821;world;0.15062128;0.00010094;0.001888604;0.001601003;-0.001254222;0.001694388;0.999996543
2024/05/03/12:34:39.823389;2334;1714764879;823083704;world;0.151372388;8.26E-05;0.001947724;0.001589927;-0.000981202;0.001708693;0.999996781
2024/05/03/12:34:39.843618;2335;1714764879;843302956;world;0.151750535;0.000103186;0.001870141;0.001430691;-0.000960581;0.001749389;0.99999702
2024/05/03/12:34:39.853666;2336;1714764879;853355530;world;0.152645141;0.000128772;0.00184172;0.001456363;-0.001051276;0.001631766;0.999997139
2024/05/03/12:34:39.863641;2337;1714764879;863394850;world;0.153662741;0.000111108;0.001764347;0.000938276;-0.001200893;0.001859303;0.999997139
2024/05/03/12:34:39.873283;2338;1714764879;872973531;world;0.154134527;0.000117941;0.00182306;0.000988961;-0.00125152;0.001823094;0.999997139
2024/05/03/12:34:39.894179;2339;1714764879;893861062;world;0.155087054;0.000127655;0.001907434;0.00126271;-0.001396773;0.001763018;0.999996662
2024/05/03/12:34:39.913347;2340;1714764879;913039099;world;0.155942947;9.54E-05;0.001975665;0.001277028;-0.0014131;0.001688081;0.999996781
2024/05/03/12:34:39.934154;2341;1714764879;933765577;world;0.156818479;8.73E-05;0.002037644;0.001633058;-0.001592196;0.001621434;0.999996066
2024/05/03/12:34:39.943305;2342;1714764879;943010391;world;0.157673314;0.000122575;0.001934638;0.001638892;-0.00163204;0.001724791;0.999995828
2024/05/03/12:34:39.963262;2343;1714764879;962988366;world;0.158056617;0.000106494;0.001903731;0.001482024;-0.001614004;0.001728722;0.999996185
2024/05/03/12:34:39.973286;2344;1714764879;973015849;world;0.158921614;0.000142795;0.001873315;0.00156201;-0.001620247;0.001641674;0.999996185
2024/05/03/12:34:39.983472;2345;1714764879;983184932;world;0.15985398;0.000155007;0.001956688;0.001897149;-0.001587791;0.001501415;0.999995828
2024/05/03/12:34:40.013462;2346;1714764880;13058742;world;0.160751969;0.000135006;0.002066033;0.002103995;-0.001787352;0.00152904;0.999994993
2024/05/03/12:34:40.023409;2347;1714764880;23156700;world;0.161565974;0.000127321;0.002093018;0.002040077;-0.001481055;0.001732917;0.999995351
2024/05/03/12:34:40.033204;2348;1714764880;32934097;world;0.162336975;0.000166982;0.0020464;0.001791013;-0.001178463;0.001952188;0.999995828
2024/05/03/12:34:40.053239;2349;1714764880;52963469;world;0.162993893;0.000208765;0.002011613;0.001537879;-0.000910773;0.002074121;0.999996305
2024/05/03/12:34:40.073832;2350;1714764880;73209398;world;0.163830161;0.000177838;0.002095438;0.001793202;-0.001030907;0.001826819;0.999996185
2024/05/03/12:34:40.083238;2351;1714764880;82973373;world;0.164604813;0.000167672;0.001927644;0.000982634;-0.001072454;0.001763798;0.999997377
2024/05/03/12:34:40.113402;2352;1714764880;113110518;world;0.165376082;0.000153521;0.001906483;0.000819842;-0.001199396;0.001953493;0.99999702
2024/05/03/12:34:40.113433;2353;1714764880;113144693;world;0.165943757;0.000172378;0.001953019;0.001067044;-0.001470142;0.001812717;0.999996781
2024/05/03/12:34:40.153871;2354;1714764880;153408014;world;0.167363107;0.000152578;0.002066459;0.00124375;-0.001479499;0.001831446;0.999996543
2024/05/03/12:34:40.153899;2355;1714764880;153451185;world;0.167803913;0.000160038;0.002133854;0.001398639;-0.00148143;0.001829633;0.999996305
2024/05/03/12:34:40.163932;2356;1714764880;163039479;world;0.168528423;0.000155411;0.002223609;0.001648947;-0.001362341;0.001999487;0.999995708
2024/05/03/12:34:40.173222;2357;1714764880;172880608;world;0.169302419;0.00020942;0.002244567;0.001911204;-0.001344308;0.001995607;0.999995351
2024/05/03/12:34:40.195910;2358;1714764880;193294564;world;0.169707924;0.000214901;0.002256152;0.002080712;-0.00137166;0.001883039;0.999995112
2024/05/03/12:34:40.213497;2359;1714764880;213217498;world;0.171058416;0.000225823;0.002218955;0.002389312;-0.00164341;0.001913782;0.99999404
2024/05/03/12:34:40.223633;2360;1714764880;223303467;world;0.171534956;0.000224186;0.002191386;0.002439078;-0.00178986;0.001940707;0.999993563
2024/05/03/12:34:40.253292;2361;1714764880;252963642;world;0.172484562;0.000207889;0.002220365;0.002301273;-0.00175462;0.001972337;0.99999392
2024/05/03/12:34:40.253316;2362;1714764880;253017272;world;0.173337787;0.000228073;0.002127073;0.001795537;-0.00113031;0.002217598;0.999995351
2024/05/03/12:34:40.273980;2363;1714764880;273672735;world;0.174143404;0.000236328;0.002160378;0.00162516;-0.001046211;0.002316466;0.99999547
2024/05/03/12:34:40.283584;2364;1714764880;283114922;world;0.174927205;0.000227497;0.002169186;0.001465843;-0.000994584;0.002370743;0.999995708
2024/05/03/12:34:40.304085;2365;1714764880;303176409;world;0.175738081;0.000168141;0.002263385;0.001625809;-0.000860975;0.00211396;0.999996066
2024/05/03/12:34:40.313428;2366;1714764880;313130933;world;0.176510394;0.00018556;0.002222337;0.001412392;-0.000871421;0.001964293;0.999996781
2024/05/03/12:34:40.333387;2367;1714764880;333089392;world;0.17692557;0.000188208;0.002205248;0.001558542;-0.001138625;0.002001844;0.999996185
2024/05/03/12:34:40.353201;2368;1714764880;352953446;world;0.177759439;0.00017833;0.002187903;0.001308231;-0.001434866;0.00199676;0.999996185
2024/05/03/12:34:40.363945;2369;1714764880;363839530;world;0.178636894;0.000190469;0.002210103;0.001356597;-0.001800313;0.001900269;0.999995708
2024/05/03/12:34:40.373600;2370;1714764880;373316624;world;0.179497063;0.00019544;0.002253376;0.000965851;-0.00142688;0.001942914;0.999996662
2024/05/03/12:34:40.393500;2371;1714764880;393100057;world;0.180378169;0.000164361;0.002385041;0.001354185;-0.001292029;0.001995846;0.999996305
2024/05/03/12:34:40.423161;2372;1714764880;422897611;world;0.181317672;0.000221457;0.002247293;0.00128747;-0.001608661;0.002056081;0.999995828
2024/05/03/12:34:40.423166;2373;1714764880;422932767;world;0.182148606;0.00018366;0.002173622;0.001381945;-0.00184926;0.002069097;0.999995232
2024/05/03/12:34:40.443437;2374;1714764880;443114156;world;0.182510376;0.00016372;0.002132233;0.001375317;-0.001942737;0.002144245;0.999994874
2024/05/03/12:34:40.453685;2375;1714764880;453334676;world;0.183405057;0.000190116;0.00215244;0.001811075;-0.001741193;0.002061485;0.999994755
2024/05/03/12:34:40.473689;2376;1714764880;473401703;world;0.184284881;0.000205273;0.002376255;0.002817364;-0.00192455;0.00209254;0.999992013
2024/05/03/12:34:40.493309;2377;1714764880;493113836;world;0.18512632;0.000220248;0.002357891;0.002420684;-0.001479662;0.002168545;0.999993682
2024/05/03/12:34:40.503790;2378;1714764880;503478656;world;0.185989723;0.000203661;0.002345624;0.002134759;-0.001309978;0.002274492;0.999994278
2024/05/03/12:34:40.523413;2379;1714764880;523123415;world;0.186799601;0.000183405;0.002345521;0.001955201;-0.0013642;0.002309618;0.999994516
2024/05/03/12:34:40.533457;2380;1714764880;533138681;world;0.187593043;0.000222499;0.002284896;0.001414126;-0.001140543;0.002358189;0.999995589
2024/05/03/12:34:40.563310;2381;1714764880;563046768;world;0.188358679;0.000240095;0.002233241;0.001245273;-0.001268261;0.002432169;0.99999547
2024/05/03/12:34:40.563320;2382;1714764880;563082044;world;0.189115852;0.000186746;0.00215108;0.001019516;-0.001539679;0.002423109;0.999995351
2024/05/03/12:34:40.583788;2383;1714764880;583489726;world;0.189501271;0.000202267;0.002117049;0.000825252;-0.001596571;0.002397434;0.999995589
2024/05/03/12:34:40.593629;2384;1714764880;593224436;world;0.190344155;0.000220634;0.002164942;0.000785192;-0.001623373;0.002347781;0.999995589
2024/05/03/12:34:40.623982;2385;1714764880;623339400;world;0.19116956;0.000229266;0.002213059;0.000970723;-0.001342962;0.002323556;0.999995947
2024/05/03/12:34:40.624012;2386;1714764880;623373484;world;0.192123845;0.000273206;0.002252805;0.001285614;-0.001624772;0.002266826;0.999995351
2024/05/03/12:34:40.663564;2387;1714764880;663130603;world;0.192993149;0.000216174;0.0023346;0.001484843;-0.002057956;0.002157021;0.999994516
2024/05/03/12:34:40.663597;2388;1714764880;663329526;world;0.193884254;0.00031359;0.002366257;0.001889541;-0.00194593;0.002269877;0.999993801
2024/05/03/12:34:40.683398;2389;1714764880;683004442;world;0.194826707;0.000350292;0.002394168;0.00223961;-0.001524995;0.00224995;0.999993801
2024/05/03/12:34:40.693434;2390;1714764880;693113797;world;0.195610106;0.000335523;0.002448191;0.002438394;-0.00172929;0.002180468;0.999993205
2024/05/03/12:34:40.713604;2391;1714764880;713285844;world;0.196418494;0.000360983;0.002422865;0.002329058;-0.001656787;0.002170335;0.999993563
2024/05/03/12:34:40.723557;2392;1714764880;723259117;world;0.197307438;0.00035123;0.002421056;0.002285843;-0.001401068;0.002208353;0.99999404
2024/05/03/12:34:40.733219;2393;1714764880;732928373;world;0.197738156;0.00035203;0.002415282;0.00225897;-0.001360211;0.002200312;0.999994159
2024/05/03/12:34:40.753390;2394;1714764880;753022540;world;0.198614314;0.000396447;0.00239405;0.002134718;-0.001508196;0.002178143;0.999994278
2024/05/03/12:34:40.763307;2395;1714764880;762926303;world;0.199490979;0.000380252;0.002486911;0.002475846;-0.001686622;0.002121815;0.999993324
2024/05/03/12:34:40.783756;2396;1714764880;783439825;world;0.200245678;0.000409998;0.002376744;0.001804439;-0.00145305;0.002293675;0.999994755
2024/05/03/12:34:40.803334;2397;1714764880;803004655;world;0.20065026;0.000427712;0.002364907;0.00172158;-0.001494827;0.002352321;0.999994636
2024/05/03/12:34:40.833580;2398;1714764880;833242833;world;0.201447099;0.000453427;0.002398608;0.001868104;-0.001583085;0.002340764;0.999994278
2024/05/03/12:34:40.833600;2399;1714764880;833280353;world;0.202769145;0.000426392;0.002441283;0.001914337;-0.001618407;0.002163132;0.999994516
2024/05/03/12:34:40.853430;2400;1714764880;853120251;world;0.203241855;0.000417762;0.002444775;0.001975;-0.001737913;0.002171174;0.999994159
2024/05/03/12:34:40.873385;2401;1714764880;873066057;world;0.203961581;0.00034046;0.002318831;0.000929835;-0.001973365;0.002140604;0.999995351
2024/05/03/12:34:40.883941;2402;1714764880;882846502;world;0.204844177;0.000374518;0.002335814;0.001099865;-0.002037564;0.002145716;0.999994993
2024/05/03/12:34:40.893311;2403;1714764880;893007224;world;0.20574379;0.000409468;0.002307556;0.001234135;-0.001864351;0.002265368;0.999994993
2024/05/03/12:34:40.903401;2404;1714764880;903115536;world;0.206628427;0.000465837;0.002290381;0.001451108;-0.001776007;0.002328431;0.999994636
2024/05/03/12:34:40.935719;2405;1714764880;935385587;world;0.207504436;0.000510014;0.002330432;0.001508903;-0.001730214;0.00240542;0.999994516
2024/05/03/12:34:40.943686;2406;1714764880;943436520;world;0.208351403;0.000527138;0.002351474;0.001541284;-0.001557334;0.002403518;0.999994755
2024/05/03/12:34:40.953345;2407;1714764880;952996667;world;0.208747596;0.000509875;0.002369135;0.001284974;-0.00129585;0.002359021;0.999995589
2024/05/03/12:34:40.973853;2408;1714764880;973474834;world;0.209650636;0.000458674;0.002568466;0.002116318;-0.001355175;0.002464095;0.999993801
2024/05/03/12:34:40.983353;2409;1714764880;983093121;world;0.210351393;0.000426861;0.00259603;0.001628178;-0.000985591;0.002321123;0.99999547
2024/05/03/12:34:41.003514;2410;1714764881;2871426;world;0.211195976;0.000458265;0.002548011;0.00171009;-0.001132715;0.002338792;0.999995232
2024/05/03/12:34:41.033363;2411;1714764881;32972023;world;0.212056637;0.000442022;0.002547471;0.001670344;-0.001145313;0.002347146;0.999995232
2024/05/03/12:34:41.033477;2412;1714764881;33006087;world;0.212859139;0.000424423;0.002547043;0.001717813;-0.001331505;0.002335509;0.999994993
2024/05/03/12:34:41.073554;2413;1714764881;72969532;world;0.213714495;0.000435495;0.002581863;0.00186566;-0.001557698;0.002352157;0.999994278
2024/05/03/12:34:41.073582;2414;1714764881;73004087;world;0.214580014;0.000399963;0.00264451;0.002041771;-0.001853574;0.002407358;0.999993324
2024/05/03/12:34:41.083143;2415;1714764881;82847804;world;0.215475723;0.000382075;0.002764549;0.00244638;-0.001962217;0.002412425;0.999992251
2024/05/03/12:34:41.103424;2416;1714764881;103130749;world;0.216294065;0.000415205;0.002788222;0.002789841;-0.002100911;0.002356682;0.999991179
2024/05/03/12:34:41.113469;2417;1714764881;113032678;world;0.216672689;0.000430209;0.002795683;0.002918054;-0.002193743;0.002358944;0.999990582
2024/05/03/12:34:41.133284;2418;1714764881;132967123;world;0.217502356;0.00042388;0.002816406;0.002896721;-0.002019469;0.002428017;0.999990821
2024/05/03/12:34:41.143626;2419;1714764881;143323923;world;0.21842052;0.000408052;0.002774169;0.002531719;-0.001819969;0.002465924;0.999992132
2024/05/03/12:34:41.173362;2420;1714764881;173056568;world;0.219327599;0.000422258;0.002678106;0.002285139;-0.001794582;0.002403025;0.999992967
2024/05/03/12:34:41.173390;2421;1714764881;173090301;world;0.220207885;0.000418333;0.002674052;0.002322266;-0.001869389;0.002500452;0.99999249
2024/05/03/12:34:41.193349;2422;1714764881;192988818;world;0.220703617;0.000454849;0.002646745;0.002177344;-0.001891963;0.002575885;0.999992609
2024/05/03/12:34:41.203746;2423;1714764881;203352145;world;0.221508339;0.00047266;0.002632021;0.001941377;-0.001641568;0.00269458;0.999993205
2024/05/03/12:34:41.223265;2424;1714764881;222959149;world;0.222277924;0.000490957;0.002579569;0.001467942;-0.001425965;0.002799422;0.99999404
2024/05/03/12:34:41.233429;2425;1714764881;233117437;world;0.222956926;0.000470551;0.00255696;0.001066218;-0.001344827;0.002826918;0.999994516
2024/05/03/12:34:41.253549;2426;1714764881;253248871;world;0.223748609;0.000442657;0.002591563;0.000910312;-0.001519564;0.002788324;0.999994516
2024/05/03/12:34:41.273348;2427;1714764881;273035649;world;0.22463873;0.000446751;0.002633304;0.001216794;-0.00149938;0.002788586;0.999994278
2024/05/03/12:34:41.293601;2428;1714764881;293273614;world;0.225538731;0.000450916;0.002702773;0.001608665;-0.001576224;0.002738573;0.999993801
2024/05/03/12:34:41.293624;2429;1714764881;293306686;world;0.225938663;0.000439626;0.002697548;0.001505412;-0.001514453;0.002719512;0.99999404
2024/05/03/12:34:41.313651;2430;1714764881;313343543;world;0.227244303;0.00044696;0.002599291;0.001409926;-0.001236777;0.002891374;0.99999404
2024/05/03/12:34:41.343230;2431;1714764881;342966612;world;0.22759594;0.000463615;0.002545195;0.001018218;-0.001359531;0.002985554;0.999994159
2024/05/03/12:34:41.353208;2432;1714764881;352910696;world;0.228475273;0.000452932;0.002622659;0.001475681;-0.001986667;0.002848104;0.999992967
2024/05/03/12:34:41.373707;2433;1714764881;373325680;world;0.229297549;0.000418165;0.00261642;0.001416369;-0.002277319;0.002845759;0.999992371
2024/05/03/12:34:41.383625;2434;1714764881;383260321;world;0.230190232;0.000411221;0.002738308;0.001740782;-0.002239238;0.002928134;0.999991775
2024/05/03/12:34:41.393678;2435;1714764881;393301453;world;0.231137723;0.000453983;0.00284577;0.002263824;-0.002164659;0.00290685;0.99999094
2024/05/03/12:34:41.413466;2436;1714764881;413147956;world;0.231972009;0.000439991;0.002897037;0.002439375;-0.002198552;0.002925646;0.999990344
2024/05/03/12:34:41.424086;2437;1714764881;423367778;world;0.232363686;0.000453299;0.002906871;0.002349641;-0.002093526;0.002934607;0.999990821
2024/05/03/12:34:41.443370;2438;1714764881;443069315;world;0.233122259;0.000484545;0.002904705;0.00217434;-0.00160745;0.002881705;0.999992251
2024/05/03/12:34:41.504177;2439;1714764881;503322767;world;0.233936474;0.000496466;0.002870303;0.002184351;-0.001551842;0.002978488;0.999992013
2024/05/03/12:34:41.504185;2442;1714764881;503373783;world;0.236472696;0.000519551;0.002881763;0.001900587;-0.001605072;0.003105844;0.999992132
2024/05/03/12:34:41.523939;2443;1714764881;523539491;world;0.237287864;0.000459881;0.002882348;0.001728694;-0.001627375;0.003063245;0.99999249
2024/05/03/12:34:41.543348;2444;1714764881;542981451;world;0.238167942;0.000456052;0.002955607;0.002057184;-0.001723433;0.003039983;0.999991775
2024/05/03/12:34:41.553270;2445;1714764881;552993322;world;0.238586724;0.00045385;0.002968977;0.002058863;-0.001701453;0.002995071;0.999992013
2024/05/03/12:34:41.584127;2446;1714764881;583691913;world;0.239329591;0.000476871;0.002891735;0.001567368;-0.001551082;0.003053224;0.999992967
2024/05/03/12:34:41.584155;2447;1714764881;583834781;world;0.240570813;0.000456236;0.002813878;0.00121477;-0.001865342;0.003051803;0.999992847
2024/05/03/12:34:41.593577;2448;1714764881;593326185;world;0.241069928;0.000475401;0.002851813;0.001541501;-0.00209154;0.003137454;0.999991775
2024/05/03/12:34:41.613348;2449;1714764881;613060665;world;0.241877139;0.000454387;0.002866195;0.001447188;-0.002043529;0.003068916;0.999992132
2024/05/03/12:34:41.623522;2450;1714764881;623265234;world;0.242668822;0.000463947;0.002820388;0.001078407;-0.00168867;0.003220443;0.999992847
2024/05/03/12:34:41.643980;2451;1714764881;643115112;world;0.243541032;0.000481293;0.002904525;0.001254534;-0.001610568;0.003111878;0.999993086
2024/05/03/12:34:41.663517;2452;1714764881;663267654;world;0.244373515;0.000495654;0.002895623;0.001065762;-0.001458333;0.003152322;0.999993443
2024/05/03/12:34:41.684103;2453;1714764881;683129286;world;0.24518843;0.000478787;0.002837256;0.001115248;-0.001538346;0.003266371;0.999992847
2024/05/03/12:34:41.693410;2454;1714764881;693124587;world;0.24603197;0.000462213;0.002892933;0.001256829;-0.001694752;0.003170327;0.999992728
2024/05/03/12:34:41.704070;2455;1714764881;703659502;world;0.246843979;0.000482036;0.0029188;0.001183458;-0.001659974;0.003246332;0.999992728
2024/05/03/12:34:41.723640;2456;1714764881;723162374;world;0.247752145;0.000493509;0.002903736;0.001496278;-0.001466072;0.003332997;0.999992251
2024/05/03/12:34:41.733573;2457;1714764881;733285936;world;0.248263359;0.000508278;0.00303334;0.001919345;-0.001442248;0.003210725;0.999992013
2024/05/03/12:34:41.753420;2458;1714764881;753119419;world;0.249069959;0.00050014;0.003149532;0.001935764;-0.001686517;0.003032893;0.999992132
2024/05/03/12:34:41.773321;2459;1714764881;773026333;world;0.249912605;0.000500885;0.003188428;0.001871092;-0.001625111;0.003070894;0.999992251
2024/05/03/12:34:41.793378;2460;1714764881;792932505;world;0.250729471;0.000464404;0.00321662;0.001785809;-0.001662148;0.003063426;0.999992371
2024/05/03/12:34:41.803125;2461;1714764881;802884521;world;0.25114584;0.0004678;0.003164649;0.001642288;-0.001639144;0.003124162;0.99999249
2024/05/03/12:34:41.814725;2462;1714764881;813983589;world;0.252012908;0.000479844;0.003171523;0.001768019;-0.001664046;0.003074004;0.999992371
2024/05/03/12:34:41.833439;2463;1714764881;833094977;world;0.252805054;0.00049965;0.003020777;0.001527952;-0.00165431;0.003333221;0.999991894
