time;.header.seq;.header.stamp.secs;.header.stamp.nsecs;.header.frame_id;.pose.position.x;.pose.position.y;.pose.position.z;.pose.orientation.x;.pose.orientation.y;.pose.orientation.z;.pose.orientation.w
2024/05/03/12:41:20.283372;23314;1714765280;282991046;world;-1.22E-05;-6.58E-06;-1.25E-05;-3.83E-05;-6.12E-06;3.00E-06;1
2024/05/03/12:41:20.283404;23315;1714765280;283041299;world;-3.42E-06;-8.42E-06;-1.66E-05;-6.54E-05;1.73E-05;-1.72E-06;1
2024/05/03/12:41:20.373456;23316;1714765280;373104515;world;-3.29E-05;-1.70E-05;-7.88E-06;-8.77E-05;3.51E-06;1.21E-05;1
2024/05/03/12:41:20.373502;23320;1714765280;373171089;world;-1.30E-06;-4.34E-06;-1.27E-05;6.21E-06;1.50E-05;1.26E-05;1
2024/05/03/12:41:20.393350;23321;1714765280;392983066;world;-1.78E-05;-9.35E-06;-1.51E-05;-3.00E-05;1.08E-05;-2.63E-06;1
2024/05/03/12:41:20.423600;23322;1714765280;423243136;world;-1.82E-05;-2.42E-05;1.41E-06;-8.90E-05;-2.72E-05;-9.03E-06;1
2024/05/03/12:41:20.423625;23323;1714765280;423288701;world;-6.02E-06;-1.36E-05;-8.38E-06;-1.43E-05;2.05E-05;-2.51E-06;1
2024/05/03/12:41:20.433662;23324;1714765280;433293416;world;-2.25E-05;-9.97E-06;-2.09E-05;-7.55E-05;2.01E-05;8.67E-06;1
2024/05/03/12:41:20.443431;23325;1714765280;443025011;world;-1.26E-05;-4.81E-06;-1.43E-05;-2.63E-05;-1.76E-05;8.95E-06;1
2024/05/03/12:41:20.463667;23326;1714765280;463059712;world;-1.99E-05;-1.24E-05;-7.37E-06;-4.92E-05;7.65E-06;6.03E-06;1
2024/05/03/12:41:20.494076;23327;1714765280;493290452;world;-4.68E-06;-6.47E-06;-4.71E-06;3.59E-06;-1.65E-05;-1.37E-05;1
2024/05/03/12:41:20.494112;23328;1714765280;493326459;world;-1.23E-05;-1.79E-05;-1.29E-05;5.19E-05;-3.10E-05;-4.23E-05;1
2024/05/03/12:41:20.523576;23329;1714765280;523028605;world;-5.78E-06;4.97E-06;-1.59E-05;4.70E-05;2.12E-06;-1.63E-05;1
2024/05/03/12:41:20.523603;23330;1714765280;523071404;world;-9.47E-06;-7.26E-06;-1.43E-05;-3.49E-05;-1.22E-06;4.24E-06;1
2024/05/03/12:41:20.543888;23331;1714765280;543259090;world;-2.40E-05;-1.70E-05;-2.97E-06;-7.87E-06;2.19E-05;2.16E-06;1
2024/05/03/12:41:20.553178;23332;1714765280;552883384;world;-5.78E-06;-7.31E-06;-4.33E-06;-2.55E-05;-1.94E-06;-5.63E-06;1
2024/05/03/12:41:20.573511;23333;1714765280;573188528;world;-1.62E-05;-2.43E-06;-1.23E-05;1.14E-05;-3.46E-06;3.76E-06;1
2024/05/03/12:41:20.593268;23334;1714765280;592937668;world;-1.31E-05;-1.54E-05;-7.27E-07;-9.20E-06;3.86E-06;-2.14E-05;1
2024/05/03/12:41:20.603718;23335;1714765280;603357443;world;-3.51E-06;-5.71E-07;2.44E-06;5.91E-06;-2.29E-05;1.41E-06;1
2024/05/03/12:41:20.633580;23336;1714765280;633196623;world;-1.07E-05;-2.39E-07;-1.12E-05;-2.77E-05;-8.85E-07;5.81E-06;1
2024/05/03/12:41:20.633628;23337;1714765280;633238571;world;-2.35E-05;-6.49E-06;-1.51E-05;-2.99E-05;-2.46E-06;1.14E-05;1
2024/05/03/12:41:20.653343;23338;1714765280;653002228;world;-1.54E-05;-3.91E-07;-1.22E-05;-4.51E-05;-2.91E-06;6.42E-06;1
2024/05/03/12:41:20.673471;23339;1714765280;673133038;world;-9.34E-06;-8.36E-07;-5.72E-06;1.12E-05;-4.53E-06;5.25E-06;1
2024/05/03/12:41:20.683589;23340;1714765280;683172184;world;-3.04E-05;-1.76E-05;-1.91E-05;-9.92E-06;2.72E-05;2.61E-05;1
2024/05/03/12:41:20.693278;23341;1714765280;692949253;world;-2.88E-05;-1.01E-05;-3.24E-05;-4.94E-05;2.89E-05;1.29E-05;1
2024/05/03/12:41:20.733469;23342;1714765280;733029124;world;-5.30E-06;-3.25E-06;-2.22E-05;-4.31E-05;2.45E-05;7.94E-07;1
2024/05/03/12:41:20.733577;23343;1714765280;733065411;world;-2.17E-05;-1.92E-05;1.97E-06;-1.87E-05;-8.32E-05;-5.01E-05;1
2024/05/03/12:41:20.743707;23344;1714765280;743330498;world;-1.42E-05;-1.34E-05;-1.10E-05;1.04E-05;-2.50E-05;-3.55E-06;1
2024/05/03/12:41:20.763690;23345;1714765280;763024245;world;-2.23E-05;-1.38E-05;-3.36E-05;-2.06E-05;-1.04E-05;1.51E-05;1
2024/05/03/12:41:20.773574;23346;1714765280;773173206;world;-2.79E-05;-1.60E-05;-2.15E-05;-3.21E-05;-2.50E-05;-1.74E-05;1
2024/05/03/12:41:20.803619;23347;1714765280;803284964;world;-2.66E-05;-7.04E-06;-1.41E-05;-4.58E-05;2.16E-05;-4.78E-06;1
2024/05/03/12:41:20.813290;23348;1714765280;812950976;world;-1.61E-05;-2.55E-07;-1.68E-05;3.93E-05;-4.94E-06;2.66E-06;1
2024/05/03/12:41:20.833714;23349;1714765280;833404938;world;-2.23E-05;-6.48E-07;-2.18E-05;-2.74E-06;-1.86E-05;-4.31E-06;1
2024/05/03/12:41:20.843385;23350;1714765280;843062743;world;-2.81E-05;-1.23E-05;-2.77E-05;1.57E-06;2.62E-06;1.24E-05;1
2024/05/03/12:41:20.853310;23351;1714765280;853004508;world;-2.84E-05;-7.65E-06;-2.03E-05;-2.89E-05;-5.71E-06;-1.44E-05;1
2024/05/03/12:41:20.873783;23352;1714765280;873442305;world;-3.20E-05;-5.23E-06;-2.14E-05;-2.24E-05;2.05E-05;2.83E-05;1
2024/05/03/12:41:20.883682;23353;1714765280;883240006;world;-3.91E-05;-1.75E-05;-2.19E-05;-0.000146742;-4.38E-05;2.63E-06;1
2024/05/03/12:41:20.903901;23354;1714765280;903389370;world;-2.14E-05;1.64E-06;-1.87E-05;1.90E-05;-3.18E-05;-3.31E-06;1
2024/05/03/12:41:20.933560;23355;1714765280;933003903;world;-2.76E-05;1.78E-06;-2.38E-06;-3.11E-05;-3.66E-05;-5.59E-06;1
2024/05/03/12:41:20.933597;23356;1714765280;933055259;world;-3.43E-05;2.92E-06;-8.35E-06;-1.01E-05;1.53E-06;6.36E-06;1
2024/05/03/12:41:20.943905;23357;1714765280;943405253;world;-2.74E-05;5.08E-06;-2.24E-05;-4.87E-06;1.56E-05;2.19E-05;1
2024/05/03/12:41:20.963423;23358;1714765280;963150381;world;-1.07E-05;4.70E-06;-2.58E-05;-3.04E-05;1.58E-05;2.23E-05;1
2024/05/03/12:41:20.973781;23359;1714765280;973173100;world;-2.94E-05;5.90E-06;3.63E-06;1.59E-05;-2.07E-05;-2.49E-05;1
2024/05/03/12:41:21.003297;23360;1714765281;2958762;world;-2.39E-05;-1.30E-06;2.87E-06;-6.77E-06;-2.84E-05;7.42E-06;1
2024/05/03/12:41:21.013277;23361;1714765281;12966320;world;-3.87E-05;-2.00E-06;-2.10E-05;-0.000115314;1.85E-05;2.58E-05;1
2024/05/03/12:41:21.034217;23362;1714765281;33120253;world;-1.86E-05;-6.10E-06;-1.21E-05;-2.80E-05;1.49E-05;1.45E-05;1
2024/05/03/12:41:21.043494;23363;1714765281;43167716;world;-6.57E-06;4.07E-09;-7.70E-06;1.53E-05;-4.20E-06;1.10E-05;1
2024/05/03/12:41:21.053842;23364;1714765281;53481734;world;-1.82E-05;3.60E-06;-9.31E-06;-4.38E-05;-1.56E-06;-7.73E-07;1
2024/05/03/12:41:21.073306;23365;1714765281;72965932;world;-1.58E-05;-1.20E-06;-9.95E-06;-4.00E-05;-2.24E-05;-1.07E-05;1
2024/05/03/12:41:21.093240;23366;1714765281;92896970;world;-1.89E-05;-1.02E-05;-1.41E-05;-4.02E-05;1.36E-05;-1.98E-05;1
2024/05/03/12:41:21.103550;23367;1714765281;103269959;world;-2.44E-05;2.00E-06;-9.95E-06;-5.80E-05;-1.94E-05;-3.98E-06;1
2024/05/03/12:41:21.114322;23368;1714765281;114024665;world;-2.44E-05;-7.73E-06;-3.25E-06;-5.90E-05;1.37E-06;-1.72E-05;1
2024/05/03/12:41:21.143569;23369;1714765281;143212136;world;-8.16E-06;-4.72E-06;-4.43E-06;-7.43E-05;-5.70E-05;8.86E-06;1
2024/05/03/12:41:21.153406;23370;1714765281;153024253;world;-3.07E-06;6.01E-06;-1.10E-05;5.96E-05;-4.64E-05;-1.69E-05;1
2024/05/03/12:41:21.173408;23371;1714765281;173137548;world;-7.57E-06;9.00E-07;-1.25E-05;1.38E-06;3.47E-05;2.86E-05;1
2024/05/03/12:41:21.183702;23372;1714765281;183274053;world;-1.85E-05;2.56E-06;5.77E-08;3.15E-05;6.04E-06;-1.03E-05;1
2024/05/03/12:41:21.203506;23373;1714765281;202974526;world;-9.95E-06;-1.02E-05;-1.36E-05;-3.17E-05;-1.04E-05;-5.60E-06;1
2024/05/03/12:41:21.213200;23374;1714765281;212990591;world;-1.15E-05;-8.64E-06;-7.24E-06;-1.60E-06;-1.31E-05;-3.21E-05;1
2024/05/03/12:41:21.244005;23375;1714765281;243462131;world;-9.61E-07;-9.59E-06;-9.80E-06;-4.48E-05;-3.52E-05;3.38E-06;1
2024/05/03/12:41:21.244036;23376;1714765281;243496414;world;2.47E-06;-9.65E-06;7.23E-06;4.53E-05;-4.25E-05;9.58E-06;1
2024/05/03/12:41:21.263520;23377;1714765281;262914240;world;-1.45E-05;2.33E-06;-1.19E-05;1.96E-06;1.62E-05;1.71E-05;1
2024/05/03/12:41:21.273815;23378;1714765281;273452735;world;-1.49E-05;-1.10E-06;-1.81E-05;-5.98E-06;4.69E-06;1.29E-05;1
2024/05/03/12:41:21.293876;23379;1714765281;292914121;world;-1.72E-05;-5.38E-06;-2.01E-05;-4.51E-05;1.52E-06;1.37E-05;1
2024/05/03/12:41:21.313453;23380;1714765281;313106016;world;-1.42E-05;-3.59E-06;-5.34E-06;-3.88E-06;-4.16E-05;-1.44E-05;1
2024/05/03/12:41:21.343672;23381;1714765281;343020007;world;-2.21E-05;-7.03E-06;-5.59E-06;-5.69E-06;-1.12E-05;4.81E-06;1
2024/05/03/12:41:21.343702;23382;1714765281;343056775;world;-4.80E-06;-8.47E-06;-1.05E-05;-5.09E-05;-1.94E-05;-8.18E-06;1
2024/05/03/12:41:21.353403;23383;1714765281;353098717;world;-1.78E-05;-3.60E-06;-9.69E-06;-1.56E-06;-2.87E-05;6.60E-06;1
2024/05/03/12:41:21.363463;23384;1714765281;363168892;world;-1.42E-05;-2.82E-06;-6.44E-06;1.24E-05;-1.36E-05;1.00E-05;1
2024/05/03/12:41:21.383753;23385;1714765281;383395971;world;-1.02E-05;-1.78E-05;-3.47E-06;4.19E-06;9.49E-06;4.11E-06;1
2024/05/03/12:41:21.403672;23386;1714765281;403268062;world;-3.27E-06;-8.22E-06;-1.57E-05;-4.16E-05;7.05E-06;-2.85E-06;1
2024/05/03/12:41:21.413403;23387;1714765281;413091276;world;-2.11E-05;-5.23E-06;-1.67E-05;-6.04E-05;3.76E-05;1.09E-05;1
2024/05/03/12:41:21.443502;23388;1714765281;443101082;world;-8.94E-06;-3.33E-06;-8.72E-06;3.89E-05;-9.36E-06;1.25E-05;1
2024/05/03/12:41:21.453327;23389;1714765281;453047591;world;-5.40E-06;-6.61E-06;-9.14E-06;7.06E-06;3.01E-06;2.96E-05;1
2024/05/03/12:41:21.463833;23390;1714765281;463495959;world;-6.69E-06;-3.99E-06;-1.44E-05;1.86E-05;8.65E-06;2.38E-05;1
2024/05/03/12:41:21.473465;23391;1714765281;473134680;world;-4.64E-06;-1.79E-06;-1.78E-05;-2.74E-06;3.88E-06;1.86E-05;1
2024/05/03/12:41:21.493343;23392;1714765281;493044386;world;-2.90E-05;-1.39E-05;-1.02E-05;-5.34E-05;3.92E-05;2.38E-05;1
2024/05/03/12:41:21.513312;23393;1714765281;513015194;world;-1.49E-05;-2.32E-06;-3.72E-06;1.95E-05;-3.95E-05;1.60E-05;1
2024/05/03/12:41:21.523794;23394;1714765281;523451234;world;-7.86E-06;-3.40E-06;2.02E-06;-5.11E-06;-1.86E-05;1.79E-05;1
2024/05/03/12:41:21.553622;23395;1714765281;553300205;world;6.85E-07;-2.61E-06;-1.38E-05;1.03E-05;-4.01E-06;-2.70E-06;1
2024/05/03/12:41:21.553648;23396;1714765281;553332064;world;-7.26E-07;3.96E-09;-4.36E-06;4.36E-05;1.40E-06;-7.40E-07;1
2024/05/03/12:41:21.573444;23397;1714765281;573115705;world;-1.77E-05;-1.05E-05;3.75E-06;-4.58E-06;-2.39E-05;-3.25E-06;1
2024/05/03/12:41:21.593748;23398;1714765281;593423705;world;1.56E-06;-6.66E-07;-9.54E-06;-1.06E-05;-2.78E-06;-1.90E-05;1
2024/05/03/12:41:21.603908;23399;1714765281;603224138;world;4.68E-06;-5.27E-07;-7.87E-06;-1.26E-05;-3.43E-05;-1.70E-05;1
2024/05/03/12:41:21.613860;23400;1714765281;613629475;world;-8.79E-06;-6.83E-06;-1.50E-05;-1.90E-05;-1.18E-05;1.88E-05;1
2024/05/03/12:41:21.663321;23401;1714765281;662948319;world;-2.04E-05;-3.55E-06;-3.70E-06;-2.74E-05;-1.92E-05;2.37E-06;1
2024/05/03/12:41:21.663354;23402;1714765281;662988984;world;-9.75E-06;-1.37E-05;-8.64E-06;-3.02E-05;-1.14E-05;-5.19E-06;1
2024/05/03/12:41:21.673288;23403;1714765281;672967287;world;-2.81E-06;-9.02E-06;-9.68E-06;1.48E-06;-8.72E-06;-6.87E-06;1
2024/05/03/12:41:21.683357;23404;1714765281;683003158;world;-2.74E-05;-6.77E-06;-1.92E-05;-8.86E-05;5.37E-05;2.33E-05;1
2024/05/03/12:41:21.693838;23405;1714765281;693354842;world;-1.44E-05;-6.58E-06;-3.55E-06;-3.82E-05;1.66E-05;1.76E-06;1
2024/05/03/12:41:21.723447;23406;1714765281;723114079;world;-6.68E-06;-4.00E-07;-6.62E-06;-1.27E-05;7.76E-06;6.63E-06;1
2024/05/03/12:41:21.733362;23407;1714765281;733021231;world;-1.76E-05;-1.23E-05;-1.94E-05;-6.86E-05;1.51E-05;1.57E-05;1
2024/05/03/12:41:21.743907;23408;1714765281;743574052;world;-6.25E-06;-3.39E-06;-1.29E-05;1.17E-05;3.19E-09;6.36E-06;1
2024/05/03/12:41:21.763557;23409;1714765281;763234494;world;-1.71E-05;-3.04E-06;-3.73E-07;1.65E-06;3.72E-05;5.63E-06;1
2024/05/03/12:41:21.773334;23410;1714765281;773045367;world;-1.31E-05;-5.44E-06;-1.06E-05;-2.11E-05;1.35E-05;1.16E-05;1
2024/05/03/12:41:21.793291;23411;1714765281;792992460;world;-3.60E-06;-9.15E-06;-1.11E-05;-4.27E-05;-1.84E-05;2.22E-05;1
2024/05/03/12:41:21.803276;23412;1714765281;802990360;world;-2.68E-07;-1.53E-06;-7.83E-06;-3.05E-06;6.21E-06;6.69E-06;1
2024/05/03/12:41:21.823423;23413;1714765281;822973616;world;-3.76E-06;-1.26E-05;-1.10E-05;2.34E-05;4.06E-06;4.24E-06;1
2024/05/03/12:41:21.833765;23414;1714765281;833449515;world;-2.05E-05;-8.02E-06;-1.61E-05;-4.23E-05;9.92E-06;-3.53E-06;1
2024/05/03/12:41:21.863448;23415;1714765281;863131015;world;-7.71E-06;-3.15E-06;-1.46E-05;-3.22E-05;-1.64E-05;-7.14E-07;1
2024/05/03/12:41:21.873430;23416;1714765281;873118385;world;-3.31E-05;-1.73E-05;-1.28E-05;-8.51E-05;1.59E-05;6.61E-06;1
2024/05/03/12:41:21.883301;23417;1714765281;882945720;world;-1.75E-05;-7.07E-06;-1.07E-05;-1.77E-05;7.35E-05;2.53E-05;1
2024/05/03/12:41:21.903620;23418;1714765281;903317678;world;-1.82E-05;-1.39E-05;-4.99E-06;2.20E-06;-3.90E-06;-3.72E-05;1
2024/05/03/12:41:21.923643;23419;1714765281;923323916;world;-5.70E-06;-1.43E-05;-1.25E-05;-4.78E-05;8.35E-07;9.52E-06;1
2024/05/03/12:41:21.933460;23420;1714765281;933142624;world;-1.21E-05;-9.23E-06;-1.02E-05;-1.09E-05;2.06E-05;2.68E-05;1
2024/05/03/12:41:21.963806;23421;1714765281;963090478;world;-1.27E-05;-1.62E-05;-2.91E-06;-5.60E-06;-2.21E-05;-1.38E-05;1
2024/05/03/12:41:21.963821;23422;1714765281;963125904;world;-8.84E-06;-6.28E-06;-2.39E-06;-1.43E-05;-7.30E-06;-2.06E-05;1
2024/05/03/12:41:21.983636;23423;1714765281;983185759;world;-1.80E-06;-3.21E-06;-1.19E-05;-2.70E-06;6.32E-06;1.84E-05;1
2024/05/03/12:41:21.993703;23424;1714765281;993354460;world;-1.41E-05;-7.83E-06;-1.28E-05;-1.29E-05;1.83E-06;6.81E-06;1
2024/05/03/12:41:22.013248;23425;1714765282;12927575;world;4.67E-06;-3.20E-06;-1.27E-05;-2.74E-05;9.09E-06;1.12E-05;1
2024/05/03/12:41:22.023609;23426;1714765282;23291044;world;-6.09E-06;-6.32E-06;-1.04E-05;1.72E-05;-5.59E-06;1.35E-05;1
2024/05/03/12:41:22.053564;23427;1714765282;53217411;world;-1.63E-05;-1.31E-05;-7.64E-06;-1.10E-06;1.56E-05;1.83E-05;1
2024/05/03/12:41:22.063532;23428;1714765282;63232334;world;8.81E-06;-4.87E-06;-1.90E-05;8.62E-07;2.89E-05;2.27E-05;1
2024/05/03/12:41:22.073365;23429;1714765282;73032026;world;-5.22E-06;-5.91E-06;-4.05E-06;-5.76E-06;4.57E-05;2.62E-05;1
2024/05/03/12:41:22.093585;23430;1714765282;93138564;world;-1.33E-05;-1.30E-05;-1.08E-05;-4.36E-05;7.63E-06;-8.93E-06;1
2024/05/03/12:41:22.103519;23431;1714765282;103156149;world;-9.46E-06;-6.60E-06;-1.06E-05;-6.77E-06;1.24E-05;1.95E-05;1
2024/05/03/12:41:22.133365;23432;1714765282;133029398;world;1.68E-05;-3.10E-06;-4.51E-06;6.02E-05;-5.51E-06;1.10E-06;1
2024/05/03/12:41:22.133383;23433;1714765282;133067949;world;-9.83E-06;-1.65E-05;-5.78E-06;-5.45E-05;1.62E-05;-1.39E-05;1
2024/05/03/12:41:22.163417;23434;1714765282;163081036;world;-9.72E-06;-6.10E-06;-9.23E-06;4.49E-05;-6.52E-07;-2.74E-06;1
2024/05/03/12:41:22.163445;23435;1714765282;163117204;world;-1.17E-05;-7.64E-07;-1.52E-05;1.80E-05;2.22E-06;-4.27E-06;1
2024/05/03/12:41:22.183746;23436;1714765282;183085323;world;1.04E-05;-2.05E-05;7.02E-06;9.31E-06;-6.66E-05;8.50E-06;1
2024/05/03/12:41:22.193524;23437;1714765282;193217805;world;8.10E-07;-9.80E-06;-4.83E-06;1.59E-05;-4.35E-05;-5.29E-06;1
2024/05/03/12:41:22.213669;23438;1714765282;213340672;world;-1.75E-05;-1.53E-05;-1.44E-05;-4.82E-06;-1.22E-05;-5.69E-06;1
2024/05/03/12:41:22.233530;23439;1714765282;233184370;world;-2.00E-05;-1.70E-05;-7.28E-06;-5.08E-05;1.19E-05;8.13E-06;1
2024/05/03/12:41:22.263764;23440;1714765282;263054452;world;5.95E-06;4.48E-08;-1.40E-05;2.40E-05;3.01E-06;-7.68E-07;1
2024/05/03/12:41:22.263790;23441;1714765282;263097181;world;1.87E-06;-4.84E-06;-1.22E-05;-7.31E-06;-1.53E-05;-4.44E-06;1
2024/05/03/12:41:22.273554;23442;1714765282;273261191;world;-7.82E-07;-1.28E-05;-1.76E-05;-2.61E-05;-1.14E-05;-3.33E-05;1
2024/05/03/12:41:22.293660;23443;1714765282;293279815;world;-5.59E-06;-1.06E-05;-1.61E-05;-4.37E-05;2.26E-05;-2.08E-06;1
2024/05/03/12:41:22.303671;23444;1714765282;303394302;world;2.51E-06;-9.14E-06;-1.09E-05;4.25E-05;-2.31E-05;-1.05E-05;1
2024/05/03/12:41:22.333397;23445;1714765282;332864649;world;-4.67E-06;-1.28E-05;-1.26E-05;-1.90E-05;2.71E-06;1.30E-05;1
2024/05/03/12:41:22.333426;23446;1714765282;332902089;world;-2.66E-05;-1.86E-05;-1.13E-05;-5.99E-05;9.89E-06;-9.80E-06;1
2024/05/03/12:41:22.363341;23447;1714765282;362928852;world;-2.97E-06;-2.18E-05;-1.59E-05;3.50E-06;-1.51E-05;2.24E-06;1
2024/05/03/12:41:22.373747;23448;1714765282;373383022;world;-3.96E-06;-7.16E-06;-1.19E-05;-2.68E-06;7.83E-06;4.07E-06;1
2024/05/03/12:41:22.383709;23449;1714765282;383146096;world;1.67E-05;-4.22E-06;-6.83E-06;8.81E-05;-1.00E-05;7.45E-06;1
2024/05/03/12:41:22.403463;23450;1714765282;403155683;world;-9.40E-06;-1.77E-05;-9.50E-06;-3.51E-05;-1.93E-05;5.48E-06;1
2024/05/03/12:41:22.413945;23451;1714765282;413351010;world;4.57E-06;-5.32E-06;-9.53E-06;9.24E-05;-2.55E-05;-1.29E-05;1
2024/05/03/12:41:22.433460;23452;1714765282;433048432;world;7.18E-06;-1.35E-05;-6.34E-06;2.09E-05;-2.61E-05;3.94E-06;1
2024/05/03/12:41:22.443214;23453;1714765282;442890718;world;1.73E-05;-1.44E-05;-3.88E-06;2.34E-05;-1.05E-05;-1.27E-05;1
2024/05/03/12:41:22.473241;23454;1714765282;472888427;world;-3.11E-06;-1.26E-05;-1.22E-05;8.01E-06;-2.70E-05;-1.98E-07;1
2024/05/03/12:41:22.483318;23455;1714765282;482996712;world;-1.11E-05;-2.38E-05;-1.15E-05;-2.28E-05;1.38E-05;2.81E-05;1
2024/05/03/12:41:22.493307;23456;1714765282;493008408;world;-7.59E-06;-1.69E-05;-1.97E-05;2.62E-05;2.34E-05;1.23E-05;1
2024/05/03/12:41:22.513200;23457;1714765282;512880039;world;-1.49E-05;-1.40E-05;-1.26E-05;-5.51E-05;7.91E-06;6.19E-06;1
2024/05/03/12:41:22.543687;23458;1714765282;543390161;world;2.45E-05;-8.25E-06;2.91E-08;9.44E-05;-2.15E-05;-3.16E-06;1
2024/05/03/12:41:22.543715;23459;1714765282;543428171;world;2.16E-07;-1.06E-05;-1.44E-05;-2.51E-06;2.28E-05;2.24E-05;1
2024/05/03/12:41:22.573523;23460;1714765282;573199219;world;-7.97E-06;-4.82E-06;-1.45E-05;-6.72E-06;2.24E-05;1.68E-05;1
2024/05/03/12:41:22.573551;23461;1714765282;573236539;world;-2.48E-05;-3.46E-05;2.87E-06;-0.000138843;-1.92E-05;-3.83E-05;1
2024/05/03/12:41:22.593466;23462;1714765282;593138515;world;-6.33E-06;-1.58E-05;-7.82E-06;-1.88E-05;-2.56E-06;-8.26E-06;1
2024/05/03/12:41:22.603272;23463;1714765282;602907781;world;-4.65E-06;-1.56E-05;-1.02E-05;-3.09E-06;4.21E-06;-6.39E-08;1
2024/05/03/12:41:22.623354;23464;1714765282;623046637;world;-2.89E-06;-1.02E-05;-8.03E-06;-2.33E-05;-4.72E-06;-6.27E-07;1
2024/05/03/12:41:22.643670;23465;1714765282;643017842;world;-2.19E-05;-1.39E-05;-4.36E-06;-4.73E-05;3.84E-05;-6.99E-06;1
2024/05/03/12:41:22.653618;23466;1714765282;653212620;world;-1.06E-06;-1.03E-05;-4.26E-06;-4.25E-05;-4.01E-05;-7.09E-06;1
2024/05/03/12:41:22.673471;23467;1714765282;673152035;world;-1.11E-05;-7.21E-06;-1.10E-05;1.11E-05;-4.23E-06;-2.74E-06;1
2024/05/03/12:41:22.683451;23468;1714765282;683119369;world;-1.05E-05;-1.32E-05;-1.17E-05;-4.88E-05;-8.75E-06;-5.46E-06;1
2024/05/03/12:41:22.703545;23469;1714765282;703222947;world;-9.12E-06;-2.17E-05;-3.76E-06;9.03E-06;-1.92E-05;-3.91E-05;1
2024/05/03/12:41:22.713630;23470;1714765282;712971487;world;-2.98E-06;-1.19E-05;4.03E-07;1.28E-05;-2.21E-05;-1.79E-05;1
2024/05/03/12:41:22.733537;23471;1714765282;733216793;world;-1.81E-05;-9.38E-06;-1.59E-05;-4.35E-05;-1.30E-06;1.59E-05;1
2024/05/03/12:41:22.743885;23472;1714765282;743295924;world;-3.15E-06;-1.12E-05;-1.11E-05;3.04E-05;5.59E-06;1.53E-05;1
2024/05/03/12:41:22.783635;23473;1714765282;783298748;world;-8.94E-06;-1.46E-05;-1.58E-05;-3.99E-05;-1.22E-05;8.50E-06;1
2024/05/03/12:41:22.783663;23474;1714765282;783337199;world;-2.43E-06;-7.38E-06;-7.66E-06;-6.40E-06;2.78E-05;1.34E-05;1
2024/05/03/12:41:22.793525;23475;1714765282;793201059;world;-1.40E-05;-1.41E-05;-1.73E-05;-2.59E-05;2.00E-05;5.82E-06;1
2024/05/03/12:41:22.803374;23476;1714765282;803070292;world;-8.84E-06;-8.13E-06;-1.23E-05;1.72E-06;1.10E-05;-9.63E-06;1
2024/05/03/12:41:22.824924;23477;1714765282;824088453;world;-1.69E-05;-7.59E-06;-1.34E-05;-2.66E-05;1.72E-05;7.08E-06;1
2024/05/03/12:41:22.843374;23478;1714765282;843041014;world;-8.82E-06;-1.73E-05;1.16E-07;3.13E-05;-1.66E-05;-7.04E-06;1
2024/05/03/12:41:22.853514;23479;1714765282;853202315;world;-3.17E-06;-1.22E-05;-1.52E-05;-4.53E-05;1.81E-05;-3.58E-06;1
2024/05/03/12:41:22.883659;23480;1714765282;883162414;world;-2.37E-05;-1.26E-05;-1.82E-05;-6.04E-05;3.39E-06;1.01E-05;1
2024/05/03/12:41:22.883690;23481;1714765282;883213469;world;-1.68E-05;-1.68E-05;-1.37E-05;-1.61E-05;-4.18E-06;-1.60E-05;1
2024/05/03/12:41:22.903386;23482;1714765282;903079352;world;-4.87E-06;-1.10E-05;-6.85E-06;-2.89E-07;-6.87E-06;1.58E-05;1
2024/05/03/12:41:22.923679;23483;1714765282;923280585;world;-1.49E-05;-1.95E-05;-2.14E-05;-3.42E-06;6.33E-06;-6.23E-06;1
2024/05/03/12:41:22.933582;23484;1714765282;932915782;world;-7.21E-06;-1.02E-05;-1.92E-05;4.75E-05;-9.24E-07;3.79E-06;1
2024/05/03/12:41:22.953615;23485;1714765282;953311707;world;-3.92E-06;-7.47E-06;-5.41E-06;3.45E-05;3.12E-06;1.18E-05;1
2024/05/03/12:41:22.983505;23486;1714765282;983118761;world;-1.12E-05;-1.55E-05;-5.19E-06;-6.73E-05;-4.70E-05;-1.32E-05;1
2024/05/03/12:41:22.983532;23487;1714765282;983208999;world;-1.49E-05;-1.43E-05;-1.03E-05;-9.23E-07;-1.76E-05;-2.17E-06;1
2024/05/03/12:41:23.003374;23488;1714765283;2929688;world;-1.13E-05;-1.31E-05;-1.41E-05;-1.60E-05;-2.10E-05;-2.90E-06;1
2024/05/03/12:41:23.003404;23489;1714765283;2967628;world;-5.35E-06;-7.43E-06;-1.34E-05;2.64E-06;3.39E-05;1.45E-05;1
2024/05/03/12:41:23.023694;23490;1714765283;23365960;world;-4.83E-06;-5.74E-06;-2.39E-06;1.50E-05;-1.19E-05;-7.84E-06;1
2024/05/03/12:41:23.053393;23491;1714765283;53028662;world;-6.53E-06;-7.33E-06;-9.94E-06;1.89E-05;1.91E-06;1.25E-05;1
2024/05/03/12:41:23.053417;23492;1714765283;53074046;world;-9.83E-06;-8.71E-06;-1.89E-05;-4.91E-06;-7.44E-07;-1.41E-05;1
2024/05/03/12:41:23.093349;23493;1714765283;93005685;world;-2.62E-06;-5.58E-06;-1.42E-05;-8.23E-06;6.75E-06;3.30E-05;1
2024/05/03/12:41:23.093379;23494;1714765283;93042453;world;-4.05E-06;-6.88E-06;-9.01E-06;-1.38E-06;-8.04E-06;-1.81E-05;1
2024/05/03/12:41:23.104183;23495;1714765283;103854287;world;-1.10E-05;-4.78E-06;-9.88E-06;2.70E-05;-2.95E-05;-8.30E-06;1
2024/05/03/12:41:23.123600;23496;1714765283;123263565;world;-8.68E-06;-8.46E-06;-1.38E-05;4.34E-05;-1.49E-05;-4.47E-06;1
2024/05/03/12:41:23.133431;23497;1714765283;133048230;world;1.99E-06;-2.29E-05;-9.87E-06;2.26E-05;-3.06E-05;-4.34E-05;1
2024/05/03/12:41:23.153595;23498;1714765283;153221596;world;5.49E-07;-1.58E-05;-4.99E-06;1.94E-05;-3.48E-05;1.75E-05;1
2024/05/03/12:41:23.193941;23499;1714765283;193638221;world;-1.28E-05;-2.17E-05;-1.31E-05;-2.55E-05;-8.87E-06;-8.52E-07;1
2024/05/03/12:41:23.193982;23501;1714765283;193694425;world;-7.06E-06;-1.40E-05;-1.62E-05;-5.36E-07;-1.90E-05;1.27E-05;1
2024/05/03/12:41:23.213193;23502;1714765283;212931703;world;3.90E-06;-1.19E-05;-3.99E-06;4.72E-05;2.21E-05;-1.44E-06;1
2024/05/03/12:41:23.233495;23503;1714765283;233152969;world;-1.42E-05;-2.05E-05;-1.49E-05;-1.68E-05;8.74E-06;-3.65E-05;1
2024/05/03/12:41:23.253335;23504;1714765283;252911771;world;1.33E-06;-7.09E-06;-1.20E-05;3.08E-05;-2.26E-05;2.56E-05;1
2024/05/03/12:41:23.263666;23505;1714765283;263278848;world;-5.41E-06;-1.50E-05;-2.59E-05;-1.45E-05;1.72E-05;9.86E-06;1
2024/05/03/12:41:23.283970;23506;1714765283;283557565;world;-1.72E-05;-1.82E-05;-1.85E-05;4.16E-06;2.29E-05;1.07E-05;1
2024/05/03/12:41:23.293447;23507;1714765283;293121559;world;-1.46E-05;-1.23E-05;-6.97E-06;2.53E-05;-2.99E-05;1.28E-05;1
2024/05/03/12:41:23.303454;23508;1714765283;303170877;world;-1.29E-05;-1.66E-05;-1.46E-05;2.01E-05;-2.62E-05;1.13E-05;1
2024/05/03/12:41:23.323551;23509;1714765283;323186671;world;-1.96E-05;-1.57E-05;-1.73E-05;-5.03E-05;6.17E-06;-1.19E-05;1
2024/05/03/12:41:23.343931;23510;1714765283;343414800;world;-2.36E-06;-1.14E-05;-7.63E-06;2.84E-05;-4.40E-08;-1.59E-05;1
2024/05/03/12:41:23.353509;23511;1714765283;353165743;world;-1.10E-05;-8.87E-06;-2.68E-06;-1.24E-05;4.52E-05;-2.28E-05;1
2024/05/03/12:41:23.363720;23512;1714765283;363436822;world;1.16E-06;-1.31E-05;3.47E-07;-6.07E-05;-8.26E-06;1.07E-05;1
2024/05/03/12:41:23.383643;23513;1714765283;383316303;world;2.18E-05;-3.52E-06;-3.20E-06;5.57E-05;2.81E-05;1.67E-05;1
2024/05/03/12:41:23.403709;23514;1714765283;403379416;world;-6.81E-06;-1.32E-05;-3.29E-07;-6.94E-05;4.80E-05;3.39E-05;1
2024/05/03/12:41:23.413465;23515;1714765283;413218591;world;1.44E-06;-6.44E-06;3.49E-06;-2.13E-05;4.56E-05;1.72E-05;1
2024/05/03/12:41:23.433421;23516;1714765283;433072459;world;1.35E-05;-1.09E-05;2.84E-06;-1.77E-06;-1.03E-05;6.86E-06;1
2024/05/03/12:41:23.443424;23517;1714765283;443140265;world;3.94E-06;-9.25E-06;3.41E-07;-3.64E-05;-1.76E-05;-5.20E-06;1
2024/05/03/12:41:23.463434;23518;1714765283;463111736;world;-1.07E-05;-8.30E-06;5.20E-06;-4.15E-05;-3.99E-05;-4.87E-05;1
2024/05/03/12:41:23.483732;23519;1714765283;483194370;world;-3.59E-06;-9.64E-06;-1.23E-05;-3.89E-05;2.36E-05;1.45E-05;1
2024/05/03/12:41:23.493370;23520;1714765283;492987611;world;-5.70E-06;-1.63E-05;-4.08E-07;-3.52E-05;2.13E-05;5.69E-06;1
2024/05/03/12:41:23.513217;23521;1714765283;512912912;world;1.21E-06;-1.13E-05;7.01E-06;1.72E-06;4.08E-06;-1.51E-07;1
2024/05/03/12:41:23.523642;23522;1714765283;523315225;world;1.75E-06;-1.95E-05;-7.33E-06;-1.92E-05;-1.07E-06;-5.66E-06;1
2024/05/03/12:41:23.533858;23523;1714765283;533488482;world;6.66E-06;-1.28E-05;-2.52E-06;2.51E-05;-6.45E-06;1.20E-05;1
2024/05/03/12:41:23.563544;23524;1714765283;563153084;world;-1.82E-05;-1.53E-05;-5.38E-06;-2.27E-05;-1.75E-06;1.01E-05;1
2024/05/03/12:41:23.573516;23525;1714765283;573211667;world;4.30E-06;-9.20E-06;-2.61E-06;6.92E-06;-3.89E-05;-6.94E-06;1
2024/05/03/12:41:23.603349;23526;1714765283;603035886;world;-4.99E-07;-1.39E-06;3.60E-06;8.66E-06;9.11E-06;4.33E-06;1
2024/05/03/12:41:23.603374;23527;1714765283;603071712;world;-3.28E-06;-1.21E-05;-1.07E-05;4.66E-05;-1.96E-05;7.70E-06;1
2024/05/03/12:41:23.613623;23528;1714765283;613344861;world;-9.10E-06;-1.46E-05;4.54E-07;1.92E-05;-1.22E-05;3.83E-06;1
2024/05/03/12:41:23.633466;23529;1714765283;633103838;world;-1.30E-05;-1.21E-05;-8.20E-06;-5.89E-05;4.71E-05;-1.11E-07;1
2024/05/03/12:41:23.653989;23530;1714765283;653477353;world;-4.97E-07;-1.24E-05;-7.99E-06;1.21E-05;-3.31E-06;3.11E-06;1
2024/05/03/12:41:23.663755;23531;1714765283;663320885;world;-5.62E-06;-9.54E-06;4.32E-06;-1.95E-05;-5.42E-05;1.21E-05;1
2024/05/03/12:41:23.693215;23532;1714765283;692927329;world;-4.52E-06;-6.28E-06;-3.61E-06;-5.61E-06;6.96E-06;-3.28E-06;1
2024/05/03/12:41:23.693242;23533;1714765283;692964528;world;-4.11E-07;-7.05E-06;-1.14E-06;-2.66E-07;-8.66E-06;-2.42E-05;1
2024/05/03/12:41:23.713475;23534;1714765283;713171443;world;4.34E-06;-1.09E-05;-3.38E-06;3.95E-05;-1.82E-05;1.97E-06;1
2024/05/03/12:41:23.723767;23535;1714765283;723191596;world;-1.71E-05;-2.14E-05;-1.06E-05;-5.29E-05;2.16E-06;-1.09E-05;1
2024/05/03/12:41:23.743324;23536;1714765283;743051451;world;-1.62E-05;-2.57E-05;1.06E-05;-6.35E-05;-7.05E-05;-1.40E-05;1
2024/05/03/12:41:23.763237;23537;1714765283;762862134;world;-9.36E-06;-1.06E-05;-9.14E-07;3.83E-07;-1.85E-05;-1.51E-05;1
2024/05/03/12:41:23.773378;23538;1714765283;773066578;world;-2.42E-05;-9.19E-06;-8.53E-06;-3.95E-05;3.07E-06;7.15E-06;1
2024/05/03/12:41:23.803492;23539;1714765283;803188008;world;-1.02E-06;-5.88E-06;-6.81E-06;3.01E-05;-8.82E-06;1.48E-05;1
2024/05/03/12:41:23.803516;23540;1714765283;803222713;world;1.25E-06;-4.45E-06;4.94E-06;4.51E-05;-3.67E-05;-2.52E-06;1
2024/05/03/12:41:23.823696;23541;1714765283;823392088;world;-1.66E-05;-1.20E-05;-6.99E-06;-2.39E-05;-2.22E-06;-5.72E-06;1
2024/05/03/12:41:23.843383;23542;1714765283;843102039;world;-1.18E-05;-1.87E-05;-1.87E-05;-2.91E-05;1.33E-05;2.70E-06;1
2024/05/03/12:41:23.853592;23543;1714765283;853224592;world;-1.89E-06;-5.73E-06;-9.98E-06;4.73E-05;-3.98E-05;-6.32E-07;1
2024/05/03/12:41:23.873312;23544;1714765283;872909757;world;-1.19E-05;-1.76E-05;4.24E-06;-3.29E-05;-7.25E-06;-2.47E-05;1
2024/05/03/12:41:23.883336;23545;1714765283;882981306;world;-9.71E-06;-1.20E-05;-6.67E-07;1.50E-05;-8.01E-06;-3.62E-06;1
2024/05/03/12:41:23.903615;23546;1714765283;903288292;world;-9.64E-06;-1.80E-05;-8.62E-06;-2.82E-05;9.56E-06;6.17E-06;1
2024/05/03/12:41:23.923524;23547;1714765283;923171868;world;-1.01E-05;-8.38E-06;-2.12E-05;-2.75E-05;3.35E-05;-8.76E-06;1
2024/05/03/12:41:23.933413;23548;1714765283;933062610;world;-9.71E-07;-1.51E-05;-3.50E-06;-7.47E-08;3.34E-06;5.57E-06;1
2024/05/03/12:41:23.943316;23549;1714765283;942932673;world;4.49E-06;-1.22E-05;2.77E-06;2.39E-06;-1.90E-05;5.61E-06;1
2024/05/03/12:41:23.973345;23550;1714765283;972899747;world;-7.33E-06;-6.18E-06;-1.67E-05;-3.57E-05;2.79E-06;7.08E-06;1
2024/05/03/12:41:23.983369;23551;1714765283;983074924;world;-1.77E-05;-2.69E-05;-2.90E-06;-4.84E-05;-1.70E-05;-3.34E-05;1
2024/05/03/12:41:24.013563;23552;1714765284;13266202;world;-2.20E-06;-7.50E-06;-4.39E-06;2.59E-06;-3.71E-05;-1.69E-05;1
2024/05/03/12:41:24.013572;23553;1714765284;13314091;world;9.41E-08;-8.77E-06;-8.83E-06;8.22E-06;-3.28E-05;1.05E-05;1
2024/05/03/12:41:24.023604;23554;1714765284;23317031;world;-4.99E-06;-1.52E-05;-3.10E-06;5.83E-07;-3.24E-06;1.01E-05;1
2024/05/03/12:41:24.043674;23555;1714765284;43270937;world;-2.00E-06;-2.10E-05;-8.14E-06;-5.15E-05;9.76E-06;1.04E-05;1
2024/05/03/12:41:24.053498;23556;1714765284;53134851;world;-7.20E-06;-1.35E-05;-8.96E-06;-4.30E-05;-1.93E-05;1.53E-05;1
2024/05/03/12:41:24.073659;23557;1714765284;73356902;world;-1.74E-06;-1.74E-05;6.77E-07;-4.94E-05;4.21E-06;-2.49E-05;1
2024/05/03/12:41:24.093403;23558;1714765284;93102232;world;0.000220432;-1.85E-05;-6.73E-06;-4.99E-05;-0.000133297;-0.000179261;1
2024/05/03/12:41:24.123657;23559;1714765284;123328217;world;0.001045701;-2.29E-05;1.34E-05;-0.000177096;-0.000177648;-0.000165741;1
2024/05/03/12:41:24.123688;23560;1714765284;123361529;world;0.00173875;-8.32E-06;3.65E-05;-8.69E-05;-0.000161416;-8.18E-05;1
2024/05/03/12:41:24.133585;23561;1714765284;133180550;world;0.004154441;-3.13E-05;0.000100515;-7.19E-05;-9.48E-05;-0.00026467;1
2024/05/03/12:41:24.153678;23562;1714765284;153382645;world;0.005942727;-1.15E-05;0.000116457;-0.000257736;-8.50E-05;-0.000295694;1
2024/05/03/12:41:24.173253;23563;1714765284;172942289;world;0.006963336;1.84E-05;9.77E-05;-9.44E-05;-0.000260116;-0.000297049;1
2024/05/03/12:41:24.183878;23564;1714765284;183628480;world;0.009038311;2.88E-06;0.000114273;0.00012526;-0.000411881;-0.000138897;0.999999881
2024/05/03/12:41:24.213312;23565;1714765284;213024833;world;0.011086101;-2.53E-05;6.87E-05;-2.16E-05;-0.000156964;0.000124245;1
2024/05/03/12:41:24.213336;23566;1714765284;213058916;world;0.013199839;-5.53E-05;0.000113896;3.58E-05;6.58E-05;0.000358003;1
2024/05/03/12:41:24.233277;23567;1714765284;232930669;world;0.015208916;-7.17E-05;0.000133283;-0.000120917;-9.41E-05;0.000355592;1
2024/05/03/12:41:24.243333;23568;1714765284;242988312;world;0.016229719;-6.60E-05;0.000142676;-0.00010969;-0.000102398;0.00050136;0.999999881
2024/05/03/12:41:24.253505;23569;1714765284;253210466;world;0.018351212;-3.14E-05;0.000127489;-0.000108109;-0.000369817;0.000592299;0.999999762
2024/05/03/12:41:24.283467;23570;1714765284;283185050;world;0.020386975;-4.61E-05;0.000101658;-0.000275544;-0.000378758;0.000719026;0.999999642
2024/05/03/12:41:24.293261;23571;1714765284;292999901;world;0.022472186;-4.42E-05;0.000146877;0.000272626;-0.000343197;0.000818126;0.999999642
2024/05/03/12:41:24.313468;23572;1714765284;313027555;world;0.024487725;-5.53E-05;0.000196114;3.74E-05;-0.000348238;0.00112173;0.999999285
2024/05/03/12:41:24.323250;23573;1714765284;322936691;world;0.026436601;-7.81E-05;0.000199571;-0.000270243;-0.000169309;0.001189861;0.999999285
2024/05/03/12:41:24.343578;23574;1714765284;343033413;world;0.028311191;-9.93E-05;0.000161679;-0.000535582;-0.000141855;0.001145301;0.999999166
2024/05/03/12:41:24.353240;23575;1714765284;352926920;world;0.030314803;-6.09E-05;0.000195113;-0.000330565;-0.000111079;0.001165469;0.999999285
2024/05/03/12:41:24.373243;23576;1714765284;372883019;world;0.031310633;-4.71E-05;0.000197755;1.10E-05;-0.000365102;0.001230787;0.999999166
2024/05/03/12:41:24.383495;23577;1714765284;383161061;world;0.03381487;-5.89E-05;0.000231348;0.000101746;-0.000501849;0.001322871;0.999999046
2024/05/03/12:41:24.423713;23578;1714765284;423307917;world;0.034545742;-7.42E-05;0.000237046;8.15E-05;-0.000499085;0.001330455;0.999999046
2024/05/03/12:41:24.423737;23579;1714765284;423346438;world;0.035922319;-9.03E-05;0.000208065;7.96E-05;-0.000343448;0.001431541;0.999998927
2024/05/03/12:41:24.433289;23580;1714765284;432997626;world;0.037304889;-6.76E-05;0.000207312;1.53E-05;-0.000357963;0.001459823;0.999998927
2024/05/03/12:41:24.443842;23581;1714765284;443383118;world;0.038589135;-6.70E-05;0.000220782;0.000114593;-0.000356582;0.001512552;0.999998808
2024/05/03/12:41:24.463173;23582;1714765284;462926711;world;0.03973129;-7.32E-05;0.000257663;-3.04E-06;-0.000301124;0.001455634;0.999998927
2024/05/03/12:41:24.483525;23583;1714765284;483225317;world;0.04086085;-5.27E-05;0.000314987;0.000329963;-0.000280103;0.001403971;0.999998927
2024/05/03/12:41:24.493358;23584;1714765284;493094038;world;0.041390687;-3.67E-05;0.000317035;0.000452987;-0.00024966;0.001417294;0.999998927
2024/05/03/12:41:24.523525;23585;1714765284;523202487;world;0.042356081;-3.88E-05;0.000327696;0.000389932;-0.000459766;0.001412584;0.999998808
2024/05/03/12:41:24.523555;23586;1714765284;523235579;world;0.043223042;-2.34E-05;0.000318857;0.000329752;-0.000526666;0.001386145;0.999998927
2024/05/03/12:41:24.543633;23587;1714765284;543355863;world;0.044022821;-1.49E-06;0.000296145;0.000169145;-0.00036673;0.001487586;0.999998808
2024/05/03/12:41:24.553347;23588;1714765284;553032316;world;0.044802662;-1.61E-05;0.000254821;0.000130685;-0.000343063;0.001399476;0.999998927
2024/05/03/12:41:24.573251;23589;1714765284;572882690;world;0.045479059;-1.93E-05;0.000237886;4.63E-05;-0.000291153;0.001375346;0.999999046
2024/05/03/12:41:24.593712;23590;1714765284;593429217;world;0.046150044;-1.84E-05;0.00022003;-3.23E-05;-0.000341926;0.001339778;0.999999046
2024/05/03/12:41:24.633244;23591;1714765284;632885148;world;0.046787143;-3.13E-05;0.000207704;-0.000161921;-0.0002515;0.001361554;0.999999046
2024/05/03/12:41:24.633269;23593;1714765284;632931414;world;0.047997337;-2.98E-05;0.000246328;-0.000163874;-0.000272615;0.001414592;0.999998927
2024/05/03/12:41:24.653762;23594;1714765284;653360143;world;0.048615266;-8.48E-06;0.000258635;-0.000154993;-0.000280143;0.00141918;0.999998927
2024/05/03/12:41:24.663243;23595;1714765284;662945507;world;0.048934355;-1.03E-05;0.0002773;1.64E-05;-0.000327258;0.001437133;0.999998927
2024/05/03/12:41:24.693474;23596;1714765284;693130759;world;0.04950922;-1.55E-05;0.000295117;6.98E-05;-0.000332812;0.001434153;0.999998927
2024/05/03/12:41:24.693496;23597;1714765284;693171534;world;0.050064806;-1.28E-06;0.00031873;0.000100938;-0.000260078;0.001390016;0.999999046
2024/05/03/12:41:24.733297;23598;1714765284;733010237;world;0.050636768;-1.36E-05;0.000327759;0.000158115;-0.000268866;0.001351882;0.999999046
2024/05/03/12:41:24.733304;23599;1714765284;733044441;world;0.051202539;-3.56E-05;0.000326108;0.000129475;-0.000287961;0.001332061;0.999999046
2024/05/03/12:41:24.743315;23600;1714765284;743012056;world;0.051501505;-3.71E-05;0.000322301;6.30E-05;-0.000236551;0.001337106;0.999999046
2024/05/03/12:41:24.763583;23601;1714765284;763280324;world;0.052462135;-3.18E-05;0.000370863;0.000148325;-0.000332365;0.00124245;0.999999166
2024/05/03/12:41:24.773445;23602;1714765284;773123200;world;0.052775696;-4.02E-05;0.000371082;0.000101863;-0.00033519;0.001240574;0.999999166
2024/05/03/12:41:24.793432;23603;1714765284;793098193;world;0.053403299;-3.35E-05;0.000364319;-1.57E-05;-0.000287349;0.001207074;0.999999285
2024/05/03/12:41:24.803400;23604;1714765284;803019993;world;0.054111592;-3.71E-05;0.000319622;-0.000170056;-0.000389879;0.001079765;0.999999404
2024/05/03/12:41:24.823475;23605;1714765284;823232311;world;0.054824792;-3.21E-05;0.00031094;-0.000155609;-0.000379619;0.001108495;0.999999285
2024/05/03/12:41:24.843440;23606;1714765284;843140840;world;0.055589795;-2.73E-05;0.000331925;1.54E-05;-0.000472638;0.0010839;0.999999285
2024/05/03/12:41:24.853502;23607;1714765284;853217217;world;0.056416325;-2.11E-05;0.000373137;0.000194012;-0.000591908;0.001023847;0.999999285
2024/05/03/12:41:24.863250;23608;1714765284;862965086;world;0.056802597;-1.64E-05;0.000381149;0.000252542;-0.000572954;0.001025266;0.999999285
2024/05/03/12:41:24.893616;23609;1714765284;893318418;world;0.057615433;-1.97E-06;0.000367944;0.000301526;-0.000477275;0.001048489;0.999999285
2024/05/03/12:41:24.903418;23610;1714765284;903110438;world;0.058380075;-1.48E-06;0.000349514;0.000402757;-0.000320637;0.001096128;0.999999285
2024/05/03/12:41:24.933534;23611;1714765284;933237650;world;0.059129968;1.23E-06;0.000331613;0.000291612;-0.000192741;0.001070948;0.999999404
2024/05/03/12:41:24.933562;23612;1714765284;933254922;world;0.059958953;-7.20E-06;0.000330581;4.93E-05;-0.000192788;0.001075;0.999999404
2024/05/03/12:41:24.943170;23613;1714765284;942873990;world;0.060766704;-3.57E-05;0.00034486;-0.000219395;-0.000140345;0.00117637;0.999999285
2024/05/03/12:41:24.963654;23614;1714765284;963348773;world;0.061643008;-2.66E-05;0.000378938;-6.87E-05;-0.000188483;0.001167961;0.999999285
2024/05/03/12:41:24.973115;23615;1714765284;972872563;world;0.062067628;-3.50E-05;0.000379056;-4.13E-05;-0.000179461;0.001122085;0.999999404
2024/05/03/12:41:24.993473;23616;1714765284;993241982;world;0.062915049;-7.04E-05;0.000389875;-0.000160595;-0.000200643;0.001081838;0.999999404
2024/05/03/12:41:25.003282;23617;1714765285;3033700;world;0.063826293;-5.86E-05;0.000376409;7.08E-05;-0.000364157;0.001081341;0.999999404
2024/05/03/12:41:25.033677;23618;1714765285;33289545;world;0.064661294;-6.82E-05;0.000377665;6.98E-05;-0.000306093;0.001025956;0.999999404
2024/05/03/12:41:25.043712;23619;1714765285;43091602;world;0.065566957;-3.56E-05;0.000390779;0.000149052;-0.000282143;0.00106228;0.999999404
2024/05/03/12:41:25.063552;23620;1714765285;63328134;world;0.066518962;-1.22E-05;0.000384183;0.00030963;-0.000583322;0.001092233;0.999999166
2024/05/03/12:41:25.073224;23621;1714765285;72904643;world;0.067454912;-1.28E-05;0.000408006;0.000295821;-0.000487008;0.001094649;0.999999285
2024/05/03/12:41:25.103698;23622;1714765285;103273126;world;0.068340406;-8.20E-06;0.000416531;0.000129697;-0.000316844;0.001118186;0.999999404
2024/05/03/12:41:25.103713;23623;1714765285;103307600;world;0.069260508;-1.39E-05;0.000421487;0.000267216;-0.000180587;0.001094662;0.999999404
2024/05/03/12:41:25.133607;23624;1714765285;133360247;world;0.069714464;-1.87E-05;0.000409442;0.000203589;-0.000195803;0.001172868;0.999999285
2024/05/03/12:41:25.133615;23625;1714765285;133393839;world;0.071057543;-2.91E-05;0.000379239;0.000239601;-0.000282037;0.001083319;0.999999404
2024/05/03/12:41:25.153483;23626;1714765285;153164535;world;0.071884677;-5.74E-05;0.000361191;7.80E-05;-0.000285592;0.001074668;0.999999404
2024/05/03/12:41:25.173527;23627;1714765285;173048301;world;0.072738782;-6.34E-05;0.000365474;-1.22E-05;-0.000218944;0.001043385;0.999999404
2024/05/03/12:41:25.183136;23628;1714765285;182981723;world;0.073183276;-8.04E-05;0.000394676;-0.000130146;-0.000183052;0.001003744;0.999999523
2024/05/03/12:41:25.203576;23629;1714765285;203291322;world;0.074069142;-7.23E-05;0.000414195;-0.000112281;-0.000153293;0.001112292;0.999999404
2024/05/03/12:41:25.213309;23630;1714765285;213031323;world;0.074987665;-5.18E-05;0.000495253;-3.52E-06;-0.000277546;0.001106638;0.999999404
2024/05/03/12:41:25.243318;23631;1714765285;242976560;world;0.075867131;-4.18E-05;0.000527905;0.000131152;-0.000271085;0.001077626;0.999999404
2024/05/03/12:41:25.243344;23632;1714765285;243009852;world;0.076771945;-2.11E-05;0.000523989;0.000296437;-0.00014285;0.001047309;0.999999404
2024/05/03/12:41:25.263297;23633;1714765285;263049810;world;0.077655263;-6.99E-06;0.000518678;0.00015592;-0.000160758;0.001016045;0.999999523
2024/05/03/12:41:25.273218;23634;1714765285;272909594;world;0.078543738;-6.58E-07;0.000497059;0.000119714;-0.000263324;0.000990734;0.999999523
2024/05/03/12:41:25.293166;23635;1714765285;292852962;world;0.07897374;-7.77E-06;0.000512833;-6.25E-06;-0.00024233;0.001001479;0.999999523
2024/05/03/12:41:25.313499;23636;1714765285;313191493;world;0.079883806;-2.14E-05;0.000494796;0.0001361;-0.000186951;0.00102495;0.999999523
2024/05/03/12:41:25.333390;23637;1714765285;333048289;world;0.080749027;-1.72E-05;0.000499221;0.000171635;-0.000150942;0.0010173;0.999999523
2024/05/03/12:41:25.343761;23638;1714765285;343466021;world;0.081630178;-2.99E-06;0.000498402;0.000274416;-0.000300114;0.001030912;0.999999404
2024/05/03/12:41:25.353675;23639;1714765285;353284070;world;0.082062043;-7.90E-06;0.000515616;0.000365843;-0.000293343;0.001030904;0.999999404
2024/05/03/12:41:25.373471;23640;1714765285;373220284;world;0.082859732;-5.62E-06;0.000488752;0.000220163;-0.000284975;0.001075722;0.999999404
2024/05/03/12:41:25.383708;23641;1714765285;382865580;world;0.083684534;-1.32E-05;0.000507467;0.000290079;-0.00026455;0.001082954;0.999999404
2024/05/03/12:41:25.403577;23642;1714765285;403291957;world;0.084529176;5.14E-06;0.00053059;0.000345536;-0.000189652;0.001149279;0.999999285
2024/05/03/12:41:25.413408;23643;1714765285;413034534;world;0.085354686;8.05E-06;0.000567216;0.000389825;-0.000204474;0.001085764;0.999999285
2024/05/03/12:41:25.443614;23644;1714765285;443318080;world;0.086198166;2.39E-05;0.000623193;0.000485466;-0.000256123;0.001102848;0.999999285
2024/05/03/12:41:25.443637;23645;1714765285;443351282;world;0.087016381;2.64E-05;0.000610571;0.000392568;-0.000208745;0.001114779;0.999999285
2024/05/03/12:41:25.463237;23646;1714765285;462919080;world;0.087847531;2.53E-05;0.000620851;0.000386428;-0.000115248;0.001087967;0.999999404
2024/05/03/12:41:25.483453;23647;1714765285;483176410;world;0.088708118;3.34E-05;0.000654269;0.000454838;-0.000108267;0.001126188;0.999999285
2024/05/03/12:41:25.493295;23648;1714765285;492992523;world;0.089107938;3.65E-05;0.00065436;0.000399777;-0.00011195;0.00106734;0.999999404
2024/05/03/12:41:25.513555;23649;1714765285;513277287;world;0.090387277;5.84E-05;0.000644254;0.000664854;-0.000320683;0.001024039;0.999999285
2024/05/03/12:41:25.523453;23650;1714765285;523189178;world;0.090820864;5.36E-05;0.000632768;0.000723381;-0.000349692;0.001053428;0.999999166
2024/05/03/12:41:25.543757;23651;1714765285;543350279;world;0.091633506;4.28E-05;0.000631743;0.000646704;-0.000308818;0.001076182;0.999999166
2024/05/03/12:41:25.553164;23652;1714765285;552884961;world;0.092470065;4.14E-05;0.000644946;0.000519172;-0.00025577;0.001100777;0.999999285
2024/05/03/12:41:25.573519;23653;1714765285;573255432;world;0.093275413;3.77E-05;0.000620426;0.000288575;-0.000187984;0.001126134;0.999999285
2024/05/03/12:41:25.583989;23654;1714765285;583736347;world;0.094045803;3.38E-05;0.000655812;0.000252823;-0.000167703;0.001190327;0.999999285
2024/05/03/12:41:25.613572;23655;1714765285;613291445;world;0.094880655;1.01E-05;0.000653363;0.000222937;-0.000184786;0.001293216;0.999999166
2024/05/03/12:41:25.623541;23656;1714765285;623287002;world;0.095303796;1.10E-05;0.000652145;0.000302357;-0.000151207;0.001341075;0.999999046
2024/05/03/12:41:25.643321;23657;1714765285;642999225;world;0.096158557;-1.14E-05;0.000652739;0.000295096;-0.000103835;0.001389355;0.999999046
2024/05/03/12:41:25.653420;23658;1714765285;653124337;world;0.097041331;-1.54E-05;0.000682384;0.000483174;-0.000113272;0.001333553;0.999999046
2024/05/03/12:41:25.663408;23659;1714765285;663122550;world;0.09780816;-3.03E-05;0.000706808;0.000395133;-0.000172047;0.001339318;0.999999046
2024/05/03/12:41:25.683331;23660;1714765285;683021955;world;0.098623656;-5.19E-05;0.000752902;0.000414747;-0.000244638;0.001442394;0.999998927
2024/05/03/12:41:25.693476;23661;1714765285;693186948;world;0.099472545;-7.77E-05;0.000765513;0.000487971;-0.000302621;0.001492354;0.999998808
2024/05/03/12:41:25.713372;23662;1714765285;713064492;world;0.100300103;-8.16E-05;0.000785692;0.00032416;-0.000255918;0.001440609;0.999998927
2024/05/03/12:41:25.753696;23663;1714765285;753357793;world;0.101116724;-8.64E-05;0.000813538;0.000446279;-0.000238388;0.001432921;0.999998927
2024/05/03/12:41:25.753721;23664;1714765285;753391466;world;0.101544358;-8.57E-05;0.000826163;0.000557166;-0.000288393;0.001433128;0.999998808
2024/05/03/12:41:25.763356;23665;1714765285;763026182;world;0.102904826;-7.71E-05;0.000829304;0.000898254;-0.000130645;0.001537223;0.99999845
2024/05/03/12:41:25.783636;23666;1714765285;783277471;world;0.103814073;-0.000101283;0.000869639;0.001004443;-2.55E-05;0.001563233;0.999998331
2024/05/03/12:41:25.793503;23667;1714765285;793158357;world;0.104229592;-9.89E-05;0.000881752;0.000996266;-7.41E-05;0.001538132;0.999998331
2024/05/03/12:41:25.813511;23668;1714765285;813172736;world;0.105062336;-8.82E-05;0.000891208;0.000983119;-0.000109662;0.001510992;0.99999845
2024/05/03/12:41:25.823637;23669;1714765285;823247191;world;0.105848469;-7.69E-05;0.000852536;0.000775188;-1.09E-05;0.00168547;0.999998331
2024/05/03/12:41:25.853260;23670;1714765285;852937462;world;0.106639482;-6.66E-05;0.000854455;0.000566525;0.000168861;0.001782091;0.999998212
2024/05/03/12:41:25.853263;23671;1714765285;852970824;world;0.107488185;-6.93E-05;0.000876117;0.000529613;-2.46E-05;0.001711438;0.99999845
2024/05/03/12:41:25.873765;23672;1714765285;873058460;world;0.107884541;-7.65E-05;0.000885684;0.000496822;-4.05E-05;0.001652437;0.999998569
2024/05/03/12:41:25.893737;23673;1714765285;893022264;world;0.109131537;-5.12E-05;0.000891614;0.000477251;0.000112621;0.001801618;0.999998331
2024/05/03/12:41:25.903644;23674;1714765285;903274731;world;0.10954576;-5.31E-05;0.000890553;0.000498258;9.77E-05;0.00185786;0.999998212
2024/05/03/12:41:25.913415;23675;1714765285;913150748;world;0.110404842;-5.38E-05;0.000929312;0.000745673;0.000121418;0.001941196;0.999997854
2024/05/03/12:41:25.933677;23676;1714765285;933401756;world;0.111290611;-5.36E-05;0.000983088;0.000763145;1.00E-05;0.001861998;0.999997973
2024/05/03/12:41:25.953288;23677;1714765285;952898178;world;0.112135924;-4.95E-05;0.001028798;0.00079771;-4.65E-05;0.001799177;0.999998093
2024/05/03/12:41:25.964038;23678;1714765285;963712913;world;0.112989523;-6.94E-05;0.001047374;0.000867566;-0.000122213;0.001806498;0.999997973
2024/05/03/12:41:25.973261;23679;1714765285;972895449;world;0.113805093;-7.05E-05;0.001014841;0.000785099;-3.99E-05;0.001841424;0.999997973
2024/05/03/12:41:25.993174;23680;1714765285;992869793;world;0.114212014;-8.39E-05;0.00101145;0.000681014;7.53E-06;0.001844157;0.999998093
2024/05/03/12:41:26.023592;23681;1714765286;23187333;world;0.11557056;-3.17E-05;0.00095864;0.000691787;-0.000190868;0.001976073;0.999997854
2024/05/03/12:41:26.023618;23682;1714765286;23222970;world;0.11597766;-4.51E-05;0.000955479;0.000742361;-0.0001091;0.002036423;0.999997616
2024/05/03/12:41:26.053396;23683;1714765286;53084541;world;0.116829507;-4.35E-05;0.001021013;0.000742516;-0.000138488;0.002030625;0.999997735
2024/05/03/12:41:26.053420;23684;1714765286;53125888;world;0.117603034;-6.16E-05;0.00102393;0.000607634;-4.24E-05;0.002166413;0.999997497
2024/05/03/12:41:26.073648;23685;1714765286;73344228;world;0.11843431;-9.73E-05;0.00104882;0.000522512;-9.57E-05;0.002150853;0.999997616
2024/05/03/12:41:26.083716;23686;1714765286;83409897;world;0.11928384;-0.000101085;0.001077379;0.00056682;-0.000121001;0.002136653;0.999997616
2024/05/03/12:41:26.103636;23687;1714765286;103291991;world;0.119709715;-0.00011238;0.001082913;0.000688745;-8.23E-05;0.002134418;0.999997497
2024/05/03/12:41:26.123186;23688;1714765286;122861615;world;0.120590344;-0.000115323;0.001104472;0.000756195;-0.000113635;0.002070197;0.999997616
2024/05/03/12:41:26.133564;23689;1714765286;133173026;world;0.121450804;-0.000137906;0.001136031;0.000802009;-5.10E-05;0.002174419;0.999997377
2024/05/03/12:41:26.164583;23690;1714765286;163022601;world;0.122693881;-0.000130928;0.001143289;0.00074199;-3.44E-05;0.00212107;0.999997497
2024/05/03/12:41:26.164742;23691;1714765286;163061653;world;0.123121098;-0.000127395;0.001149623;0.000704349;-7.95E-05;0.002088469;0.999997616
2024/05/03/12:41:26.183488;23692;1714765286;183156589;world;0.124002479;-0.000104469;0.001175289;0.000800094;-5.72E-05;0.002093534;0.999997497
2024/05/03/12:41:26.193408;23693;1714765286;193131063;world;0.124835677;-8.13E-05;0.001177381;0.000874949;-0.000117879;0.002004975;0.999997616
2024/05/03/12:41:26.224570;23694;1714765286;224285108;world;0.125677064;-6.31E-05;0.001190417;0.000914812;-0.000290412;0.001928971;0.999997735
2024/05/03/12:41:26.224604;23695;1714765286;224320133;world;0.126492336;-3.48E-05;0.001183561;0.000802531;-0.000413909;0.001864702;0.999997854
2024/05/03/12:41:26.243633;23696;1714765286;243318404;world;0.127368361;9.77E-06;0.001214162;0.000952168;-0.000609095;0.001761856;0.999997854
2024/05/03/12:41:26.263366;23697;1714765286;263059166;world;0.127773598;7.31E-06;0.001182116;0.000718825;-0.000491471;0.001852124;0.999997973
2024/05/03/12:41:26.273593;23698;1714765286;273214210;world;0.129059628;1.63E-05;0.001203561;0.000775401;-0.000612961;0.002000689;0.999997497
2024/05/03/12:41:26.293366;23699;1714765286;293044899;world;0.129469112;1.77E-05;0.001218212;0.000870867;-0.000666364;0.002011777;0.999997377
2024/05/03/12:41:26.303384;23700;1714765286;303076594;world;0.130310357;1.30E-06;0.001219689;0.000868297;-0.000618526;0.002013095;0.999997377
2024/05/03/12:41:26.323688;23701;1714765286;323382406;world;0.131141588;1.34E-05;0.001257582;0.000927675;-0.00056275;0.001981619;0.999997497
2024/05/03/12:41:26.333302;23702;1714765286;333004049;world;0.131899431;-1.02E-05;0.001236523;0.000592464;-0.000458157;0.002021844;0.999997735
2024/05/03/12:41:26.373437;23703;1714765286;372957249;world;0.132724345;-2.95E-05;0.001244598;0.000547222;-0.000643739;0.001996167;0.999997735
2024/05/03/12:41:26.373461;23704;1714765286;372990831;world;0.133136526;-2.36E-05;0.00124316;0.000548496;-0.000658406;0.002025775;0.999997616
2024/05/03/12:41:26.383646;23705;1714765286;383344116;world;0.133988932;-2.97E-05;0.001285503;0.000796027;-0.000828339;0.00201417;0.999997377
2024/05/03/12:41:26.403741;23706;1714765286;403246937;world;0.134864673;-3.81E-05;0.001289315;0.000712901;-0.000802156;0.002130485;0.999997139
2024/05/03/12:41:26.413551;23707;1714765286;412913744;world;0.135764271;-7.84E-06;0.001309983;0.000938272;-0.000734011;0.002282359;0.999996662
2024/05/03/12:41:26.433827;23708;1714765286;433279117;world;0.136580452;-4.83E-05;0.001349278;0.000842781;-0.000898403;0.002218564;0.999996781
2024/05/03/12:41:26.463463;23709;1714765286;463046572;world;0.137432933;-5.02E-05;0.001374756;0.000941718;-0.000841733;0.00216948;0.999996901
2024/05/03/12:41:26.463490;23710;1714765286;463086957;world;0.138338596;-3.62E-05;0.001355242;0.001139606;-0.000997427;0.002141446;0.999996543
2024/05/03/12:41:26.473536;23711;1714765286;473219723;world;0.139179215;-5.82E-05;0.001382458;0.001271371;-0.000911663;0.002197208;0.999996424
2024/05/03/12:41:26.493211;23712;1714765286;492880356;world;0.139564112;-6.12E-05;0.001360882;0.001080334;-0.000738862;0.002243606;0.999996662
2024/05/03/12:41:26.513499;23713;1714765286;513184265;world;0.140753418;-0.00010049;0.001341996;0.000567213;-0.000760128;0.002286579;0.99999702
2024/05/03/12:41:26.533219;23714;1714765286;532863782;world;0.141183823;-0.000114455;0.001346864;0.000529655;-0.000782826;0.002313306;0.999996901
2024/05/03/12:41:26.543345;23715;1714765286;543034405;world;0.142469376;-0.00012687;0.001399271;0.000501312;-0.000585791;0.002498246;0.999996662
2024/05/03/12:41:26.573302;23716;1714765286;572934681;world;0.142904803;-0.000129205;0.001417112;0.000600447;-0.000680515;0.002499603;0.999996543
2024/05/03/12:41:26.573329;23717;1714765286;572971540;world;0.143674627;-0.000153895;0.001410575;0.000520043;-0.000604473;0.002542521;0.999996424
2024/05/03/12:41:26.583486;23718;1714765286;583171598;world;0.1445539;-0.00012571;0.001419571;0.000700655;-0.000615582;0.002578597;0.999996305
2024/05/03/12:41:26.603600;23719;1714765286;603334204;world;0.145502314;-8.39E-05;0.001442535;0.000979799;-0.000835794;0.002563764;0.999995947
2024/05/03/12:41:26.623603;23720;1714765286;623327394;world;0.146274626;-0.000117857;0.001443237;0.000881689;-0.001063989;0.002643741;0.999995589
2024/05/03/12:41:26.643219;23721;1714765286;642857073;world;0.147108465;-0.000146144;0.001466477;0.000978742;-0.00113915;0.002623948;0.99999547
2024/05/03/12:41:26.653489;23722;1714765286;653177407;world;0.147979647;-0.000130672;0.001469348;0.000885046;-0.001113953;0.002553038;0.999995708
2024/05/03/12:41:26.673182;23723;1714765286;672919660;world;0.148420885;-0.00012735;0.001467983;0.000777727;-0.000995931;0.002550633;0.999995947
2024/05/03/12:41:26.683522;23724;1714765286;683181649;world;0.149333164;-0.000132741;0.001496821;0.000754492;-0.001016305;0.002564972;0.999995947
2024/05/03/12:41:26.693448;23725;1714765286;693165791;world;0.150206715;-0.000121714;0.00151482;0.000837934;-0.001096812;0.002562264;0.999995828
2024/05/03/12:41:26.713635;23726;1714765286;713349756;world;0.150972426;-0.000124272;0.001532038;0.000729382;-0.00110558;0.00256715;0.999995828
2024/05/03/12:41:26.733461;23727;1714765286;733162622;world;0.15178819;-0.00013375;0.001514748;0.0006345;-0.001149931;0.002565551;0.999995828
2024/05/03/12:41:26.743396;23728;1714765286;743065569;world;0.152237564;-0.000114073;0.001507031;0.000660101;-0.001123135;0.002634094;0.999995708
2024/05/03/12:41:26.773438;23729;1714765286;773118756;world;0.153108612;-8.07E-05;0.001491909;0.000692843;-0.001178537;0.002680653;0.99999547
2024/05/03/12:41:26.773461;23730;1714765286;773153341;world;0.153931692;-8.15E-05;0.001507844;0.000719691;-0.001231813;0.002691096;0.999995351
2024/05/03/12:41:26.793399;23731;1714765286;793094525;world;0.154821575;-6.52E-05;0.001517456;0.000830047;-0.001141493;0.002829541;0.999994993
2024/05/03/12:41:26.813725;23732;1714765286;813116419;world;0.155706123;-5.12E-05;0.00156542;0.000840514;-0.001096341;0.002774397;0.999995232
2024/05/03/12:41:26.823680;23733;1714765286;823345902;world;0.156560674;-2.74E-05;0.001614663;0.000833322;-0.001089524;0.00280492;0.999995112
2024/05/03/12:41:26.843570;23734;1714765286;843255558;world;0.157432735;-3.51E-05;0.001594138;0.000894797;-0.001059213;0.002731881;0.999995351
2024/05/03/12:41:26.853321;23735;1714765286;852943204;world;0.15824081;-3.72E-05;0.00158824;0.000865323;-0.000998375;0.002695637;0.99999547
2024/05/03/12:41:26.883752;23736;1714765286;883329924;world;0.159057081;-4.47E-05;0.00158716;0.00076668;-0.001089614;0.00265102;0.999995589
2024/05/03/12:41:26.883758;23737;1714765286;883368165;world;0.159475878;-3.92E-05;0.00159318;0.000701718;-0.001180649;0.002642995;0.999995589
2024/05/03/12:41:26.903736;23738;1714765286;903379027;world;0.160372034;-5.68E-08;0.001619272;0.000879023;-0.001306082;0.002533274;0.999995589
2024/05/03/12:41:26.913438;23739;1714765286;913119462;world;0.16118075;-1.36E-05;0.001635312;0.00089372;-0.001304695;0.002545722;0.999995589
2024/05/03/12:41:26.943710;23740;1714765286;943359839;world;0.162011176;-1.21E-05;0.00161569;0.000644295;-0.001414236;0.00261517;0.999995351
2024/05/03/12:41:26.943736;23741;1714765286;943401326;world;0.162833631;-2.09E-05;0.001613635;0.000587664;-0.001403079;0.002709954;0.999995232
2024/05/03/12:41:26.993212;23742;1714765286;992911129;world;0.163726687;-6.74E-07;0.00162548;0.000674331;-0.001516574;0.002658512;0.999995112
2024/05/03/12:41:26.993239;23744;1714765286;992953828;world;0.164958417;2.01E-05;0.001665147;0.000761254;-0.001527404;0.002596798;0.999995232
2024/05/03/12:41:27.013830;23745;1714765287;13171543;world;0.165758044;-4.24E-06;0.001671372;0.00064117;-0.001412924;0.002577409;0.99999547
2024/05/03/12:41:27.023347;23746;1714765287;23026183;world;0.166596696;-3.32E-07;0.001690628;0.000794055;-0.001400918;0.002635485;0.999995232
2024/05/03/12:41:27.043314;23747;1714765287;42956469;world;0.16745992;-1.65E-06;0.001693224;0.00081618;-0.001325469;0.002673459;0.999995232
2024/05/03/12:41:27.073750;23748;1714765287;73061977;world;0.168280676;6.26E-06;0.001666838;0.000829182;-0.001239957;0.002773726;0.999995112
2024/05/03/12:41:27.083676;23749;1714765287;83299321;world;0.169113934;-5.06E-06;0.001709528;0.001012634;-0.001355615;0.002785067;0.999994755
2024/05/03/12:41:27.093640;23750;1714765287;92964349;world;0.169965953;1.45E-05;0.001719084;0.001191683;-0.001627825;0.002692837;0.999994397
2024/05/03/12:41:27.103211;23751;1714765287;102890579;world;0.170372054;1.23E-05;0.001725685;0.001116857;-0.001620515;0.00270191;0.999994397
2024/05/03/12:41:27.123224;23752;1714765287;122913106;world;0.171229631;2.77E-05;0.00171753;0.001251086;-0.001701498;0.002682048;0.999994159
2024/05/03/12:41:27.143589;23753;1714765287;143231663;world;0.172047138;2.33E-05;0.001755235;0.001258587;-0.00166128;0.002676935;0.999994278
2024/05/03/12:41:27.153610;23754;1714765287;153284438;world;0.173337311;4.12E-05;0.001724991;0.001001567;-0.001840403;0.002595316;0.999994516
2024/05/03/12:41:27.173583;23755;1714765287;173087376;world;0.174186006;6.85E-05;0.001702148;0.000826996;-0.001766757;0.002672701;0.999994516
2024/05/03/12:41:27.183572;23756;1714765287;183172228;world;0.174605399;6.90E-05;0.001696625;0.00084789;-0.001830261;0.002639391;0.999994516
2024/05/03/12:41:27.203466;23757;1714765287;203158581;world;0.175425336;7.60E-05;0.001678968;0.000898076;-0.001690591;0.002648313;0.999994636
2024/05/03/12:41:27.213712;23758;1714765287;213425024;world;0.176213011;5.04E-05;0.001685655;0.000676144;-0.001533712;0.002627006;0.999995232
2024/05/03/12:41:27.233293;23759;1714765287;232987034;world;0.177073151;3.80E-05;0.001726854;0.000851087;-0.001617539;0.002748993;0.999994636
2024/05/03/12:41:27.253527;23760;1714765287;253146555;world;0.177917719;1.59E-05;0.001777241;0.000938884;-0.00161142;0.002870402;0.999994159
2024/05/03/12:41:27.263542;23761;1714765287;263208156;world;0.178353667;9.46E-06;0.001811076;0.001119714;-0.001685455;0.002815544;0.99999404
2024/05/03/12:41:27.283284;23762;1714765287;282964988;world;0.179575115;7.40E-06;0.001792532;0.000964309;-0.001596237;0.003016131;0.999993801
2024/05/03/12:41:27.293269;23763;1714765287;292965095;world;0.180394888;1.85E-05;0.001802763;0.00092215;-0.001484708;0.003137338;0.999993563
2024/05/03/12:41:27.313243;23764;1714765287;312904007;world;0.180830687;3.76E-05;0.001818793;0.001092115;-0.001480244;0.003160369;0.999993324
2024/05/03/12:41:27.323610;23765;1714765287;323169518;world;0.181624413;3.96E-05;0.001796234;0.000974606;-0.001561974;0.003167627;0.999993324
2024/05/03/12:41:27.333461;23766;1714765287;333153265;world;0.182506293;7.47E-05;0.0017694;0.000866067;-0.001759161;0.003020791;0.999993563
2024/05/03/12:41:27.353303;23767;1714765287;352994924;world;0.183350325;8.55E-05;0.001790027;0.000858787;-0.00177962;0.002935263;0.999993801
2024/05/03/12:41:27.403665;23768;1714765287;403323912;world;0.184217766;6.80E-05;0.001814259;0.000655323;-0.001781826;0.002952744;0.99999392
2024/05/03/12:41:27.403685;23770;1714765287;403366742;world;0.185576871;0.000109398;0.001836071;0.000850912;-0.001845677;0.002957443;0.999993563
2024/05/03/12:41:27.413559;23771;1714765287;413266894;world;0.186432123;0.00012756;0.001868662;0.000899315;-0.001890857;0.002980077;0.999993443
2024/05/03/12:41:27.433544;23772;1714765287;433218891;world;0.187266618;0.000100967;0.001868005;0.000907744;-0.001786401;0.003148266;0.999993086
2024/05/03/12:41:27.453548;23773;1714765287;453239752;world;0.188012972;8.33E-05;0.001839918;0.000654299;-0.001853236;0.00319554;0.999992967
2024/05/03/12:41:27.464433;23774;1714765287;463967273;world;0.188829452;8.80E-05;0.001821467;0.000672409;-0.001758404;0.003253175;0.999992967
2024/05/03/12:41:27.494425;23775;1714765287;494004955;world;0.189681724;9.66E-05;0.001839453;0.000751027;-0.001639642;0.00323103;0.999993205
2024/05/03/12:41:27.494449;23776;1714765287;494044699;world;0.190090433;8.69E-05;0.001836377;0.000621648;-0.001595345;0.00325675;0.999993205
2024/05/03/12:41:27.513236;23777;1714765287;512952371;world;0.190909699;5.24E-05;0.001826085;0.000618567;-0.001418227;0.003295664;0.999993443
2024/05/03/12:41:27.523406;23778;1714765287;523117055;world;0.191739976;4.70E-05;0.001867943;0.00053058;-0.001502634;0.003351886;0.999993086
