time;.header.seq;.header.stamp.secs;.header.stamp.nsecs;.header.frame_id;.pose.position.x;.pose.position.y;.pose.position.z;.pose.orientation.x;.pose.orientation.y;.pose.orientation.z;.pose.orientation.w
2024/05/03/13:00:36.953694;96553;1714766436;953319999;world;6.92E-05;2.40E-05;-4.76E-05;9.92E-06;-9.99E-05;-6.99E-05;1
2024/05/03/13:00:36.953727;96554;1714766436;953367668;world;6.82E-05;2.44E-05;-2.70E-05;2.87E-05;-0.000105412;-0.000128819;1
2024/05/03/13:00:36.963433;96555;1714766436;963105237;world;5.65E-05;2.58E-05;-2.60E-05;3.14E-05;-3.71E-05;-0.000147712;1
2024/05/03/13:00:36.983680;96556;1714766436;983371192;world;8.91E-05;1.25E-06;-3.90E-05;-5.80E-05;-7.66E-05;-7.58E-05;1
2024/05/03/13:00:36.993660;96557;1714766436;993381523;world;7.88E-05;5.40E-05;-6.53E-05;-6.65E-05;-0.000183851;-3.61E-05;1
2024/05/03/13:00:37.013736;96558;1714766437;13384892;world;5.76E-05;-1.44E-06;-7.46E-05;-9.85E-05;-0.000149734;-0.000197661;1
2024/05/03/13:00:37.023578;96559;1714766437;23256313;world;9.87E-05;1.95E-05;-3.44E-05;-6.90E-05;-0.000114469;-0.000104861;1
2024/05/03/13:00:37.043671;96560;1714766437;43332017;world;6.08E-05;8.06E-06;-4.91E-05;1.28E-05;-1.19E-05;-0.000117678;1
2024/05/03/13:00:37.064299;96561;1714766437;63946407;world;8.73E-05;1.29E-05;-4.43E-05;-2.15E-05;-2.00E-05;-9.40E-05;1
2024/05/03/13:00:37.073516;96562;1714766437;73158026;world;7.63E-05;-2.56E-05;-5.46E-05;-4.15E-05;-2.30E-05;-0.000110164;1
2024/05/03/13:00:37.093679;96563;1714766437;93332613;world;8.26E-05;3.49E-05;-6.73E-05;1.63E-06;-4.49E-05;-0.000151737;1
2024/05/03/13:00:37.113375;96564;1714766437;113034158;world;7.34E-05;-2.77E-06;-8.35E-05;-8.11E-05;-2.06E-05;-0.000164872;1
2024/05/03/13:00:37.123211;96565;1714766437;122917754;world;8.62E-05;9.01E-06;-7.22E-05;-0.000101503;-0.000141627;-0.000201296;1
2024/05/03/13:00:37.153265;96566;1714766437;152950701;world;9.00E-05;1.50E-05;-6.48E-05;-5.28E-05;-0.000126791;-0.000231878;1
2024/05/03/13:00:37.153293;96567;1714766437;152996958;world;7.78E-05;-3.52E-05;-5.35E-05;-9.23E-05;3.56E-05;-0.000138395;1
2024/05/03/13:00:37.173427;96568;1714766437;173090916;world;9.72E-05;5.64E-06;-2.10E-05;-6.70E-05;-8.12E-05;-8.18E-05;1
2024/05/03/13:00:37.183568;96569;1714766437;183273612;world;5.48E-05;1.17E-05;-4.98E-05;-2.60E-05;-1.28E-05;-0.000131829;1
2024/05/03/13:00:37.203400;96570;1714766437;203086273;world;7.51E-05;-1.16E-05;-4.41E-05;-1.91E-05;-4.27E-05;-0.000181485;1
2024/05/03/13:00:37.223547;96571;1714766437;223243883;world;7.59E-05;1.52E-05;-5.65E-05;-7.83E-05;-0.000112617;-0.000170331;1
2024/05/03/13:00:37.263754;96572;1714766437;263383884;world;9.90E-05;1.28E-05;-4.93E-05;-0.000126347;-0.000100492;-0.000115468;1
2024/05/03/13:00:37.263769;96574;1714766437;263442704;world;0.000100083;2.99E-05;-3.54E-05;-3.21E-05;-0.000141243;-6.91E-05;1
2024/05/03/13:00:37.283297;96575;1714766437;282889227;world;6.99E-05;1.33E-05;-5.02E-05;-5.81E-05;-4.43E-05;-0.000124139;1
2024/05/03/13:00:37.293311;96576;1714766437;292957748;world;7.09E-05;-3.28E-05;-7.06E-05;-5.78E-05;-1.39E-05;-0.000145341;1
2024/05/03/13:00:37.324494;96577;1714766437;324041579;world;8.44E-05;9.57E-06;-6.94E-05;-7.80E-05;-8.13E-05;-0.000142908;1
2024/05/03/13:00:37.324520;96578;1714766437;324085842;world;8.79E-05;2.70E-05;-6.24E-05;-0.000122753;-5.96E-05;-8.61E-05;1
2024/05/03/13:00:37.353418;96579;1714766437;353087958;world;9.22E-05;2.45E-05;-3.39E-05;-9.20E-05;-0.000109766;-0.000107632;1
2024/05/03/13:00:37.363242;96580;1714766437;362892174;world;8.71E-05;2.91E-05;-7.15E-05;-9.03E-05;-9.89E-05;-0.000155507;1
2024/05/03/13:00:37.373695;96581;1714766437;373340900;world;7.08E-05;2.46E-05;-6.40E-05;-5.66E-05;-8.12E-05;-0.000146921;1
2024/05/03/13:00:37.383410;96582;1714766437;383052896;world;7.45E-05;2.78E-06;-4.85E-05;-6.91E-05;-4.90E-05;-0.000185588;1
2024/05/03/13:00:37.403308;96583;1714766437;402949638;world;7.00E-05;1.44E-05;-5.80E-05;-5.59E-05;-1.76E-05;-0.00011433;1
2024/05/03/13:00:37.423513;96584;1714766437;422974079;world;6.50E-05;2.10E-05;-6.68E-05;-0.000125104;-7.36E-05;-8.92E-05;1
2024/05/03/13:00:37.433224;96585;1714766437;432958263;world;9.19E-05;-1.28E-05;-5.60E-05;-0.000106136;-6.40E-06;-0.000187062;1
2024/05/03/13:00:37.453426;96586;1714766437;453123434;world;9.49E-05;1.68E-05;-4.18E-05;4.30E-06;-9.88E-05;-5.41E-05;1
2024/05/03/13:00:37.473454;96587;1714766437;473025895;world;7.76E-05;3.27E-06;-5.97E-05;-2.05E-05;3.42E-05;-0.00017799;1
2024/05/03/13:00:37.483520;96588;1714766437;483019755;world;8.56E-05;-1.59E-06;-3.91E-05;1.00E-06;-4.05E-05;-9.31E-05;1
2024/05/03/13:00:37.503381;96589;1714766437;503043454;world;9.98E-05;2.94E-05;-5.09E-05;-9.23E-05;-0.000148453;-9.09E-05;1
2024/05/03/13:00:37.513404;96590;1714766437;513116373;world;9.59E-05;3.45E-05;-3.82E-05;-7.02E-05;-0.000178804;-6.28E-05;1
2024/05/03/13:00:37.523555;96591;1714766437;523284741;world;9.49E-05;-3.94E-06;-4.55E-05;3.00E-05;-2.75E-05;-8.11E-05;1
2024/05/03/13:00:37.553186;96592;1714766437;552880077;world;6.28E-05;-9.56E-06;-5.02E-05;-0.000119808;7.29E-07;-0.00011421;1
2024/05/03/13:00:37.563673;96593;1714766437;563215939;world;7.57E-05;2.52E-06;-6.54E-05;-0.000125343;-5.90E-05;-0.00015627;1
2024/05/03/13:00:37.573525;96594;1714766437;573063855;world;9.83E-05;9.95E-06;-7.14E-05;-6.40E-05;-0.000138521;-0.000213039;1
2024/05/03/13:00:37.593910;96595;1714766437;593439383;world;6.73E-05;-1.35E-05;-3.50E-05;-7.34E-05;-7.89E-05;-0.000183704;1
2024/05/03/13:00:37.603612;96596;1714766437;603224448;world;6.05E-05;1.60E-05;-3.83E-05;-3.73E-05;-7.36E-05;-4.51E-05;1
2024/05/03/13:00:37.633602;96597;1714766437;633187403;world;8.47E-05;-3.06E-06;-5.47E-05;9.75E-06;-8.30E-05;-0.000167041;1
2024/05/03/13:00:37.633636;96598;1714766437;633225835;world;6.95E-05;9.95E-07;-7.63E-05;7.45E-06;-1.56E-05;-0.000152313;1
2024/05/03/13:00:37.663420;96599;1714766437;663129734;world;6.33E-05;-1.03E-05;-3.80E-05;-1.25E-05;5.72E-06;-3.36E-05;1
2024/05/03/13:00:37.673703;96600;1714766437;673372842;world;8.14E-05;-1.69E-05;-5.06E-05;-8.40E-05;-2.85E-05;-0.000188037;1
2024/05/03/13:00:37.683650;96601;1714766437;683347787;world;8.53E-05;3.91E-06;-5.40E-05;-0.000117745;-0.000118747;-0.000108748;1
2024/05/03/13:00:37.703591;96602;1714766437;703239657;world;7.86E-05;-2.62E-05;-3.83E-05;3.43E-05;-4.27E-05;-0.00012521;1
2024/05/03/13:00:37.723461;96603;1714766437;723062494;world;8.38E-05;6.62E-06;-3.59E-05;-3.49E-05;-5.14E-05;-0.000111752;1
2024/05/03/13:00:37.733545;96604;1714766437;733192144;world;7.47E-05;3.53E-06;-5.33E-05;-0.000173102;-1.14E-05;-0.000108717;1
2024/05/03/13:00:37.763661;96605;1714766437;763135826;world;9.58E-05;2.93E-05;-7.36E-05;-0.000101415;-6.66E-05;-0.000115334;1
2024/05/03/13:00:37.763685;96606;1714766437;763173136;world;0.000115079;2.46E-06;-5.14E-05;-1.78E-05;-7.42E-05;-0.000208096;1
2024/05/03/13:00:37.784346;96607;1714766437;783271755;world;6.30E-05;-1.01E-05;-5.45E-05;-0.000101249;-4.87E-05;-0.000125574;1
2024/05/03/13:00:37.793704;96608;1714766437;793378938;world;6.47E-05;2.86E-05;-5.62E-05;-0.000107622;-6.15E-05;-8.43E-05;1
2024/05/03/13:00:37.813750;96609;1714766437;813393492;world;9.15E-05;1.47E-05;-4.41E-05;-4.25E-05;-6.93E-05;-0.000124861;1
2024/05/03/13:00:37.833902;96610;1714766437;833119122;world;7.08E-05;2.88E-06;-4.28E-05;-3.53E-05;-5.14E-05;-0.000134299;1
2024/05/03/13:00:37.843359;96611;1714766437;843054663;world;8.65E-05;4.25E-05;-4.42E-05;-0.000108372;-0.00011674;-8.16E-05;1
2024/05/03/13:00:37.873348;96612;1714766437;873025652;world;6.72E-05;9.83E-06;-3.68E-05;4.07E-05;-4.62E-05;-0.000124075;1
2024/05/03/13:00:37.873376;96613;1714766437;873049106;world;5.66E-05;2.34E-05;-5.58E-05;-0.000125243;-1.89E-05;-9.37E-05;1
2024/05/03/13:00:37.883591;96614;1714766437;883168932;world;7.34E-05;7.77E-06;-6.98E-05;-2.96E-05;4.20E-06;-0.000143897;1
2024/05/03/13:00:37.903788;96615;1714766437;903346030;world;7.99E-05;-4.07E-05;-4.79E-05;-7.01E-05;-6.44E-05;-0.000244845;1
2024/05/03/13:00:37.924714;96616;1714766437;924332245;world;8.96E-05;-4.10E-06;-4.28E-05;6.47E-07;-3.93E-05;-0.000166063;1
2024/05/03/13:00:37.933424;96617;1714766437;933133222;world;8.83E-05;2.55E-05;-5.44E-05;-2.55E-05;-7.09E-05;-0.000161078;1
2024/05/03/13:00:37.963416;96618;1714766437;963070692;world;8.48E-05;-2.00E-05;-6.31E-05;-5.29E-05;3.04E-05;-0.000197424;1
2024/05/03/13:00:37.973444;96619;1714766437;973006869;world;8.76E-05;-1.49E-06;-2.17E-05;-9.70E-05;-8.50E-05;-9.32E-05;1
2024/05/03/13:00:37.983449;96620;1714766437;983261747;world;9.58E-05;-1.14E-05;-4.16E-05;-0.000101912;-5.21E-05;-0.000111869;1
2024/05/03/13:00:37.993815;96621;1714766437;993426726;world;8.03E-05;1.04E-05;-5.26E-05;-7.72E-05;-7.67E-05;-0.000180842;1
2024/05/03/13:00:38.013412;96622;1714766438;13076807;world;0.000103557;2.94E-06;-6.94E-05;-8.72E-06;-6.30E-05;-0.000168922;1
2024/05/03/13:00:38.043780;96623;1714766438;43337441;world;0.000120366;3.45E-05;-6.65E-05;-8.82E-05;-0.000223089;-0.000135738;1
2024/05/03/13:00:38.043812;96624;1714766438;43388808;world;5.11E-05;-1.98E-05;-4.34E-05;-6.16E-05;-2.37E-05;-0.000180757;1
2024/05/03/13:00:38.074386;96625;1714766438;73405211;world;9.40E-05;-6.37E-06;-3.78E-05;-6.71E-05;-7.87E-05;-8.75E-05;1
2024/05/03/13:00:38.074430;96626;1714766438;73462058;world;9.52E-05;4.58E-05;-5.09E-05;-4.36E-05;-0.000116251;-5.48E-05;1
2024/05/03/13:00:38.093322;96627;1714766438;93002308;world;9.23E-05;1.20E-05;-5.58E-05;-9.57E-05;-4.05E-05;-0.000149706;1
2024/05/03/13:00:38.103558;96628;1714766438;103196994;world;9.15E-05;1.43E-05;-5.23E-05;-9.27E-05;-3.28E-05;-0.000119319;1
2024/05/03/13:00:38.123596;96629;1714766438;123320146;world;7.86E-05;3.01E-05;-6.31E-05;1.59E-05;-8.57E-05;-0.000149707;1
2024/05/03/13:00:38.143728;96630;1714766438;143393613;world;8.81E-05;2.49E-05;-5.53E-05;-6.32E-05;-1.16E-05;-0.000143108;1
2024/05/03/13:00:38.183615;96631;1714766438;183160451;world;9.02E-05;9.50E-06;-6.42E-05;-7.49E-05;-0.00011301;-0.000163155;1
2024/05/03/13:00:38.183648;96633;1714766438;183207599;world;7.58E-05;-2.59E-05;-5.10E-05;-9.39E-05;-3.97E-05;-0.000123909;1
2024/05/03/13:00:38.203595;96634;1714766438;203285507;world;0.000116242;3.60E-05;-6.00E-05;1.30E-05;-0.000129567;-0.000135254;1
2024/05/03/13:00:38.213266;96635;1714766438;212956493;world;7.40E-05;1.88E-05;-6.84E-05;-3.03E-05;-4.70E-05;-0.00016148;1
2024/05/03/13:00:38.243493;96636;1714766438;243128305;world;8.60E-05;-1.15E-06;-5.00E-05;-3.84E-05;-5.64E-05;-0.00022412;1
2024/05/03/13:00:38.243522;96637;1714766438;243171826;world;9.44E-05;1.07E-05;-5.07E-05;-0.000114068;-8.86E-05;-8.56E-05;1
2024/05/03/13:00:38.283411;96638;1714766438;283062221;world;6.67E-05;5.14E-06;-5.71E-05;-7.97E-05;-2.52E-05;-0.000184926;1
2024/05/03/13:00:38.283436;96639;1714766438;283099642;world;0.000106682;8.85E-06;-5.66E-05;-3.16E-05;-5.98E-05;-7.65E-05;1
2024/05/03/13:00:38.293584;96640;1714766438;293279981;world;9.34E-05;-1.25E-05;-6.53E-05;-5.66E-05;-7.64E-05;-0.00025372;1
2024/05/03/13:00:38.313916;96641;1714766438;313587244;world;7.69E-05;1.31E-05;-5.27E-05;-7.35E-05;-5.43E-05;-0.000194462;1
2024/05/03/13:00:38.323800;96642;1714766438;323413580;world;0.000107316;8.75E-06;-4.60E-05;-6.13E-05;-0.000118579;-0.000116523;1
2024/05/03/13:00:38.343424;96643;1714766438;343130780;world;0.00010106;2.66E-05;-6.88E-05;-0.000114498;-6.40E-05;-0.000193403;1
2024/05/03/13:00:38.363410;96644;1714766438;363057397;world;8.16E-05;-1.10E-05;-6.74E-05;-0.000107788;-4.39E-05;-0.000201523;1
2024/05/03/13:00:38.373558;96645;1714766438;373141046;world;6.56E-05;-8.37E-06;-6.23E-05;-0.000133017;-0.000137133;-0.000156803;1
2024/05/03/13:00:38.393351;96646;1714766438;392972561;world;7.92E-05;-3.11E-06;-5.89E-05;-0.000100729;-9.07E-05;-0.000183023;1
2024/05/03/13:00:38.403529;96647;1714766438;403221761;world;8.76E-05;1.59E-05;-7.25E-05;-0.000109027;-2.82E-05;-0.000176029;1
2024/05/03/13:00:38.423381;96648;1714766438;423054523;world;7.05E-05;-1.43E-05;-5.24E-05;-9.81E-08;-7.67E-06;-0.000132207;1
2024/05/03/13:00:38.433592;96649;1714766438;433299595;world;8.69E-05;-3.30E-06;-5.27E-05;-6.03E-05;-3.19E-05;-0.000162366;1
2024/05/03/13:00:38.453247;96650;1714766438;452925717;world;0.000103718;4.00E-05;-7.87E-05;-7.41E-05;-9.67E-05;-0.000103203;1
2024/05/03/13:00:38.483359;96651;1714766438;482939147;world;9.84E-05;3.78E-05;-7.32E-05;-0.000114109;-0.000175093;-0.000168182;1
2024/05/03/13:00:38.483366;96652;1714766438;482973932;world;0.000116666;2.29E-05;-7.60E-05;-0.000165073;-0.000130186;-0.000170782;1
2024/05/03/13:00:38.503544;96653;1714766438;503230598;world;7.17E-05;2.47E-05;-5.43E-05;-0.000109467;-1.51E-05;-0.000137212;1
2024/05/03/13:00:38.513178;96654;1714766438;512924302;world;9.76E-05;-5.16E-05;-6.35E-05;-1.20E-05;-9.99E-06;-0.000249681;1
2024/05/03/13:00:38.523455;96655;1714766438;523225812;world;8.09E-05;1.34E-05;-6.55E-05;-0.000128772;-9.86E-05;-0.000110945;1
2024/05/03/13:00:38.553241;96656;1714766438;553008257;world;0.000118061;3.12E-05;-5.26E-05;-4.19E-05;-5.54E-05;-4.99E-05;1
2024/05/03/13:00:38.563527;96657;1714766438;563201162;world;0.000439825;-1.82E-05;2.95E-05;7.95E-05;0.000220437;9.59E-05;1
2024/05/03/13:00:38.593304;96658;1714766438;593042981;world;0.001213433;2.55E-05;0.000190829;0.000770263;0.000284958;0.000806459;0.999999404
2024/05/03/13:00:38.593312;96659;1714766438;593076243;world;0.001713211;8.10E-05;0.000235644;0.000891096;0.00045317;0.001236414;0.999998808
2024/05/03/13:00:38.603445;96660;1714766438;603140007;world;0.002769113;5.82E-05;0.000178009;0.000896015;0.000958488;0.001725103;0.999997735
2024/05/03/13:00:38.624521;96661;1714766438;624310628;world;0.003998347;0.00020277;9.56E-05;0.00019292;0.000452281;0.002683579;0.999996305
2024/05/03/13:00:38.643432;96662;1714766438;643102471;world;0.005281463;0.000286514;0.000363277;0.000808335;0.000254907;0.003974096;0.999991775
2024/05/03/13:00:38.653136;96663;1714766438;652876168;world;0.006704744;9.88E-05;0.000393631;0.000580863;0.000770428;0.004868871;0.999987721
2024/05/03/13:00:38.683485;96664;1714766438;683256848;world;0.008168651;6.73E-05;0.000404902;0.000435808;0.000983488;0.005857086;0.999982357
2024/05/03/13:00:38.693520;96665;1714766438;693238003;world;0.009644713;0.00015752;0.000483314;0.000709488;0.000917134;0.007081039;0.999974251
2024/05/03/13:00:38.703416;96666;1714766438;703078399;world;0.010349892;0.000227486;0.000506238;0.000629184;0.000846972;0.007673257;0.999970078
2024/05/03/13:00:38.713025;96667;1714766438;712887179;world;0.011927301;0.000242092;0.000570305;0.000615547;0.000947639;0.008968092;0.99995923
2024/05/03/13:00:38.733642;96668;1714766438;733092367;world;0.013434682;0.000281299;0.000536108;0.000684941;0.000804372;0.00990683;0.999950409
2024/05/03/13:00:38.753213;96669;1714766438;752979765;world;0.014899479;0.000378459;0.00048285;0.001038438;0.000656712;0.011005631;0.999938726
2024/05/03/13:00:38.763457;96670;1714766438;763162564;world;0.016372684;0.000301664;0.000496333;0.000924947;0.000715942;0.012098202;0.999926209
2024/05/03/13:00:38.793322;96671;1714766438;793055989;world;0.017835382;0.000376309;0.000523539;0.000606973;0.000737472;0.013251566;0.999911785
2024/05/03/13:00:38.803413;96672;1714766438;803162971;world;0.019128649;0.00054722;0.000572445;0.001052404;0.000901103;0.014813223;0.999889374
2024/05/03/13:00:38.813428;96673;1714766438;813185776;world;0.020342082;0.000459393;0.000617204;0.001192204;0.00101538;0.015734147;0.999875069
2024/05/03/13:00:38.823702;96674;1714766438;823297493;world;0.021046326;0.000437018;0.000517027;0.000642232;0.000784536;0.015919166;0.999872804
2024/05/03/13:00:38.843184;96675;1714766438;843008978;world;0.022457663;0.00058088;0.000531516;0.000109774;0.000698157;0.016697982;0.999860406
2024/05/03/13:00:38.863210;96676;1714766438;862997249;world;0.023647731;0.000618933;0.000452075;-8.92E-05;0.000398941;0.017546942;0.999845982
2024/05/03/13:00:38.873346;96677;1714766438;873090353;world;0.024740372;0.00069418;0.000453873;-0.00042293;3.24E-05;0.018594813;0.999827087
2024/05/03/13:00:38.883239;96678;1714766438;882948981;world;0.025592122;0.000812221;0.000424571;-0.000925491;8.62E-05;0.019771708;0.99980408
2024/05/03/13:00:38.953441;96679;1714766438;953112360;world;0.026469138;0.00083739;0.000468402;-0.000638639;0.000567669;0.020610854;0.999787271
2024/05/03/13:00:38.973514;96680;1714766438;973204035;world;0.0274122;0.000904694;0.000540746;-0.000178101;0.000743213;0.021573136;0.999767005
2024/05/03/13:00:39.013648;96681;1714766439;13151563;world;0.028284244;0.000927689;0.000564301;-0.00013812;0.000636262;0.0225247;0.999746144
2024/05/03/13:00:39.013676;96686;1714766439;13222696;world;0.031463232;0.001094971;0.000521278;-0.000490772;4.36E-05;0.026424883;0.999650717
2024/05/03/13:00:39.023530;96687;1714766439;23254656;world;0.032118954;0.001072453;0.000538457;-0.000632288;-4.93E-05;0.027163034;0.999630809
2024/05/03/13:00:39.043972;96688;1714766439;43660961;world;0.032835461;0.001240689;0.000426529;-0.000487528;-0.000424521;0.027876096;0.999611199
2024/05/03/13:00:39.063591;96689;1714766439;63298462;world;0.03350082;0.001362942;0.000198885;0.000778546;-0.000865581;0.028315805;0.999598444
2024/05/03/13:00:39.073387;96690;1714766439;73113001;world;0.034004763;0.001245222;0.000595408;0.000166287;0.000482283;0.02934585;0.999569237
2024/05/03/13:00:39.093578;96691;1714766439;93239782;world;0.034298539;0.001338781;0.000566378;0.000306075;0.000371707;0.02968161;0.999559343
2024/05/03/13:00:39.103185;96692;1714766439;102948245;world;0.034806855;0.001487704;0.000340112;0.000205892;-0.000778127;0.030288901;0.999540925
2024/05/03/13:00:39.123682;96693;1714766439;123418492;world;0.035081759;0.001400109;0.000576622;0.001090789;0.000354779;0.031446893;0.999504805
2024/05/03/13:00:39.143608;96694;1714766439;143268615;world;0.035380289;0.001238306;0.000731943;0.00035612;0.001044008;0.032357953;0.999475777
2024/05/03/13:00:39.163829;96695;1714766439;163361611;world;0.035830501;0.001219115;0.000694103;0.000297621;0.001007906;0.032891795;0.999458373
2024/05/03/13:00:39.173666;96696;1714766439;173310147;world;0.036230069;0.001223654;0.000523445;-0.000425161;0.000201685;0.033063203;0.999453127
2024/05/03/13:00:39.213536;96697;1714766439;213081713;world;0.036679044;0.00121131;0.000544262;-0.000341308;0.000386546;0.033657838;0.999433339
2024/05/03/13:00:39.213564;96699;1714766439;213124023;world;0.037384726;0.001212027;0.000578214;-0.000259789;0.000496066;0.034620192;0.999400377
2024/05/03/13:00:39.234352;96700;1714766439;233233190;world;0.03780121;0.001250175;0.000619885;-0.000336805;0.000463602;0.035203122;0.999380112
2024/05/03/13:00:39.243618;96701;1714766439;243349328;world;0.0385007;0.00146292;0.000619752;0.000425381;-0.000400121;0.036036834;0.999350369
2024/05/03/13:00:39.263711;96702;1714766439;263327665;world;0.038906481;0.001508879;0.000536878;0.00086259;-0.000260979;0.036507335;0.999332964
2024/05/03/13:00:39.273672;96703;1714766439;273241174;world;0.039467748;0.001684271;0.000652193;0.000900435;-0.000531121;0.037241522;0.999305725
2024/05/03/13:00:39.303468;96704;1714766439;303164271;world;0.039850269;0.001676922;0.000818799;-0.000244685;0.000409405;0.037978757;0.999278486
2024/05/03/13:00:39.313274;96705;1714766439;313010627;world;0.040317066;0.001654692;0.000756131;-0.000467428;0.000488747;0.038547646;0.999256551
2024/05/03/13:00:39.323203;96706;1714766439;322937331;world;0.040769316;0.001621185;0.000723575;-0.00020892;0.000482246;0.039127298;0.99923408
2024/05/03/13:00:39.343976;96707;1714766439;343210397;world;0.041003995;0.001681533;0.000849916;0.000222276;0.000796344;0.039825369;0.999206364
2024/05/03/13:00:39.373368;96708;1714766439;373118108;world;0.041653045;0.00179673;0.000781998;0.000977677;9.01E-05;0.040460721;0.999180734
2024/05/03/13:00:39.373392;96709;1714766439;373152142;world;0.042420752;0.001916884;0.000579169;0.001529042;-0.000402875;0.040716425;0.999169469
2024/05/03/13:00:39.413712;96710;1714766439;413310638;world;0.043069739;0.001980508;0.000486018;0.000612982;-0.000884847;0.040894467;0.999162912
2024/05/03/13:00:39.413742;96711;1714766439;413343770;world;0.043848492;0.002124072;0.000578214;0.000462595;-0.000971205;0.041594122;0.999134004
2024/05/03/13:00:39.424256;96712;1714766439;423232728;world;0.044378087;0.002046127;0.00074194;-0.000244077;-7.76E-05;0.042550605;0.999094367
2024/05/03/13:00:39.433393;96713;1714766439;433098781;world;0.044836558;0.002010397;0.000767403;-0.000613472;0.000494358;0.043135498;0.999068916
2024/05/03/13:00:39.453135;96714;1714766439;452867191;world;0.045252398;0.002002558;0.000536432;-0.000921773;-0.000287309;0.043690141;0.999044716
2024/05/03/13:00:39.473918;96715;1714766439;473016872;world;0.046115518;0.002165835;0.000473849;0.000406268;-0.000175772;0.044309907;0.999017715
2024/05/03/13:00:39.483478;96716;1714766439;483134594;world;0.047179554;0.002570191;0.000563351;0.000980449;-0.001162704;0.044952624;0.998987973
2024/05/03/13:00:39.503546;96717;1714766439;503221191;world;0.048049629;0.002661128;0.000506588;0.000733578;-0.001211181;0.045216698;0.998976231
2024/05/03/13:00:39.513827;96718;1714766439;513236512;world;0.048443787;0.002729842;0.000480357;0.000535801;-0.001399736;0.045322064;0.998971343
2024/05/03/13:00:39.533347;96719;1714766439;533050055;world;0.048880652;0.00244076;0.000718813;-0.000209213;-6.87E-05;0.046454325;0.998920441
2024/05/03/13:00:39.543636;96720;1714766439;543284166;world;0.049485877;0.00251983;0.000720517;-0.000274888;5.81E-05;0.047354143;0.998878181
2024/05/03/13:00:39.553278;96721;1714766439;552936676;world;0.050139032;0.00267264;0.000616892;0.000488829;-0.000556962;0.048103217;0.99884218
2024/05/03/13:00:39.573527;96722;1714766439;573214448;world;0.050840929;0.002730628;0.000602162;0.000598972;-0.000203361;0.048402712;0.998827755
2024/05/03/13:00:39.603260;96723;1714766439;602949759;world;0.051888056;0.003005512;0.000558813;0.00038243;-0.001107329;0.048591357;0.998818099
2024/05/03/13:00:39.613497;96724;1714766439;613188638;world;0.052705143;0.003173525;0.000464368;0.000556342;-0.001137435;0.049055375;0.998795271
2024/05/03/13:00:39.623401;96725;1714766439;623210070;world;0.053306486;0.003185625;0.000613607;0.001024776;-0.000993281;0.050215147;0.998737395
2024/05/03/13:00:39.633815;96726;1714766439;633227212;world;0.053595159;0.003159344;0.000708614;0.001170522;-0.000928533;0.050754506;0.998710036
2024/05/03/13:00:39.653855;96727;1714766439;653444042;world;0.054095045;0.003089844;0.000782485;0.000851186;-0.000544924;0.051812515;0.998656392
2024/05/03/13:00:39.673906;96728;1714766439;673589199;world;0.054757439;0.002987106;0.000979971;0.000894785;7.53E-05;0.052874736;0.998600781
2024/05/03/13:00:39.683597;96729;1714766439;683288937;world;0.055359475;0.003083453;0.000812055;0.000891058;-0.000212258;0.053404629;0.998572588
2024/05/03/13:00:39.733509;96730;1714766439;733201840;world;0.055972308;0.003167395;0.000700617;0.000745998;-0.000368156;0.053885609;0.998546779
2024/05/03/13:00:39.733533;96732;1714766439;733245442;world;0.057635911;0.003538477;0.000639947;0.000350705;-0.001122074;0.054608345;0.998507202
2024/05/03/13:00:39.743284;96733;1714766439;742924651;world;0.058086898;0.003701027;0.000641835;0.000380731;-0.001317406;0.054801896;0.998496294
2024/05/03/13:00:39.763496;96734;1714766439;763154026;world;0.058902733;0.003821958;0.000693791;0.00057624;-0.001490919;0.055456787;0.998459816
2024/05/03/13:00:39.783900;96735;1714766439;783592332;world;0.059664406;0.003953949;0.000687168;0.000395682;-0.001830544;0.056046445;0.998426437
2024/05/03/13:00:39.813625;96736;1714766439;813337978;world;0.06024373;0.003904969;0.000744317;0.000431865;-0.001814123;0.057183977;0.998362005
2024/05/03/13:00:39.813675;96737;1714766439;813377132;world;0.060609337;0.003692622;0.000833096;0.000432706;-0.000675118;0.058233306;0.998302698
2024/05/03/13:00:39.823789;96738;1714766439;823217383;world;0.060876045;0.003679767;0.000956867;0.000707246;-0.000434295;0.058681149;0.998276472
2024/05/03/13:00:39.843172;96739;1714766439;842923030;world;0.061425868;0.003721569;0.000819886;0.001036849;4.73E-05;0.059050146;0.998254478
2024/05/03/13:00:39.853414;96740;1714766439;853078853;world;0.062240452;0.003934732;0.000693072;0.000566624;-0.000907658;0.059356589;0.998236299
2024/05/03/13:00:39.883977;96741;1714766439;883592848;world;0.063543431;0.004352383;0.000632982;0.000631885;-0.00157475;0.059881493;0.998204112
2024/05/03/13:00:39.884002;96742;1714766439;883627844;world;0.063956507;0.004468145;0.000700547;0.000728303;-0.001707441;0.060380634;0.998173714
2024/05/03/13:00:39.913566;96743;1714766439;913054691;world;0.064715706;0.004621124;0.000766593;0.000821898;-0.001840285;0.061261538;0.998119771
2024/05/03/13:00:39.923195;96744;1714766439;922946952;world;0.065332413;0.004682519;0.000728784;0.000776982;-0.001618755;0.061802693;0.99808681
2024/05/03/13:00:39.933412;96745;1714766439;933124596;world;0.065804444;0.004447035;0.000838516;0.000879122;-0.000920532;0.062854856;0.998021841
2024/05/03/13:00:39.953186;96746;1714766439;952865693;world;0.066202864;0.004278295;0.000843792;0.000869238;-5.75E-05;0.06357374;0.99797684
2024/05/03/13:00:39.963691;96747;1714766439;963356105;world;0.066397712;0.004285024;0.000758028;0.000591038;1.81E-05;0.063690327;0.997969568
2024/05/03/13:00:39.983469;96748;1714766439;983167814;world;0.067515828;0.004648529;0.000724155;0.00030139;-0.000611368;0.064765751;0.997900248
2024/05/03/13:00:40.023314;96749;1714766440;22981560;world;0.067922466;0.004855923;0.000745567;0.000444356;-0.000974851;0.064997882;0.99788481
2024/05/03/13:00:40.033632;96750;1714766440;33335027;world;0.068717942;0.00518211;0.000810464;0.000561766;-0.001398436;0.06562832;0.997843027
2024/05/03/13:00:40.033677;96751;1714766440;33369812;world;0.069418415;0.0052118;0.000952797;0.000888607;-0.001187054;0.066434309;0.997789741
2024/05/03/13:00:40.043377;96752;1714766440;43084838;world;0.07005138;0.005263767;0.000873731;0.000713528;-0.00107666;0.066831343;0.997763515
2024/05/03/13:00:40.063451;96753;1714766440;63109847;world;0.070695922;0.005260325;0.000795159;0.000505289;-0.001172203;0.067358047;0.99772805
2024/05/03/13:00:40.083901;96754;1714766440;83460981;world;0.071119919;0.005082029;0.000903422;0.000544779;-0.000635992;0.068424769;0.997655988
2024/05/03/13:00:40.093506;96755;1714766440;93162891;world;0.071299404;0.004954774;0.000933104;0.000441232;-0.00013502;0.068872653;0.997625411
2024/05/03/13:00:40.123283;96756;1714766440;122915792;world;0.071911909;0.005006371;0.001142615;0.000952268;0.000354897;0.069942772;0.997550547
2024/05/03/13:00:40.123308;96757;1714766440;122946871;world;0.072599106;0.005132596;0.001158636;0.000930776;1.39E-05;0.070626952;0.997502387
2024/05/03/13:00:40.143390;96758;1714766440;143067305;world;0.073316634;0.005192127;0.001144691;0.000460493;-0.000367816;0.071099222;0.997469068
2024/05/03/13:00:40.163434;96759;1714766440;163164786;world;0.073927239;0.005303978;0.001222473;0.000820474;-0.000238455;0.071804702;0.997418404
2024/05/03/13:00:40.173558;96760;1714766440;173227124;world;0.074568793;0.00545719;0.001250346;0.00120483;-0.000164824;0.07267265;0.997355103
2024/05/03/13:00:40.193532;96761;1714766440;193205998;world;0.075241327;0.005520501;0.001161109;0.000781088;1.01E-05;0.073073655;0.997326255
2024/05/03/13:00:40.203738;96762;1714766440;203401928;world;0.075885028;0.00556198;0.001039843;0.000211701;-0.000268659;0.073336139;0.997307301
2024/05/03/13:00:40.234846;96763;1714766440;233788309;world;0.076490276;0.005631745;0.000970138;4.53E-05;-0.000201442;0.073741257;0.997277439
2024/05/03/13:00:40.243485;96764;1714766440;243162843;world;0.076801039;0.005704473;0.001044667;0.000229686;-0.000136878;0.074162588;0.997246146
2024/05/03/13:00:40.253279;96765;1714766440;252961927;world;0.077394187;0.005876785;0.001200924;0.001463712;0.000275697;0.07544513;0.997148931
2024/05/03/13:00:40.263506;96766;1714766440;263113931;world;0.077959523;0.005877588;0.001162007;0.001679173;0.000427141;0.076105855;0.997098327
2024/05/03/13:00:40.283665;96767;1714766440;283371802;world;0.078539737;0.005859453;0.000894965;0.001276134;0.000479416;0.076167956;0.997094035
2024/05/03/13:00:40.293518;96768;1714766440;293218055;world;0.0795248;0.006268427;0.00103396;0.000706454;-0.000693696;0.077137835;0.997019947
2024/05/03/13:00:40.343390;96769;1714766440;343106834;world;0.080258057;0.006464255;0.001051726;0.000801247;-0.00100436;0.07785105;0.996964157
2024/05/03/13:00:40.343393;96771;1714766440;343145306;world;0.081002139;0.006464771;0.001014133;0.000668839;-0.000404498;0.078749418;0.996894121
2024/05/03/13:00:40.353520;96772;1714766440;353232421;world;0.081862837;0.00671667;0.001038223;0.000781269;-0.000603411;0.079272225;0.996852577
2024/05/03/13:00:40.373282;96773;1714766440;372993535;world;0.082709908;0.006898669;0.001016501;0.00079866;-0.000934219;0.079911605;0.996801257
2024/05/03/13:00:40.393639;96774;1714766440;393356841;world;0.083225429;0.007001529;0.00105409;0.00057914;-0.001048283;0.080759898;0.99673295
2024/05/03/13:00:40.403211;96775;1714766440;402921264;world;0.083733551;0.006979388;0.001113538;0.000634682;-0.000545999;0.081517987;0.996671557
2024/05/03/13:00:40.433379;96776;1714766440;433081319;world;0.084179744;0.006966382;0.000990443;0.000907386;8.23E-05;0.081991397;0.996632636
2024/05/03/13:00:40.433406;96777;1714766440;433114270;world;0.084615171;0.007060837;0.001049175;0.000919444;-0.000258939;0.082381964;0.996600449
2024/05/03/13:00:40.443636;96778;1714766440;443333013;world;0.085387193;0.00732669;0.001045384;0.001008522;-0.0005765;0.083081387;0.996542156
2024/05/03/13:00:40.463276;96779;1714766440;463011428;world;0.086018197;0.00734599;0.001050715;0.000716158;-0.000465494;0.083683193;0.996492088
2024/05/03/13:00:40.483433;96780;1714766440;483160732;world;0.086696811;0.00745441;0.001102798;0.00042636;-0.000658493;0.08429233;0.996440828
2024/05/03/13:00:40.493320;96781;1714766440;493008150;world;0.087498456;0.007763071;0.001068905;0.000547088;-0.000956101;0.084823228;0.996395409
2024/05/03/13:00:40.523681;96782;1714766440;523331284;world;0.088187538;0.00789333;0.001100088;0.000499697;-0.001118017;0.085270569;0.996357143
2024/05/03/13:00:40.523706;96783;1714766440;523365729;world;0.088581316;0.007774419;0.001118481;0.000153161;-0.000602888;0.0863453;0.996265113
2024/05/03/13:00:40.543976;96784;1714766440;543345792;world;0.089168176;0.007879109;0.001351924;0.000894873;-8.35E-05;0.087718196;0.99614501
2024/05/03/13:00:40.563489;96785;1714766440;563146643;world;0.08980789;0.008025154;0.001343316;0.000784076;-0.000277534;0.088228069;0.996099949
2024/05/03/13:00:40.573370;96786;1714766440;572947225;world;0.090496644;0.00813942;0.001309897;0.000817964;-0.000306385;0.08875341;0.996053338
2024/05/03/13:00:40.603477;96787;1714766440;603091114;world;0.091183096;0.008211037;0.001172697;0.000484994;-0.000392656;0.089046225;0.99602735
2024/05/03/13:00:40.603510;96788;1714766440;603134696;world;0.091509745;0.008248856;0.001170676;0.000506983;-0.000410985;0.089295499;0.996004999
2024/05/03/13:00:40.643771;96789;1714766440;643290455;world;0.092181943;0.008372277;0.001166921;0.000291846;-0.000561912;0.090035856;0.995938301
2024/05/03/13:00:40.643778;96790;1714766440;643340909;world;0.092759922;0.008404702;0.001057691;0.000217092;-0.0004705;0.090373203;0.995907903
2024/05/03/13:00:40.653205;96791;1714766440;652947783;world;0.093621366;0.008788117;0.001109183;0.000258883;-0.001301514;0.090963982;0.995853305
2024/05/03/13:00:40.663606;96792;1714766440;663200879;world;0.094221905;0.008883771;0.001073463;0.000270425;-0.001289164;0.091557503;0.995799005
2024/05/03/13:00:40.683243;96793;1714766440;682916828;world;0.094656043;0.00892524;0.001410598;0.001192922;-0.000279045;0.093230247;0.995643914
2024/05/03/13:00:40.704103;96794;1714766440;703494417;world;0.095264219;0.008974907;0.001500578;0.001062366;-0.000173458;0.094037563;0.995568097
2024/05/03/13:00:40.753400;96795;1714766440;753021215;world;0.09556058;0.008996471;0.001498978;0.001074475;1.40E-05;0.094307356;0.995542586
2024/05/03/13:00:40.753429;96797;1714766440;753058084;world;0.09683083;0.009191679;0.001222802;0.000654497;-0.000390074;0.094918154;0.995484829
2024/05/03/13:00:40.763228;96798;1714766440;762961954;world;0.097666502;0.009461141;0.001236955;0.000431902;-0.00115553;0.09558934;0.995420098
2024/05/03/13:00:40.773633;96799;1714766440;773204573;world;0.098494388;0.009812847;0.001188115;0.000475906;-0.00181927;0.095851608;0.995393872
2024/05/03/13:00:40.803464;96800;1714766440;803116341;world;0.099140465;0.010022376;0.001185236;0.000378012;-0.002006978;0.096302934;0.995350003
2024/05/03/13:00:40.803488;96801;1714766440;803162046;world;0.099834785;0.010285944;0.001240076;0.000298912;-0.001971187;0.097188979;0.995263934
2024/05/03/13:00:40.843581;96802;1714766440;843259868;world;0.100027852;0.010266164;0.001311341;0.000236601;-0.001825631;0.09781342;0.995203137
2024/05/03/13:00:40.843613;96803;1714766440;843283973;world;0.100381576;0.010156531;0.001539505;0.000802566;-0.000543578;0.099047378;0.995082259
2024/05/03/13:00:40.863633;96804;1714766440;863316617;world;0.100960121;0.010176253;0.00147869;0.000705455;-7.66E-05;0.099545605;0.995032787
2024/05/03/13:00:40.873366;96805;1714766440;873137981;world;0.101851337;0.010437966;0.001310947;0.000407338;-0.001099203;0.099876426;0.99499917
2024/05/03/13:00:40.883205;96806;1714766440;882985488;world;0.102769874;0.010833043;0.001226675;0.00056201;-0.001861498;0.099968091;0.994988739
2024/05/03/13:00:40.903189;96807;1714766440;902909407;world;0.103531443;0.011064894;0.001194134;0.000276699;-0.00191668;0.100459665;0.994939327
2024/05/03/13:00:40.943119;96808;1714766440;942921165;world;0.104119189;0.011141487;0.00124841;0.0003741;-0.001935552;0.101203911;0.994863808
2024/05/03/13:00:40.943140;96809;1714766440;942963644;world;0.104710639;0.011363596;0.00123417;0.000415348;-0.002102885;0.10196539;0.994785726
2024/05/03/13:00:40.953657;96810;1714766440;953396590;world;0.105362192;0.0115472;0.001213137;0.000241394;-0.002092398;0.102744885;0.994705498
2024/05/03/13:00:40.963278;96811;1714766440;963034351;world;0.105975218;0.011682793;0.001183151;0.000424283;-0.001873482;0.103323027;0.994646072
2024/05/03/13:00:40.983522;96812;1714766440;983213420;world;0.106304869;0.011455893;0.001298619;0.000545636;-0.000921975;0.104475044;0.994526923
2024/05/03/13:00:41.003429;96813;1714766441;3072609;world;0.106445298;0.0112876;0.001324942;0.000469423;-0.000343651;0.104944102;0.994477987
2024/05/03/13:00:41.013443;96814;1714766441;13136380;world;0.107161582;0.011316605;0.001341387;0.000170678;-4.64E-05;0.105670683;0.994401157
2024/05/03/13:00:41.053517;96815;1714766441;53021220;world;0.10790059;0.011541162;0.001303174;0.000270785;-0.00012124;0.10636238;0.994327366
2024/05/03/13:00:41.053528;96816;1714766441;53054973;world;0.108660385;0.011972596;0.001321598;0.00038172;-0.000793387;0.107058942;0.994252264
2024/05/03/13:00:41.063524;96817;1714766441;63209200;world;0.10905014;0.012142658;0.001277739;0.000355957;-0.001238253;0.107133843;0.994243801
2024/05/03/13:00:41.073522;96818;1714766441;73225456;world;0.109952196;0.012595823;0.001190127;0.00019754;-0.002238496;0.107379228;0.994215667
2024/05/03/13:00:41.093260;96819;1714766441;92953278;world;0.110882089;0.012651501;0.001162057;-0.000237234;-0.002137201;0.108122148;0.99413538
2024/05/03/13:00:41.113369;96820;1714766441;113036157;world;0.111168973;0.012650068;0.001166799;-0.000315639;-0.002118703;0.108468711;0.99409759
2024/05/03/13:00:41.123517;96821;1714766441;122849818;world;0.111652747;0.012684945;0.001229206;-0.000218146;-0.001404994;0.10946884;0.993989229
2024/05/03/13:00:41.153314;96822;1714766441;152943850;world;0.112091668;0.012627261;0.001352462;-0.000243574;-0.000780929;0.110350095;0.993892431
2024/05/03/13:00:41.153322;96823;1714766441;152981510;world;0.112718724;0.012603925;0.001435369;-0.000263401;-0.000641981;0.111281186;0.993788779
2024/05/03/13:00:41.163513;96824;1714766441;163140280;world;0.113392569;0.012752076;0.001457232;-0.000206767;-0.000886979;0.111945324;0.993714035
2024/05/03/13:00:41.183289;96825;1714766441;183043049;world;0.113722019;0.012858331;0.001485149;-0.000313329;-0.000997135;0.112256423;0.993678749
2024/05/03/13:00:41.213671;96826;1714766441;213208434;world;0.11465998;0.013087907;0.001498448;-0.000415317;-0.001044124;0.113199979;0.993571639
2024/05/03/13:00:41.213762;96827;1714766441;213243209;world;0.115286507;0.013246618;0.001412687;-0.000312591;-0.000923774;0.113859825;0.993496418
2024/05/03/13:00:41.243719;96828;1714766441;243398516;world;0.115690231;0.013481216;0.001375607;-0.000210451;-0.001359324;0.113982029;0.993481934
2024/05/03/13:00:41.253357;96829;1714766441;253008074;world;0.116841756;0.013885483;0.001338223;-4.30E-05;-0.001709874;0.114671618;0.993402064
2024/05/03/13:00:41.273570;96830;1714766441;273282472;world;0.117572829;0.014246119;0.001313934;2.54E-05;-0.001992008;0.115120731;0.993349493
2024/05/03/13:00:41.283752;96831;1714766441;283065246;world;0.117897063;0.014236736;0.001291328;-0.000180044;-0.002019302;0.115265772;0.993332684
2024/05/03/13:00:41.293373;96832;1714766441;293066490;world;0.118484966;0.014279546;0.001371987;-2.98E-05;-0.001580905;0.116234012;0.993220568
2024/05/03/13:00:41.313775;96833;1714766441;313345377;world;0.118801877;0.014082957;0.001395507;-9.40E-06;-0.000543101;0.116949767;0.993137717
2024/05/03/13:00:41.324034;96834;1714766441;323603884;world;0.119627535;0.01436877;0.001600685;0.000236718;-0.000868221;0.118130617;0.992997646
2024/05/03/13:00:41.343509;96835;1714766441;343211209;world;0.120321512;0.014591482;0.001480545;0.000221081;-0.001187813;0.118705809;0.992928803
2024/05/03/13:00:41.363944;96836;1714766441;363566559;world;0.120897114;0.014765651;0.001425762;0.000323334;-0.001009653;0.119110629;0.992880404
2024/05/03/13:00:41.373260;96837;1714766441;372988725;world;0.121198967;0.014844129;0.001419449;0.000226684;-0.000948189;0.119454786;0.992839158
2024/05/03/13:00:41.383748;96838;1714766441;383422572;world;0.121901043;0.01498833;0.001457334;0.000312337;-0.00094739;0.120008804;0.9927724
2024/05/03/13:00:41.403369;96839;1714766441;403071574;world;0.122637168;0.015257908;0.001364171;0.000342239;-0.001084591;0.12056829;0.992704391
2024/05/03/13:00:41.423471;96840;1714766441;423117014;world;0.123378724;0.015509626;0.001372357;0.000110696;-0.001450326;0.121145949;0.992633641
2024/05/03/13:00:41.453296;96841;1714766441;452982565;world;0.12372037;0.015451435;0.001380548;-2.94E-05;-0.001609008;0.122153185;0.992509961
2024/05/03/13:00:41.453320;96842;1714766441;453016158;world;0.124143638;0.015534221;0.001548626;2.40E-05;-0.001085134;0.122521847;0.992465258
2024/05/03/13:00:41.463402;96843;1714766441;463123341;world;0.124730498;0.015720066;0.001532219;3.14E-06;-0.001219939;0.123228602;0.992377639
2024/05/03/13:00:41.484122;96844;1714766441;483924525;world;0.125947341;0.016240619;0.001459467;8.27E-05;-0.002054708;0.124056257;0.992273033
2024/05/03/13:00:41.503271;96845;1714766441;502994854;world;0.126732633;0.016538136;0.001344346;8.54E-05;-0.002267438;0.124248318;0.992248535
2024/05/03/13:00:41.523658;96846;1714766441;523380308;world;0.12707004;0.016630301;0.001284251;-1.11E-06;-0.002305532;0.124448128;0.992223442
2024/05/03/13:00:41.523682;96847;1714766441;523421435;world;0.127689958;0.016773403;0.001285739;-0.000189719;-0.002212459;0.125244215;0.992123425
2024/05/03/13:00:41.553588;96848;1714766441;553296439;world;0.127912953;0.016353941;0.001312727;0.000126355;-0.001211741;0.126811177;0.991926134
2024/05/03/13:00:41.563560;96849;1714766441;563107040;world;0.128695637;0.016693594;0.001567001;0.000245666;-0.0011181;0.127513185;0.99183625
2024/05/03/13:00:41.573395;96850;1714766441;573072831;world;0.129029796;0.016903911;0.001512397;-0.000111414;-0.001610637;0.127416953;0.991847992
2024/05/03/13:00:41.593439;96851;1714766441;593104142;world;0.12969172;0.017051285;0.001537128;-0.000122644;-0.001420875;0.128105372;0.991759598
2024/05/03/13:00:41.603502;96852;1714766441;603231644;world;0.130593315;0.017216692;0.001467579;-0.000214835;-0.002296348;0.128925964;0.991651595
2024/05/03/13:00:41.624036;96853;1714766441;623662746;world;0.131246656;0.017400078;0.001508959;-5.72E-05;-0.002187276;0.129376665;0.991593122
2024/05/03/13:00:41.663309;96854;1714766441;663027303;world;0.131970584;0.017488902;0.001478865;-0.000218561;-0.002301835;0.130328149;0.99146831
2024/05/03/13:00:41.663342;96855;1714766441;663068501;world;0.132582843;0.017657021;0.001424009;-0.000166689;-0.002650287;0.130835161;0.99140054
2024/05/03/13:00:41.673348;96856;1714766441;673028622;world;0.133171916;0.017748209;0.001415027;0.00038764;-0.00183914;0.131805807;0.99127382
2024/05/03/13:00:41.683689;96857;1714766441;683213251;world;0.133678138;0.018011775;0.001623051;0.001349497;-0.001829714;0.132557273;0.991172731
2024/05/03/13:00:41.693587;96858;1714766441;693316515;world;0.13384065;0.01808678;0.001641069;0.000691217;-0.001228526;0.132660285;0.991160572
2024/05/03/13:00:41.723557;96859;1714766441;723146601;world;0.134372771;0.018178789;0.001608953;0.000241551;-0.001068537;0.133161724;0.991093814
2024/05/03/13:00:41.733394;96860;1714766441;733108461;world;0.135169759;0.018506363;0.001558554;0.000135673;-0.001623783;0.13344574;0.991054833
2024/05/03/13:00:41.753739;96861;1714766441;753282371;world;0.135913134;0.018676395;0.001610104;0.000362281;-0.001571958;0.134372517;0.990929663
2024/05/03/13:00:41.764212;96862;1714766441;763540656;world;0.13688314;0.018903812;0.001513779;6.80E-05;-0.002647435;0.135317028;0.990798831
2024/05/03/13:00:41.783450;96863;1714766441;783121319;world;0.137485027;0.018856445;0.001566799;0.000391473;-0.001991715;0.136195093;0.990680039
2024/05/03/13:00:41.793583;96864;1714766441;793242661;world;0.138050586;0.018948052;0.001629522;7.77E-05;-0.001551065;0.136764452;0.990602374
2024/05/03/13:00:41.813769;96865;1714766441;813382157;world;0.138354734;0.019014081;0.001562163;-2.45E-05;-0.001804397;0.1371658;0.990546465
2024/05/03/13:00:41.833629;96866;1714766441;833230384;world;0.138907075;0.019252861;0.001591422;-0.000246361;-0.001819359;0.137578011;0.990489244
2024/05/03/13:00:41.843402;96867;1714766441;843005634;world;0.139269218;0.019584872;0.001718525;9.58E-05;-0.000824402;0.137917772;0.990443408
2024/05/03/13:00:41.853652;96868;1714766441;853304637;world;0.139888585;0.01972454;0.001766993;0.000487728;-0.000727439;0.13884148;0.990314305
2024/05/03/13:00:41.873154;96869;1714766441;872887366;world;0.140499458;0.019979667;0.001700229;-0.00034982;-0.001455841;0.139229387;0.990259051
2024/05/03/13:00:41.893360;96870;1714766441;893072276;world;0.141566619;0.020316534;0.001864746;8.39E-05;-0.001397505;0.140828848;0.990032971
2024/05/03/13:00:41.903322;96871;1714766441;903003168;world;0.141975656;0.020422844;0.001862862;0.000533696;-0.001399409;0.141236559;0.989974797
2024/05/03/13:00:41.933300;96872;1714766441;932915579;world;0.142885372;0.020545488;0.001673967;0.00056864;-0.001881929;0.141776919;0.989896655
2024/05/03/13:00:41.933329;96873;1714766441;932963819;world;0.143615812;0.020612737;0.001702008;0.0006102;-0.001757955;0.142954886;0.989727557
2024/05/03/13:00:41.963862;96874;1714766441;963510159;world;0.143950418;0.020704629;0.001693242;0.000565142;-0.001845111;0.14340198;0.989662647
2024/05/03/13:00:41.973443;96875;1714766441;973098537;world;0.144362539;0.021023076;0.001573387;0.000496663;-0.001537223;0.143341169;0.989672065
2024/05/03/13:00:41.983238;96876;1714766441;982942155;world;0.144684374;0.021236874;0.001767273;-0.000252688;-0.001165286;0.143504977;0.989648938
2024/05/03/13:00:41.993352;96877;1714766441;993061830;world;0.145264968;0.021319812;0.001837106;-0.000598134;-0.000807035;0.144156501;0.989554405
2024/05/03/13:00:42.013381;96878;1714766442;13061840;world;0.145636529;0.021438571;0.001662841;-0.000437642;-0.001084999;0.144930914;0.989441156
2024/05/03/13:00:42.033811;96879;1714766442;33497871;world;0.146459252;0.021677855;0.001660835;8.25E-06;-0.001263452;0.145978525;0.989287019
2024/05/03/13:00:42.043402;96880;1714766442;43082062;world;0.147331446;0.021973234;0.001643146;0.000134938;-0.00169266;0.146731317;0.989174962
2024/05/03/13:00:42.083567;96881;1714766442;83135562;world;0.148169354;0.022224661;0.001636897;0.000405805;-0.001755621;0.147242606;0.989098787
2024/05/03/13:00:42.083586;96882;1714766442;83168433;world;0.148579493;0.022214398;0.001585101;-3.92E-05;-0.002367806;0.147492573;0.989060402
2024/05/03/13:00:42.093351;96883;1714766442;93059461;world;0.14970164;0.022416206;0.001667183;0.000457736;-0.001975907;0.148766607;0.988870263
2024/05/03/13:00:42.103647;96884;1714766442;103216667;world;0.149883509;0.022480696;0.001708426;0.00045987;-0.00196618;0.149199799;0.988805056
2024/05/03/13:00:42.123251;96885;1714766442;123017838;world;0.150134981;0.022858862;0.001786265;-0.000561627;-0.001663322;0.149219185;0.988802612
2024/05/03/13:00:42.144460;96886;1714766442;144100041;world;0.150596827;0.023089005;0.001886792;-0.000228449;-0.001349877;0.150077462;0.988673389
2024/05/03/13:00:42.173410;96887;1714766442;173088335;world;0.150927454;0.022807267;0.001631799;7.34E-05;-0.000336682;0.150459707;0.988616168
2024/05/03/13:00:42.173437;96888;1714766442;173122359;world;0.151715726;0.023136411;0.001730477;-0.000127885;-0.000943065;0.151424423;0.988468468
2024/05/03/13:00:42.183234;96889;1714766442;182919280;world;0.15244706;0.023525342;0.001638906;0.000248233;-0.001548673;0.151860923;0.988400698
2024/05/03/13:00:42.193637;96890;1714766442;193347945;world;0.152843982;0.023754518;0.001683425;0.000461955;-0.001733281;0.152180776;0.988351047
2024/05/03/13:00:42.213430;96891;1714766442;213083612;world;0.154000521;0.024146594;0.001898669;-0.000294537;-0.001950151;0.153128996;0.988204241
2024/05/03/13:00:42.233611;96892;1714766442;233282127;world;0.154365808;0.024253018;0.001824475;-0.000345002;-0.001968197;0.153285906;0.988179922
2024/05/03/13:00:42.243542;96893;1714766442;243251522;world;0.155111;0.02457808;0.001743751;-0.000114301;-0.002334987;0.153946981;0.988076329
2024/05/03/13:00:42.283257;96894;1714766442;282989812;world;0.155724749;0.024862126;0.001802076;1.15E-05;-0.002573687;0.154803231;0.98794204
2024/05/03/13:00:42.283283;96895;1714766442;283024086;world;0.156091273;0.025040014;0.001928685;-0.000425208;-0.001858776;0.155385822;0.987852097
2024/05/03/13:00:42.293689;96896;1714766442;293398264;world;0.156541467;0.025068661;0.002023262;-0.000514279;-0.001292907;0.156200349;0.987724423
2024/05/03/13:00:42.313363;96897;1714766442;313109591;world;0.156908944;0.024998698;0.001797645;-9.66E-05;-0.001020358;0.157004103;0.987597406
2024/05/03/13:00:42.323642;96898;1714766442;323379734;world;0.15724799;0.025113191;0.001715631;0.000137434;-0.000986435;0.157227263;0.987561941
2024/05/03/13:00:42.343512;96899;1714766442;343174660;world;0.158245176;0.025626652;0.001932885;-0.000150472;-0.001410758;0.157807454;0.987468958
2024/05/03/13:00:42.373360;96900;1714766442;373036185;world;0.159056738;0.025910467;0.001876028;-0.000342948;-0.001879665;0.158285365;0.987391651
2024/05/03/13:00:42.373382;96901;1714766442;373074437;world;0.159763485;0.026186883;0.001827772;-0.00046855;-0.002187472;0.159045592;0.987268686
2024/05/03/13:00:42.394017;96902;1714766442;393538792;world;0.160361364;0.026461005;0.001840576;-0.000374026;-0.002427677;0.159858212;0.98713696
2024/05/03/13:00:42.403734;96903;1714766442;403403017;world;0.161028475;0.026717175;0.001819918;-0.000165367;-0.00253581;0.160471439;0.987037301
2024/05/03/13:00:42.423631;96904;1714766442;423266565;world;0.1617212;0.026838431;0.001759918;-8.36E-06;-0.002624686;0.161344498;0.986894727
2024/05/03/13:00:42.443187;96905;1714766442;442931789;world;0.162223756;0.027103696;0.001793328;4.15E-05;-0.002763016;0.162008137;0.986785591
2024/05/03/13:00:42.453618;96906;1714766442;453292508;world;0.162384868;0.027154341;0.001990952;0.00028094;-0.002361467;0.162318304;0.986735582
2024/05/03/13:00:42.493343;96907;1714766442;493129457;world;0.162965059;0.027115367;0.002181315;0.000404514;-0.001122624;0.164029777;0.986454725
2024/05/03/13:00:42.493373;96909;1714766442;493175173;world;0.163916469;0.027276605;0.002148957;-0.000117643;-0.001282493;0.164700449;0.986342847
2024/05/03/13:00:42.513594;96910;1714766442;513243965;world;0.16452691;0.027457949;0.001912288;-0.000251798;-0.001347595;0.165198639;0.986259341
2024/05/03/13:00:42.523717;96911;1714766442;523350096;world;0.165599898;0.028043553;0.001875653;-0.000808238;-0.00285978;0.165615395;0.986185908
2024/05/03/13:00:42.543451;96912;1714766442;543201521;world;0.166348264;0.028294925;0.001894521;-0.000526594;-0.002879888;0.166489273;0.986038923
2024/05/03/13:00:42.573461;96913;1714766442;573073562;world;0.166837841;0.028437562;0.001943626;-0.000423208;-0.002661176;0.167179227;0.985922813
2024/05/03/13:00:42.573489;96914;1714766442;573107306;world;0.167161956;0.028625138;0.001961116;-4.02E-05;-0.002554716;0.167704687;0.985833943
2024/05/03/13:00:42.593529;96915;1714766442;593133455;world;0.167801827;0.029084878;0.001934296;0.000260039;-0.003098548;0.168339148;0.98572427
2024/05/03/13:00:42.603598;96916;1714766442;603252173;world;0.168292493;0.029216915;0.002232936;0.000276627;-0.00169944;0.16910781;0.985596061
2024/05/03/13:00:42.623724;96917;1714766442;623353416;world;0.16866757;0.029055351;0.002297341;-0.000293178;-0.001120039;0.1697025;0.985494733
2024/05/03/13:00:42.643342;96918;1714766442;643041792;world;0.169202879;0.028988779;0.002410596;-0.000747622;-0.000606079;0.170423567;0.985370398
2024/05/03/13:00:42.653370;96919;1714766442;653116335;world;0.169746488;0.029233504;0.002416192;-0.000619819;-0.000432037;0.171124473;0.985249102
2024/05/03/13:00:42.673339;96920;1714766442;673051725;world;0.170360833;0.029527873;0.002317392;-0.000395783;-0.000783201;0.171631932;0.985160828
2024/05/03/13:00:42.683554;96921;1714766442;683260850;world;0.171357587;0.03016182;0.00208385;-0.000763587;-0.002521652;0.171472177;0.985185444
2024/05/03/13:00:42.703404;96922;1714766442;703069152;world;0.172094852;0.030456312;0.001946883;-0.00058956;-0.002724788;0.171893016;0.985111654
2024/05/03/13:00:42.713522;96923;1714766442;713308374;world;0.172442108;0.03068885;0.001978981;-0.000433072;-0.003120606;0.172278509;0.985043287
2024/05/03/13:00:42.733569;96924;1714766442;733251018;world;0.172872558;0.030611387;0.002366044;-0.000593027;-0.001571114;0.173582196;0.984818041
2024/05/03/13:00:42.753542;96925;1714766442;753162250;world;0.173119932;0.030600658;0.002494661;-0.000614792;-0.000485419;0.174419612;0.984671116
2024/05/03/13:00:42.793433;96926;1714766442;793015755;world;0.173739314;0.030816564;0.002481871;-0.000794644;-0.00050128;0.175087184;0.984552503
2024/05/03/13:00:42.793471;96927;1714766442;793049348;world;0.174382448;0.03099147;0.002513181;-0.000830268;-0.000588626;0.175783977;0.984428227
2024/05/03/13:00:42.803393;96928;1714766442;803083463;world;0.175018355;0.031165887;0.002464416;-0.000577275;-0.000523035;0.176395223;0.98431915
2024/05/03/13:00:42.813663;96929;1714766442;813286261;world;0.175630167;0.03138797;0.002482529;-0.000515607;-0.000472248;0.176992863;0.984211862
2024/05/03/13:00:42.823303;96930;1714766442;822976005;world;0.17622216;0.03157213;0.002555131;-0.000641356;-0.000504751;0.17781508;0.984063625
2024/05/03/13:00:42.853322;96931;1714766442;853033142;world;0.177120626;0.032197904;0.0021296;-0.000875778;-0.002617515;0.177704215;0.984080136
2024/05/03/13:00:42.853346;96932;1714766442;853065112;world;0.177644253;0.032523863;0.002099515;-0.001079252;-0.00313434;0.177599236;0.984097302
2024/05/03/13:00:42.873661;96933;1714766442;873266748;world;0.178217709;0.032742888;0.002153411;-0.001077317;-0.002744343;0.178561553;0.983924329
2024/05/03/13:00:42.884263;96934;1714766442;883862167;world;0.178371221;0.032512985;0.002547724;-0.000932217;-0.00064968;0.180151582;0.983638287
2024/05/03/13:00:42.903550;96935;1714766442;903295975;world;0.178953469;0.032711826;0.00254181;-0.001013119;-0.000697457;0.180617929;0.983552575
2024/05/03/13:00:42.923670;96936;1714766442;923344781;world;0.179656029;0.033026803;0.002488992;-0.000939523;-0.001059788;0.181116238;0.983460724
2024/05/03/13:00:42.933570;96937;1714766442;933264210;world;0.180327326;0.033293772;0.002494112;-0.001146921;-0.001291656;0.181565821;0.983377337
2024/05/03/13:00:42.953546;96938;1714766442;953292858;world;0.180989265;0.03345168;0.002514344;-0.001155718;-0.001152341;0.182370558;0.983228564
2024/05/03/13:00:43.013368;96939;1714766443;13036083;world;0.181603864;0.033707812;0.002458906;-0.000798669;-0.001543318;0.183017984;0.983108103
2024/05/03/13:00:43.013396;96942;1714766443;13079234;world;0.1831;0.034441616;0.002265469;-0.000629268;-0.001894141;0.184346065;0.982859433
2024/05/03/13:00:43.023490;96943;1714766443;23094053;world;0.183697805;0.034588881;0.002566159;-0.000718409;-0.001728764;0.185595527;0.982624531
2024/05/03/13:00:43.043423;96944;1714766443;43170365;world;0.184149608;0.034756914;0.00265217;-0.000830472;-0.001231367;0.186318725;0.982488334
2024/05/03/13:00:43.063973;96945;1714766443;63162797;world;0.184472382;0.034893937;0.002613099;-0.000658897;-0.001233018;0.186425507;0.982468188
2024/05/03/13:00:43.093608;96946;1714766443;93319004;world;0.18513383;0.035230074;0.002568254;-0.000576661;-0.001621113;0.186815321;0.982393622
2024/05/03/13:00:43.093635;96947;1714766443;93353599;world;0.185669616;0.035393666;0.002579813;-0.000488569;-0.001330124;0.187625393;0.982239604
2024/05/03/13:00:43.103378;96948;1714766443;103051964;world;0.18636027;0.035597481;0.00259189;-0.000500466;-0.00149239;0.188328728;0.982104838
2024/05/03/13:00:43.123468;96949;1714766443;123171010;world;0.186968714;0.035908017;0.002642552;-0.000555153;-0.001599344;0.189131096;0.981950402
2024/05/03/13:00:43.133186;96950;1714766443;132935410;world;0.187409669;0.036083587;0.002373818;-0.000687266;-0.002573456;0.189535841;0.981870174
2024/05/03/13:00:43.163368;96951;1714766443;163061711;world;0.188600168;0.036850102;0.002325421;-0.000486347;-0.003550477;0.18931976;0.981909037
2024/05/03/13:00:43.173299;96952;1714766443;172992481;world;0.188959852;0.036736753;0.002633784;-0.000590978;-0.001931397;0.190711483;0.981644094
2024/05/03/13:00:43.193685;96953;1714766443;193202809;world;0.189368203;0.036915068;0.002854359;-0.000643894;-0.001256537;0.191783294;0.981436312
2024/05/03/13:00:43.203262;96954;1714766443;202961147;world;0.189626768;0.036977783;0.002837452;-0.00056639;-0.000990209;0.192168266;0.98136133
2024/05/03/13:00:43.214637;96955;1714766443;214356427;world;0.190235496;0.037261777;0.002807863;-0.000426686;-0.001083221;0.192875549;0.98122257
2024/05/03/13:00:43.233384;96956;1714766443;233083890;world;0.190884456;0.037528254;0.002831166;-0.000464414;-0.001317962;0.193429768;0.981113195
2024/05/03/13:00:43.243427;96957;1714766443;243143884;world;0.191504702;0.037666447;0.002700591;-0.00044804;-0.001039419;0.193716004;0.981056988
2024/05/03/13:00:43.263892;96958;1714766443;263513751;world;0.192130342;0.037816282;0.002768208;-0.000914257;-0.001030226;0.194297984;0.980941653
2024/05/03/13:00:43.293640;96959;1714766443;293264207;world;0.192704171;0.038127132;0.002495544;-0.000775501;-0.002037503;0.194562167;0.980887771
2024/05/03/13:00:43.303555;96960;1714766443;303272400;world;0.193433493;0.038322031;0.002732018;-0.000841636;-0.001675368;0.195445567;0.980712771
2024/05/03/13:00:43.313648;96961;1714766443;313352374;world;0.193874478;0.038526192;0.002830261;-0.000847116;-0.000999232;0.19630985;0.98054105
2024/05/03/13:00:43.323334;96962;1714766443;323124460;world;0.194553137;0.038940966;0.002832129;-0.000562864;-0.001251327;0.197462261;0.980309546
2024/05/03/13:00:43.333465;96963;1714766443;333192954;world;0.194844514;0.03899435;0.002836498;-0.000573731;-0.001204445;0.197733045;0.980255067
2024/05/03/13:00:43.353728;96964;1714766443;353369068;world;0.195489898;0.039349779;0.00281151;-0.000445501;-0.001418454;0.198459014;0.980108082
2024/05/03/13:00:43.373487;96965;1714766443;373208162;world;0.196086556;0.0395233;0.002772741;-0.000568436;-0.00148777;0.198895693;0.98001945
2024/05/03/13:00:43.393652;96966;1714766443;393276664;world;0.196610942;0.039853062;0.002639961;-8.45E-05;-0.001649357;0.199469224;0.979902685
2024/05/03/13:00:43.403214;96967;1714766443;402944632;world;0.197487235;0.040341005;0.00245578;-0.000623545;-0.002773445;0.199638978;0.979865372
2024/05/03/13:00:43.423763;96968;1714766443;423366807;world;0.198268071;0.040660601;0.00246149;-0.000464162;-0.003425961;0.200269774;0.979734719
2024/05/03/13:00:43.433342;96969;1714766443;432973510;world;0.198705465;0.040692125;0.002774246;-0.000234437;-0.002057542;0.201376453;0.979511738
2024/05/03/13:00:43.453369;96970;1714766443;453083399;world;0.199191064;0.040902514;0.002869505;-0.000286587;-0.001749643;0.202075139;0.979368448
2024/05/03/13:00:43.473147;96971;1714766443;472873547;world;0.19984208;0.041171432;0.003000059;-0.000415177;-0.001783411;0.202889904;0.979199827
2024/05/03/13:00:43.503442;96972;1714766443;503067652;world;0.200506553;0.041600421;0.00259283;-0.000218182;-0.002609826;0.203034624;0.979168057
2024/05/03/13:00:43.503466;96973;1714766443;503100573;world;0.20099394;0.041941777;0.002629417;0.000317447;-0.003360448;0.203325436;0.979105413
2024/05/03/13:00:43.513269;96974;1714766443;512971467;world;0.201680407;0.042272903;0.002517648;0.000441156;-0.003457631;0.203940094;0.978977203
2024/05/03/13:00:43.533448;96975;1714766443;533042724;world;0.202303037;0.042346139;0.002510355;0.000596272;-0.002895072;0.204969659;0.978763938
2024/05/03/13:00:43.543568;96976;1714766443;543269511;world;0.202832907;0.042465217;0.002526733;0.000890266;-0.002319612;0.205960304;0.978557169
2024/05/03/13:00:43.573289;96977;1714766443;572940819;world;0.203335553;0.042401031;0.002772729;8.37E-05;-0.002144165;0.206704512;0.978401065
2024/05/03/13:00:43.573322;96978;1714766443;572985432;world;0.203660578;0.042675436;0.002813428;0.000606651;-0.001802857;0.207060173;0.97832644
2024/05/03/13:00:43.593718;96979;1714766443;593424535;world;0.204212829;0.042917054;0.002920636;0.000251215;-0.002103796;0.207577303;0.97821635
2024/05/03/13:00:43.603501;96980;1714766443;603207248;world;0.204869196;0.043181401;0.00293268;0.000138374;-0.002196367;0.208021402;0.978121877
2024/05/03/13:00:43.623543;96981;1714766443;623089319;world;0.205492914;0.043534394;0.00295742;0.000261029;-0.0021504;0.208936736;0.977926791
2024/05/03/13:00:43.643672;96982;1714766443;643342411;world;0.206083164;0.043816268;0.002882523;0.000357666;-0.002255851;0.209492132;0.977807641
2024/05/03/13:00:43.653636;96983;1714766443;653321093;world;0.20664984;0.044108409;0.002597646;-5.34E-05;-0.002940189;0.209958583;0.977705896
2024/05/03/13:00:43.673988;96984;1714766443;673445500;world;0.207481533;0.044567529;0.002622962;7.60E-05;-0.003534961;0.210389152;0.977611303
2024/05/03/13:00:43.713667;96985;1714766443;713154206;world;0.207795396;0.044535365;0.002539646;-0.000359411;-0.003084026;0.211006045;0.977479875
2024/05/03/13:00:43.713740;96986;1714766443;713189202;world;0.208015859;0.044618417;0.002529783;-0.000248452;-0.002913384;0.211500019;0.9773736
2024/05/03/13:00:43.723406;96987;1714766443;723031478;world;0.208830595;0.045033999;0.002847433;0.000165665;-0.002157182;0.21227783;0.977207005
2024/05/03/13:00:43.733260;96988;1714766443;732964814;world;0.209446922;0.0452369;0.002858815;-0.000150125;-0.002301056;0.212815925;0.977089584
2024/05/03/13:00:43.743296;96989;1714766443;743034401;world;0.210093737;0.045511696;0.002981824;-0.000218478;-0.002687028;0.2136347;0.976909876
2024/05/03/13:00:43.783370;96990;1714766443;783041614;world;0.210677743;0.045840144;0.002928112;8.71E-06;-0.002820463;0.214204684;0.976784766
2024/05/03/13:00:43.783398;96991;1714766443;783075047;world;0.211348131;0.046274535;0.002960679;0.000204377;-0.003101858;0.215177521;0.97657007
2024/05/03/13:00:43.803599;96992;1714766443;803301004;world;0.211943835;0.046606578;0.00280029;-3.91E-05;-0.003380901;0.215743572;0.976444244
2024/05/03/13:00:43.813379;96993;1714766443;813087174;world;0.212657258;0.047034532;0.00281952;0.000130596;-0.00373948;0.216103584;0.976363301
2024/05/03/13:00:43.823532;96994;1714766443;823218808;world;0.212821677;0.046973433;0.00298287;-4.10E-05;-0.002894964;0.216592669;0.976257861
