time;.header.seq;.header.stamp.secs;.header.stamp.nsecs;.header.frame_id;.pose.position.x;.pose.position.y;.pose.position.z;.pose.orientation.x;.pose.orientation.y;.pose.orientation.z;.pose.orientation.w
2024/05/03/13:05:02.263345;112408;1714766702;262917688;world;0.000450673;-0.000858154;0.00057255;-0.00198297;-0.002430403;-0.002838762;0.999991059
2024/05/03/13:05:02.263385;112409;1714766702;262956692;world;0.000457471;-0.000838144;0.000574534;-0.001839993;-0.002405518;-0.002856664;0.999991417
2024/05/03/13:05:02.273354;112410;1714766702;273048263;world;0.00045066;-0.000871903;0.000585303;-0.00189559;-0.002448826;-0.002887811;0.999991059
2024/05/03/13:05:02.293347;112411;1714766702;293070107;world;0.000460275;-0.000867032;0.000597051;-0.001821299;-0.002446854;-0.002826907;0.999991417
2024/05/03/13:05:02.313539;112412;1714766702;313096428;world;0.000453342;-0.000836028;0.000595683;-0.001819404;-0.002431213;-0.002780419;0.999991536
2024/05/03/13:05:02.333296;112413;1714766702;332962966;world;0.00043074;-0.000867319;0.000579679;-0.001837958;-0.002297011;-0.002814843;0.999991775
2024/05/03/13:05:02.343641;112414;1714766702;343365049;world;0.000444436;-0.000849863;0.000559981;-0.001960438;-0.002364313;-0.00289775;0.999991059
2024/05/03/13:05:02.363366;112415;1714766702;363086154;world;0.000443064;-0.000854229;0.000605537;-0.001785746;-0.002412125;-0.002819802;0.999991536
2024/05/03/13:05:02.373552;112416;1714766702;373284343;world;0.000438817;-0.000864507;0.000577345;-0.001847912;-0.00233971;-0.002775806;0.999991775
2024/05/03/13:05:02.383242;112417;1714766702;382992303;world;0.000465129;-0.000856073;0.000570113;-0.001857405;-0.002373866;-0.002870357;0.999991417
2024/05/03/13:05:02.403434;112418;1714766702;402986009;world;0.000461765;-0.000842126;0.000581422;-0.001835529;-0.002408458;-0.002824673;0.999991417
2024/05/03/13:05:02.423705;112419;1714766702;423163020;world;0.000441896;-0.000880474;0.000597362;-0.001814492;-0.002415875;-0.002844869;0.999991417
2024/05/03/13:05:02.443163;112420;1714766702;442898711;world;0.000462217;-0.0008436;0.000583711;-0.001798022;-0.002423286;-0.002847175;0.999991417
2024/05/03/13:05:02.453100;112421;1714766702;452931491;world;0.000466507;-0.000864928;0.000563778;-0.001894579;-0.00239123;-0.002865548;0.999991298
2024/05/03/13:05:02.473250;112422;1714766702;472949183;world;0.000448266;-0.000857633;0.000611062;-0.001720052;-0.002390722;-0.002770704;0.999991894
2024/05/03/13:05:02.483824;112423;1714766702;483220821;world;0.000441574;-0.00087479;0.000604982;-0.001708807;-0.002392935;-0.002777841;0.999991894
2024/05/03/13:05:02.503747;112424;1714766702;503441484;world;0.000446908;-0.000835823;0.00058521;-0.001807811;-0.002344329;-0.002786628;0.999991775
2024/05/03/13:05:02.513535;112425;1714766702;513228142;world;0.000457466;-0.000862782;0.00058154;-0.001863588;-0.002400873;-0.002846875;0.999991417
2024/05/03/13:05:02.533462;112426;1714766702;532979933;world;0.000472276;-0.000868451;0.000585149;-0.001851809;-0.002419604;-0.002884673;0.999991179
2024/05/03/13:05:02.543445;112427;1714766702;543082665;world;0.000448594;-0.000866367;0.000602811;-0.001751394;-0.002428904;-0.002888757;0.999991417
2024/05/03/13:05:02.583809;112428;1714766702;583241749;world;0.000442429;-0.000846226;0.000595701;-0.001849263;-0.002434044;-0.002772154;0.999991536
2024/05/03/13:05:02.583836;112429;1714766702;583277897;world;0.000439039;-0.000838859;0.000588422;-0.001815186;-0.002330761;-0.002762249;0.999991894
2024/05/03/13:05:02.593170;112430;1714766702;592905387;world;0.000463467;-0.000849272;0.000554964;-0.001835272;-0.002360093;-0.002851481;0.999991536
2024/05/03/13:05:02.613739;112431;1714766702;613189403;world;0.000462003;-0.000849041;0.000589773;-0.001779023;-0.002402266;-0.002809874;0.999991655
2024/05/03/13:05:02.623666;112432;1714766702;623422656;world;0.000457451;-0.000824071;0.000589082;-0.001925725;-0.002394827;-0.002771902;0.999991417
2024/05/03/13:05:02.643262;112433;1714766702;643003344;world;0.000452461;-0.000847374;0.000609549;-0.001839839;-0.002395327;-0.002786786;0.999991536
2024/05/03/13:05:02.653715;112434;1714766702;653176358;world;0.000447763;-0.000866864;0.000604854;-0.00183574;-0.002363411;-0.002792812;0.999991655
2024/05/03/13:05:02.673637;112435;1714766702;673325588;world;0.000448506;-0.000861114;0.000595781;-0.001857101;-0.002434094;-0.002830566;0.999991298
2024/05/03/13:05:02.693319;112436;1714766702;693013790;world;0.000444686;-0.000868015;0.000602528;-0.001877277;-0.00241033;-0.002795388;0.999991417
2024/05/03/13:05:02.703302;112437;1714766702;703060669;world;0.000439815;-0.000841586;0.000620024;-0.001764902;-0.002382126;-0.002758899;0.999991775
2024/05/03/13:05:02.723419;112438;1714766702;723116340;world;0.000435833;-0.000837266;0.000582265;-0.001769767;-0.002363786;-0.002777739;0.999991775
2024/05/03/13:05:02.733419;112439;1714766702;733134573;world;0.000439113;-0.000871189;0.000598596;-0.00183355;-0.0023858;-0.002833866;0.999991536
2024/05/03/13:05:02.743680;112440;1714766702;743360747;world;0.000458717;-0.000839861;0.00058178;-0.001768711;-0.00239445;-0.002838739;0.999991536
2024/05/03/13:05:02.783387;112441;1714766702;783092120;world;0.000450462;-0.000848243;0.000576171;-0.001882876;-0.002363276;-0.002840849;0.999991417
2024/05/03/13:05:02.783420;112442;1714766702;783132816;world;0.00044952;-0.000848738;0.000594691;-0.001842434;-0.002407889;-0.002798327;0.999991536
2024/05/03/13:05:02.793529;112443;1714766702;792988001;world;0.000432523;-0.000847058;0.000597191;-0.00176073;-0.002435785;-0.002784573;0.999991655
2024/05/03/13:05:02.813668;112444;1714766702;813346481;world;0.000420699;-0.000871505;0.000607507;-0.001876653;-0.00240311;-0.002752342;0.999991536
2024/05/03/13:05:02.823294;112445;1714766702;823079850;world;0.000447944;-0.000851376;0.00060029;-0.001842501;-0.00235707;-0.002803383;0.999991655
2024/05/03/13:05:02.863474;112446;1714766702;863080035;world;0.00043552;-0.000830799;0.000599262;-0.00172437;-0.002390314;-0.002784164;0.999991775
2024/05/03/13:05:02.863499;112447;1714766702;863116844;world;0.000440612;-0.000858375;0.000582673;-0.001826799;-0.002359588;-0.002847092;0.999991536
2024/05/03/13:05:02.883482;112448;1714766702;883217671;world;0.000466544;-0.000882547;0.000587458;-0.001883651;-0.002355931;-0.002851111;0.999991417
2024/05/03/13:05:02.894098;112449;1714766702;893311506;world;0.000433624;-0.000857419;0.000587634;-0.001835251;-0.002340943;-0.002799341;0.999991655
2024/05/03/13:05:02.903435;112450;1714766702;903148690;world;0.000412252;-0.000846191;0.00062087;-0.001755191;-0.002416575;-0.002743359;0.999991775
2024/05/03/13:05:02.923825;112451;1714766702;923463078;world;0.000461362;-0.000869833;0.00057306;-0.001945127;-0.00242713;-0.002842146;0.999991179
2024/05/03/13:05:02.933494;112452;1714766702;933207396;world;0.000446592;-0.000855364;0.000608834;-0.001882293;-0.002510137;-0.002803845;0.999991179
2024/05/03/13:05:02.953624;112453;1714766702;953297132;world;0.000449048;-0.000872821;0.000591558;-0.001890033;-0.002352786;-0.002805798;0.999991536
2024/05/03/13:05:02.963353;112454;1714766702;963099300;world;0.000462441;-0.000870596;0.000583501;-0.001880924;-0.002370614;-0.002843094;0.999991417
2024/05/03/13:05:02.983117;112455;1714766702;982923828;world;0.000451338;-0.000856452;0.000588073;-0.001825459;-0.002399582;-0.002762857;0.999991655
2024/05/03/13:05:03.003362;112456;1714766703;3092139;world;0.000459839;-0.000835212;0.000582363;-0.001848353;-0.002384551;-0.002792069;0.999991536
2024/05/03/13:05:03.013208;112457;1714766703;12978729;world;0.000427661;-0.000882773;0.000608992;-0.001836103;-0.00235122;-0.002818266;0.999991655
2024/05/03/13:05:03.033514;112458;1714766703;33191886;world;0.000444692;-0.000860266;0.00058883;-0.001912626;-0.002356424;-0.002781795;0.999991536
2024/05/03/13:05:03.053327;112459;1714766703;53043235;world;0.000462541;-0.000839029;0.000610507;-0.001835127;-0.00245265;-0.00282466;0.999991298
2024/05/03/13:05:03.063913;112460;1714766703;63458864;world;0.000452427;-0.000872709;0.000586301;-0.001849507;-0.002383397;-0.002854495;0.999991417
2024/05/03/13:05:03.083893;112461;1714766703;83445788;world;0.000443149;-0.000854021;0.000572942;-0.001945514;-0.002391725;-0.002861197;0.999991179
2024/05/03/13:05:03.093640;112462;1714766703;93299962;world;0.000454292;-0.000859723;0.000602879;-0.001836352;-0.002389621;-0.002790632;0.999991536
2024/05/03/13:05:03.103578;112463;1714766703;103219300;world;0.000455674;-0.00085596;0.000586343;-0.001800013;-0.002393552;-0.002803516;0.999991655
2024/05/03/13:05:03.123344;112464;1714766703;123078816;world;0.000457749;-0.000844833;0.000564889;-0.001846903;-0.002383979;-0.002901583;0.999991298
2024/05/03/13:05:03.144005;112465;1714766703;143661727;world;0.000451153;-0.000841518;0.000608729;-0.001753353;-0.002367774;-0.002762561;0.999991894
2024/05/03/13:05:03.153506;112466;1714766703;153171124;world;0.000448741;-0.000847064;0.0006051;-0.001858522;-0.002473351;-0.002751813;0.999991417
2024/05/03/13:05:03.173473;112467;1714766703;173163558;world;0.00044388;-0.000847202;0.000585061;-0.001840557;-0.002409167;-0.002797725;0.999991536
2024/05/03/13:05:03.194035;112468;1714766703;193566000;world;0.00045383;-0.000849151;0.00059167;-0.001847478;-0.002402502;-0.00280616;0.999991536
2024/05/03/13:05:03.203739;112469;1714766703;203425646;world;0.00043465;-0.000839218;0.000595298;-0.001823593;-0.002329049;-0.002828461;0.999991655
2024/05/03/13:05:03.213264;112470;1714766703;212933101;world;0.00043986;-0.000877762;0.00061848;-0.001795738;-0.002393183;-0.002774871;0.999991655
2024/05/03/13:05:03.233261;112471;1714766703;232980647;world;0.00046608;-0.000858561;0.000583092;-0.00184158;-0.002415744;-0.002846993;0.999991417
2024/05/03/13:05:03.263504;112472;1714766703;263172494;world;0.000458525;-0.000865027;0.000561019;-0.001858847;-0.002358808;-0.002816392;0.999991536
2024/05/03/13:05:03.263529;112473;1714766703;263221646;world;0.000442958;-0.000869048;0.000599691;-0.001831627;-0.002401503;-0.002792729;0.999991536
2024/05/03/13:05:03.283537;112474;1714766703;283162312;world;0.0004381;-0.000859141;0.000603646;-0.001741035;-0.002388733;-0.002732225;0.999991894
2024/05/03/13:05:03.293479;112475;1714766703;293296904;world;0.000443889;-0.000846611;0.000605844;-0.001739737;-0.002322776;-0.002771248;0.999992013
2024/05/03/13:05:03.313604;112476;1714766703;313293325;world;0.000457818;-0.000851983;0.00058409;-0.001814482;-0.002411751;-0.002830568;0.999991417
2024/05/03/13:05:03.323305;112477;1714766703;323013228;world;0.000465419;-0.000843805;0.000576035;-0.001860261;-0.002416037;-0.002774045;0.999991536
2024/05/03/13:05:03.343652;112478;1714766703;343117227;world;0.000437487;-0.000872974;0.000615177;-0.001818653;-0.002363433;-0.002780034;0.999991775
2024/05/03/13:05:03.363770;112479;1714766703;363411212;world;0.000445388;-0.000854095;0.000578399;-0.001867665;-0.002321726;-0.002748387;0.999991775
2024/05/03/13:05:03.403935;112480;1714766703;403484916;world;0.00043224;-0.000873652;0.000599852;-0.001809733;-0.002302982;-0.002772863;0.999991894
2024/05/03/13:05:03.413253;112481;1714766703;413025861;world;0.000440039;-0.000873487;0.000606288;-0.001861695;-0.002366543;-0.002788189;0.999991655
2024/05/03/13:05:03.413319;112482;1714766703;413063211;world;0.000445658;-0.000859976;0.000607554;-0.00181317;-0.002407529;-0.002798325;0.999991536
2024/05/03/13:05:03.423186;112483;1714766703;422901192;world;0.000463573;-0.000854663;0.000592612;-0.00184381;-0.002368077;-0.002852294;0.999991417
2024/05/03/13:05:03.433351;112484;1714766703;433041368;world;0.000463588;-0.000884972;0.00058773;-0.00188184;-0.002382181;-0.002864872;0.999991298
2024/05/03/13:05:03.453634;112485;1714766703;453280184;world;0.000460889;-0.000861404;0.000593125;-0.001792085;-0.002373064;-0.002871326;0.999991536
2024/05/03/13:05:03.463712;112486;1714766703;463447286;world;0.000436282;-0.00087086;0.000564945;-0.001848935;-0.002373201;-0.002816864;0.999991536
2024/05/03/13:05:03.523751;112487;1714766703;523384442;world;0.000469437;-0.000832227;0.000595985;-0.00181901;-0.002461714;-0.002835924;0.999991298
2024/05/03/13:05:03.523782;112489;1714766703;523464102;world;0.00045572;-0.000837464;0.000572781;-0.001892443;-0.002392502;-0.002776297;0.999991536
2024/05/03/13:05:03.533834;112490;1714766703;532986504;world;0.000458801;-0.000826464;0.000573679;-0.001800103;-0.002397503;-0.002805153;0.999991655
2024/05/03/13:05:03.553409;112491;1714766703;553125943;world;0.000440098;-0.000881978;0.00060245;-0.001805841;-0.002381186;-0.002833163;0.999991536
2024/05/03/13:05:03.563492;112492;1714766703;563165873;world;0.00045803;-0.000836231;0.000585232;-0.001797745;-0.002410002;-0.002767358;0.999991655
2024/05/03/13:05:03.573654;112493;1714766703;573327880;world;0.000455437;-0.000830275;0.000572607;-0.001764036;-0.002321908;-0.002821841;0.999991775
2024/05/03/13:05:03.604447;112494;1714766703;604081810;world;0.000440709;-0.000867312;0.000587626;-0.001795573;-0.002302044;-0.002817101;0.999991775
2024/05/03/13:05:03.604496;112495;1714766703;604303336;world;0.000452803;-0.000865381;0.000606675;-0.001827486;-0.002391055;-0.002822631;0.999991536
2024/05/03/13:05:03.624182;112496;1714766703;623324527;world;0.000453843;-0.000846913;0.000570671;-0.001805568;-0.002346448;-0.002827988;0.999991655
2024/05/03/13:05:03.633353;112497;1714766703;633000538;world;0.000458686;-0.000853446;0.000575811;-0.001761262;-0.002378441;-0.002851788;0.999991536
2024/05/03/13:05:03.653162;112498;1714766703;652914574;world;0.000454435;-0.00081993;0.000598788;-0.001814023;-0.002388606;-0.002792905;0.999991655
2024/05/03/13:05:03.673295;112499;1714766703;672951413;world;0.000437638;-0.000871788;0.000600432;-0.001904162;-0.002391718;-0.002886891;0.999991179
2024/05/03/13:05:03.703566;112500;1714766703;703198243;world;0.000434652;-0.000830616;0.000598886;-0.001815652;-0.002422627;-0.002769086;0.999991655
2024/05/03/13:05:03.703591;112501;1714766703;703243447;world;0.000457216;-0.000853123;0.000598834;-0.001789776;-0.002380483;-0.002775095;0.999991775
2024/05/03/13:05:03.723469;112502;1714766703;723192910;world;0.000467323;-0.000860881;0.000584512;-0.001811076;-0.002355927;-0.002836578;0.999991536
2024/05/03/13:05:03.733636;112503;1714766703;733319266;world;0.000448491;-0.000882451;0.000591705;-0.001875714;-0.002421326;-0.002890569;0.999991179
2024/05/03/13:05:03.753588;112504;1714766703;753200461;world;0.000450281;-0.00085895;0.000613292;-0.001720532;-0.00237082;-0.002781969;0.999991894
2024/05/03/13:05:03.783567;112505;1714766703;783240672;world;0.000422044;-0.000849662;0.000577699;-0.001793248;-0.002307035;-0.002833288;0.999991775
2024/05/03/13:05:03.783597;112506;1714766703;783283372;world;0.000444097;-0.000852934;0.000579512;-0.001821424;-0.002361433;-0.002778383;0.999991775
2024/05/03/13:05:03.803420;112507;1714766703;803114984;world;0.000463024;-0.000864952;0.000588856;-0.001837162;-0.002451838;-0.002873332;0.999991179
2024/05/03/13:05:03.813405;112508;1714766703;813121886;world;0.000450855;-0.000853102;0.000574438;-0.001889112;-0.002412711;-0.002886683;0.999991179
2024/05/03/13:05:03.833726;112509;1714766703;833327339;world;0.00044113;-0.00086041;0.000579256;-0.001852512;-0.002371894;-0.002876241;0.999991417
2024/05/03/13:05:03.843359;112510;1714766703;843099581;world;0.000444401;-0.000844629;0.000595835;-0.001802142;-0.002418069;-0.002766123;0.999991655
2024/05/03/13:05:03.863449;112511;1714766703;863108084;world;0.000445269;-0.000854307;0.000585536;-0.001823217;-0.002419247;-0.002844125;0.999991417
2024/05/03/13:05:03.873162;112512;1714766703;872910652;world;0.000442527;-0.000854725;0.000576201;-0.001861089;-0.002323522;-0.002771365;0.999991775
2024/05/03/13:05:03.903597;112513;1714766703;902997432;world;0.000443308;-0.000873439;0.000591449;-0.001837471;-0.002361123;-0.00283826;0.999991536
2024/05/03/13:05:03.903633;112514;1714766703;903029462;world;0.00045095;-0.000853013;0.00056757;-0.00189363;-0.002400267;-0.002818073;0.999991417
2024/05/03/13:05:03.923705;112515;1714766703;923418721;world;0.000459891;-0.000867282;0.000588917;-0.001815503;-0.00240892;-0.00278933;0.999991536
2024/05/03/13:05:03.943391;112516;1714766703;943142085;world;0.000451315;-0.000868976;0.000596825;-0.00183453;-0.002382225;-0.00279366;0.999991655
2024/05/03/13:05:03.953510;112517;1714766703;953121540;world;0.00043208;-0.000835605;0.000591204;-0.001763128;-0.002362523;-0.002771801;0.999991894
2024/05/03/13:05:03.984361;112518;1714766703;983545231;world;0.000446364;-0.000837329;0.000595656;-0.001831264;-0.002430219;-0.002813131;0.999991417
2024/05/03/13:05:03.984391;112519;1714766703;983585857;world;0.000440264;-0.00086558;0.00058294;-0.001814279;-0.002384354;-0.002836388;0.999991536
2024/05/03/13:05:04.023247;112520;1714766704;22923730;world;0.000458216;-0.000864741;0.000578182;-0.001860429;-0.002411564;-0.002858866;0.999991298
2024/05/03/13:05:04.023275;112521;1714766704;22958385;world;0.000458725;-0.000848551;0.000576878;-0.001819195;-0.002400085;-0.002818823;0.999991536
2024/05/03/13:05:04.033153;112522;1714766704;32848868;world;0.000456724;-0.000870719;0.000572188;-0.001832795;-0.002352977;-0.002811159;0.999991655
2024/05/03/13:05:04.053441;112523;1714766704;53160420;world;0.000449434;-0.000854366;0.000580283;-0.001754984;-0.002335129;-0.00277524;0.999991894
2024/05/03/13:05:04.063538;112524;1714766704;63262431;world;0.000439722;-0.000843967;0.000588331;-0.001793176;-0.002412821;-0.002760153;0.999991655
2024/05/03/13:05:04.083415;112525;1714766704;83140449;world;0.000442415;-0.000871074;0.000569953;-0.001980607;-0.002291492;-0.002916501;0.999991179
2024/05/03/13:05:04.093231;112526;1714766704;92927558;world;0.000470852;-0.000830662;0.000584365;-0.001922406;-0.002379981;-0.002712469;0.999991655
2024/05/03/13:05:04.113659;112527;1714766704;113362652;world;0.000587568;-0.000801194;0.000555155;-0.001898755;-0.002402542;-0.002509682;0.999992251
2024/05/03/13:05:04.123350;112528;1714766704;123016071;world;0.001145288;-0.000823333;0.000595176;-0.001729909;-0.002332439;-0.002104113;0.999993563
2024/05/03/13:05:04.143300;112529;1714766704;143021343;world;0.002417408;-0.000831394;0.00069397;-0.001590266;-0.002053522;-0.001254285;0.999995828
2024/05/03/13:05:04.153222;112530;1714766704;152893326;world;0.00404761;-0.000639423;0.000638804;-0.001828378;-0.00236134;-0.000458584;0.99999547
2024/05/03/13:05:04.183445;112531;1714766704;183118726;world;0.004840039;-0.000649684;0.000596219;-0.001914149;-0.002298151;-5.23E-05;0.999995589
2024/05/03/13:05:04.183473;112532;1714766704;183150506;world;0.007352013;-0.00069089;0.000598459;-0.001821199;-0.00195741;0.001750863;0.999994874
2024/05/03/13:05:04.223295;112533;1714766704;223020076;world;0.008265592;-0.000785988;0.000577463;-0.001794474;-0.001701797;0.002296645;0.999994278
2024/05/03/13:05:04.223319;112534;1714766704;223053859;world;0.009936679;-0.000760897;0.000722349;-0.001633766;-0.001479923;0.003886468;0.999990106
2024/05/03/13:05:04.233269;112535;1714766704;232990389;world;0.011818748;-0.000737683;0.000791604;-0.001790581;-0.002061718;0.005073505;0.99998343
2024/05/03/13:05:04.253309;112536;1714766704;252982983;world;0.013778551;-0.000798622;0.000672173;-0.002262672;-0.002234754;0.006168169;0.99997592
2024/05/03/13:05:04.263671;112537;1714766704;263350993;world;0.015577691;-0.000796179;0.000806986;-0.002160562;-0.002147519;0.00746385;0.999967575
2024/05/03/13:05:04.283221;112538;1714766704;282969734;world;0.017259656;-0.000678133;0.000955447;-0.001808328;-0.00175019;0.00904756;0.999955893
2024/05/03/13:05:04.303564;112539;1714766704;303139070;world;0.019036112;-0.000703865;0.00088784;-0.001647276;-0.002335701;0.010378927;0.999942064
2024/05/03/13:05:04.323498;112540;1714766704;323236029;world;0.019934287;-0.000696283;0.000826163;-0.001846014;-0.002375579;0.010922428;0.999935865
2024/05/03/13:05:04.323528;112541;1714766704;323267278;world;0.021746211;-0.000626217;0.000919726;-0.002025539;-0.002263508;0.01235446;0.999919057
2024/05/03/13:05:04.343330;112542;1714766704;343053554;world;0.023455201;-0.000509891;0.000925075;-0.002213773;-0.002301571;0.01370198;0.999901056
2024/05/03/13:05:04.363240;112543;1714766704;362974895;world;0.025044724;-0.00042115;0.000739135;-0.002377598;-0.002361655;0.014703511;0.999886274
2024/05/03/13:05:04.393722;112544;1714766704;393374781;world;0.026366502;-0.000279153;0.000370051;-0.003070251;-0.003257372;0.015708653;0.999866605
2024/05/03/13:05:04.393746;112545;1714766704;393409837;world;0.028154671;-0.000246895;0.000693421;-0.00259868;-0.001845343;0.017056342;0.999849439
2024/05/03/13:05:04.443501;112546;1714766704;443195127;world;0.028854517;-0.00027409;0.000775749;-0.002464543;-0.001749529;0.01773176;0.999838233
2024/05/03/13:05:04.443532;112548;1714766704;443238378;world;0.03122231;-0.000148987;0.000885758;-0.00236342;-0.001988751;0.019961393;0.999795973
2024/05/03/13:05:04.453192;112549;1714766704;452906054;world;0.032276262;-6.73E-05;0.000934355;-0.002219812;-0.00216717;0.02140083;0.999766171
2024/05/03/13:05:04.463535;112550;1714766704;462932673;world;0.033289284;-3.16E-05;0.000930167;-0.002454089;-0.002396475;0.022389909;0.999743521
2024/05/03/13:05:04.494085;112551;1714766704;493712504;world;0.034256674;-8.15E-05;0.000834302;-0.002587582;-0.002463439;0.023085987;0.99972719
2024/05/03/13:05:04.503686;112552;1714766704;503387161;world;0.035180159;2.76E-05;0.00076559;-0.002833241;-0.002740384;0.023678262;0.999711931
2024/05/03/13:05:04.523259;112553;1714766704;522966295;world;0.036067326;0.00018324;0.000873675;-0.002891475;-0.002817789;0.024714135;0.99968648
2024/05/03/13:05:04.533636;112554;1714766704;533343191;world;0.036419984;0.000210186;0.000872594;-0.002861128;-0.002875746;0.025177047;0.999674797
2024/05/03/13:05:04.553376;112555;1714766704;553095768;world;0.037299715;0.000233412;0.000943466;-0.003031878;-0.00271123;0.02686302;0.999630928
2024/05/03/13:05:04.563375;112556;1714766704;563188772;world;0.037961766;0.000225116;0.001002554;-0.00256328;-0.002451643;0.027687017;0.999610364
2024/05/03/13:05:04.573287;112557;1714766704;573011658;world;0.038233683;0.00024615;0.000972478;-0.002556901;-0.002613484;0.028090008;0.999598682
2024/05/03/13:05:04.593915;112558;1714766704;593432946;world;0.039094076;0.000300985;0.000983012;-0.002405463;-0.002559797;0.029116493;0.999569833
2024/05/03/13:05:04.644160;112559;1714766704;643003434;world;0.039371096;0.000317177;0.00099856;-0.002407771;-0.002486308;0.029444663;0.999560416
2024/05/03/13:05:04.644196;112560;1714766704;643676297;world;0.039799798;0.000321526;0.000867744;-0.003149256;-0.002778869;0.030221963;0.999534369
2024/05/03/13:05:04.644209;112561;1714766704;643693970;world;0.040295795;0.000348363;0.000952627;-0.00291404;-0.002583932;0.030957771;0.999513149
2024/05/03/13:05:04.663567;112562;1714766704;663296611;world;0.040794432;0.000426121;0.001017741;-0.002454238;-0.002505445;0.031835239;0.999487042
2024/05/03/13:05:04.673353;112563;1714766704;673065296;world;0.040967107;0.00052512;0.000943888;-0.002642716;-0.002619672;0.032375127;0.999468863
2024/05/03/13:05:04.693334;112564;1714766704;693104857;world;0.041332725;0.000563931;0.000846848;-0.002874331;-0.002967732;0.032988787;0.999447167
2024/05/03/13:05:04.703410;112565;1714766704;703123391;world;0.041834228;0.000543149;0.000933414;-0.002654185;-0.002644517;0.033625256;0.999427557
2024/05/03/13:05:04.743971;112566;1714766704;743487310;world;0.042293184;0.000498286;0.001175985;-0.001894482;-0.002053511;0.03464362;0.999395847
2024/05/03/13:05:04.744007;112567;1714766704;743524600;world;0.042685814;0.000465482;0.001197701;-0.001962073;-0.001889654;0.035359275;0.999370992
2024/05/03/13:05:04.753343;112568;1714766704;752977540;world;0.043144442;0.00050962;0.001167959;-0.001932113;-0.001993384;0.035855457;0.999353111
2024/05/03/13:05:04.773434;112569;1714766704;773170109;world;0.043579943;0.000609556;0.00107532;-0.001908325;-0.001921981;0.036563735;0.99932766
2024/05/03/13:05:04.783071;112570;1714766704;782865245;world;0.044103462;0.000542023;0.0011289;-0.001976822;-0.001831349;0.037017241;0.99931097
2024/05/03/13:05:04.793541;112571;1714766704;793272530;world;0.044624604;0.000590568;0.001184518;-0.002036072;-0.001800579;0.037769258;0.999282777
2024/05/03/13:05:04.833192;112572;1714766704;832938617;world;0.044896945;0.000680587;0.001192854;-0.002091231;-0.001939771;0.03816054;0.999267638
2024/05/03/13:05:04.833229;112573;1714766704;832974204;world;0.045402825;0.000719262;0.0010755;-0.00231488;-0.002200468;0.038842149;0.999240279
2024/05/03/13:05:04.843127;112574;1714766704;842871661;world;0.045892738;0.000779907;0.000928508;-0.003008488;-0.002480994;0.039334688;0.999218464
2024/05/03/13:05:04.863246;112575;1714766704;862832450;world;0.046300452;0.000793639;0.000786027;-0.003485434;-0.002899177;0.039846923;0.999195516
2024/05/03/13:05:04.873485;112576;1714766704;873192429;world;0.046906702;0.000780404;0.000834877;-0.003573526;-0.002601577;0.040437791;0.99917233
2024/05/03/13:05:04.913764;112577;1714766704;913477134;world;0.047644347;0.000840376;0.001030258;-0.002830868;-0.001920266;0.041208401;0.999144793
2024/05/03/13:05:04.923241;112578;1714766704;922915278;world;0.048279349;0.000886299;0.001160875;-0.002520843;-0.001835267;0.04211022;0.999108136
2024/05/03/13:05:04.923264;112579;1714766704;922963148;world;0.048842572;0.000959935;0.001305461;-0.002226497;-0.001688146;0.04312633;0.999065697
2024/05/03/13:05:04.933480;112580;1714766704;933194385;world;0.049163859;0.001046795;0.001323276;-0.002361413;-0.00185312;0.043401826;0.99905318
2024/05/03/13:05:04.953472;112581;1714766704;953145958;world;0.049773656;0.001157781;0.001323903;-0.002493743;-0.001905886;0.044108316;0.999021888
2024/05/03/13:05:04.963926;112582;1714766704;963422391;world;0.050479542;0.001149268;0.001333559;-0.00250475;-0.001517474;0.044600219;0.999000609
2024/05/03/13:05:04.983506;112583;1714766704;982914364;world;0.051076226;0.001150177;0.001227953;-0.002649254;-0.001616454;0.045080546;0.998978615
2024/05/03/13:05:05.003300;112584;1714766705;3046980;world;0.051789969;0.001188791;0.001248481;-0.002379468;-0.001533518;0.045678712;0.99895227
2024/05/03/13:05:05.024468;112585;1714766705;23720982;world;0.052467968;0.001200069;0.001243848;-0.002321073;-0.001450925;0.046007842;0.998937428
2024/05/03/13:05:05.033526;112586;1714766705;33288740;world;0.052825466;0.001241125;0.00118316;-0.002674369;-0.001595538;0.046253033;0.998924911
2024/05/03/13:05:05.053392;112587;1714766705;53131273;world;0.05400411;0.001378203;0.001142359;-0.00338049;-0.002225637;0.04729218;0.998872936
2024/05/03/13:05:05.063279;112588;1714766705;62986620;world;0.054355487;0.001441238;0.00108195;-0.003388654;-0.002408684;0.047700122;0.998853087
2024/05/03/13:05:05.073353;112589;1714766705;73095208;world;0.054998282;0.001391618;0.001264598;-0.002862367;-0.00170598;0.048693795;0.998808265
2024/05/03/13:05:05.103399;112590;1714766705;103149581;world;0.055655334;0.001436261;0.001474972;-0.002277104;-0.001489106;0.049666245;0.99876225
2024/05/03/13:05:05.103422;112591;1714766705;103183635;world;0.056228463;0.001354357;0.001607369;-0.001899729;-0.000806326;0.050767314;0.998708367
2024/05/03/13:05:05.143587;112592;1714766705;143277928;world;0.056903645;0.00147994;0.001618982;-0.00175962;-0.000982018;0.051416162;0.998675287
2024/05/03/13:05:05.143611;112593;1714766705;143311591;world;0.057613991;0.001532302;0.001516323;-0.001917138;-0.000745451;0.051934592;0.998648345
2024/05/03/13:05:05.163244;112594;1714766705;162974014;world;0.058368497;0.001626951;0.001468495;-0.002218061;-0.000796641;0.052720536;0.998606503
2024/05/03/13:05:05.173667;112595;1714766705;173347534;world;0.059117027;0.001817009;0.001330154;-0.0024899;-0.001310608;0.053028647;0.998589098
2024/05/03/13:05:05.193220;112596;1714766705;192984530;world;0.05990291;0.001975129;0.001229322;-0.002597665;-0.001560538;0.053486209;0.998564065
2024/05/03/13:05:05.203590;112597;1714766705;203169226;world;0.060552713;0.002001401;0.001155092;-0.002762628;-0.00149447;0.054038949;0.998533964
2024/05/03/13:05:05.213698;112598;1714766705;213350686;world;0.060909577;0.001907327;0.001385398;-0.002135558;-0.000728006;0.054765273;0.998496771
2024/05/03/13:05:05.243531;112599;1714766705;243240514;world;0.061434351;0.0019687;0.001454638;-0.00214539;-0.000462564;0.055609342;0.998450279
2024/05/03/13:05:05.253298;112600;1714766705;252987859;world;0.062012613;0.001976679;0.001617474;-0.00175797;-6.49E-05;0.05688142;0.998379469
2024/05/03/13:05:05.263510;112601;1714766705;263165692;world;0.062792808;0.002194148;0.001648956;-0.001653636;-0.000646503;0.057449922;0.998346806
2024/05/03/13:05:05.283308;112602;1714766705;283017828;world;0.063131109;0.002253986;0.001613304;-0.001989427;-0.000673845;0.057728309;0.998330176
2024/05/03/13:05:05.293358;112603;1714766705;293047346;world;0.063848667;0.002354169;0.001476986;-0.002694223;-0.001109695;0.057868347;0.998320043
2024/05/03/13:05:05.313353;112604;1714766705;313036283;world;0.06458088;0.002513809;0.001428622;-0.002903854;-0.00135335;0.058406394;0.998287737
2024/05/03/13:05:05.343530;112605;1714766705;343237236;world;0.065266952;0.00262983;0.001280491;-0.003425937;-0.001909406;0.058845866;0.998259366
2024/05/03/13:05:05.343556;112606;1714766705;343277652;world;0.06597735;0.00283128;0.001138111;-0.003874455;-0.00252879;0.059075195;0.998242855
2024/05/03/13:05:05.363679;112607;1714766705;363379241;world;0.066794217;0.002992218;0.0011681;-0.002753042;-0.002513459;0.059512317;0.998220623
2024/05/03/13:05:05.373329;112608;1714766705;373031768;world;0.067238756;0.002731737;0.001412812;-0.002981839;-0.001331591;0.060782779;0.9981457
2024/05/03/13:05:05.393193;112609;1714766705;392890450;world;0.067972951;0.002857298;0.001474029;-0.003039055;-0.001572717;0.061668254;0.998090923
2024/05/03/13:05:05.413343;112610;1714766705;412907138;world;0.068215512;0.002807777;0.001516007;-0.003003103;-0.001128457;0.062166955;0.998060644
2024/05/03/13:05:05.423542;112611;1714766705;423211970;world;0.069336981;0.002996759;0.001626957;-0.001629112;-0.001608623;0.063418165;0.997984409
2024/05/03/13:05:05.443296;112612;1714766705;443007533;world;0.069758035;0.003119461;0.001611367;-0.0016499;-0.001691939;0.063776337;0.997961402
2024/05/03/13:05:05.453284;112613;1714766705;452978293;world;0.070373699;0.0032124;0.001622767;-0.001905053;-0.001685985;0.064392649;0.997921407
2024/05/03/13:05:05.463486;112614;1714766705;463185985;world;0.071002111;0.003347605;0.001478725;-0.002041863;-0.00157457;0.064734958;0.997899175
2024/05/03/13:05:05.483456;112615;1714766705;483201493;world;0.071651265;0.0034204;0.001314946;-0.002433938;-0.001666923;0.064960338;0.997883499
2024/05/03/13:05:05.514153;112616;1714766705;513849034;world;0.072152898;0.003537306;0.001134691;-0.004229889;-0.002570299;0.065297954;0.997853577
2024/05/03/13:05:05.523902;112617;1714766705;523215423;world;0.072877169;0.003566802;0.001393902;-0.003272823;-0.001501202;0.0662724;0.997795105
2024/05/03/13:05:05.553523;112618;1714766705;553149455;world;0.073179051;0.003576616;0.001618364;-0.002526224;-0.0009439;0.067080185;0.997743964
2024/05/03/13:05:05.553544;112619;1714766705;553185002;world;0.074203797;0.003800733;0.001595227;-0.001830216;-0.001234934;0.06810604;0.997675717
2024/05/03/13:05:05.563173;112620;1714766705;562864920;world;0.074582607;0.003908332;0.001429776;-0.001824846;-0.001569846;0.068220735;0.997667432
2024/05/03/13:05:05.583246;112621;1714766705;582923228;world;0.075195119;0.003936237;0.001348963;-0.001916208;-0.001418833;0.068644688;0.997638345
2024/05/03/13:05:05.593307;112622;1714766705;592993809;world;0.075870946;0.004011686;0.00131908;-0.001984019;-0.001277346;0.069149822;0.997603595
2024/05/03/13:05:05.613460;112623;1714766705;613142835;world;0.076419018;0.00399632;0.001449706;-0.003111176;-0.000822916;0.069744207;0.997559786
2024/05/03/13:05:05.623266;112624;1714766705;623002396;world;0.077056885;0.004210941;0.001333965;-0.003604386;-0.001534005;0.070401184;0.997511148
2024/05/03/13:05:05.644139;112625;1714766705;643356393;world;0.077842459;0.004485989;0.001393086;-0.003499356;-0.001520142;0.071008995;0.997468352
2024/05/03/13:05:05.653352;112626;1714766705;653056599;world;0.078267746;0.004665133;0.001240191;-0.002958894;-0.002277731;0.070797712;0.99748379
2024/05/03/13:05:05.673605;112627;1714766705;673269817;world;0.078769244;0.004435746;0.001278585;-0.002178607;-0.001499302;0.071582332;0.997431219
2024/05/03/13:05:05.683344;112628;1714766705;683094126;world;0.079396002;0.004508552;0.001490291;-0.002071178;-0.001369028;0.072808817;0.997342885
2024/05/03/13:05:05.703497;112629;1714766705;703202857;world;0.080073625;0.004552734;0.001477029;-0.002531011;-0.001408868;0.073329173;0.997303605
2024/05/03/13:05:05.713234;112630;1714766705;712892895;world;0.080657013;0.004574333;0.001534442;-0.003235648;-0.001228952;0.074003413;0.997252047
2024/05/03/13:05:05.763606;112631;1714766705;763234811;world;0.081109509;0.004532933;0.001593731;-0.003432605;-0.000806803;0.07464917;0.997203708
2024/05/03/13:05:05.763629;112633;1714766705;763297479;world;0.082480334;0.004983155;0.001480031;-0.001613541;-0.001270594;0.076169148;0.997092843
2024/05/03/13:05:05.783317;112634;1714766705;783028490;world;0.082761399;0.005016685;0.001443264;-0.001892496;-0.001202778;0.076280318;0.997083962
2024/05/03/13:05:05.793493;112635;1714766705;793146341;world;0.083484367;0.005220655;0.001440967;-0.002440127;-0.001866778;0.076820567;0.997040212
2024/05/03/13:05:05.823311;112636;1714766705;823038004;world;0.084406331;0.005606227;0.001552748;-0.001751297;-0.002530816;0.077645138;0.996976376
2024/05/03/13:05:05.833361;112637;1714766705;833057598;world;0.085027613;0.005627998;0.001541852;-0.002050043;-0.002160785;0.078195162;0.996933699
2024/05/03/13:05:05.873233;112638;1714766705;872913343;world;0.085544072;0.005459497;0.00180891;-0.003271532;-0.001353806;0.07923805;0.996849477
2024/05/03/13:05:05.873256;112640;1714766705;872956965;world;0.086827196;0.005664805;0.001476617;-0.002516816;-0.001519743;0.080070183;0.996784925
2024/05/03/13:05:05.893461;112641;1714766705;893151428;world;0.087150037;0.005685681;0.001482844;-0.002655228;-0.001644444;0.080274567;0.996767879
2024/05/03/13:05:05.903476;112642;1714766705;903170473;world;0.087773517;0.005739428;0.001473772;-0.002587285;-0.0014902;0.080857985;0.996721208
2024/05/03/13:05:05.923506;112643;1714766705;923182703;world;0.088721171;0.005910918;0.001456811;-0.002138897;-0.001252063;0.081989899;0.996630132
2024/05/03/13:05:05.973509;112644;1714766705;973171156;world;0.089084066;0.006054346;0.00148899;-0.002054455;-0.00137795;0.082599051;0.996579826
2024/05/03/13:05:05.973537;112646;1714766705;973215308;world;0.090883657;0.006709739;0.001563883;-0.002108209;-0.002622693;0.083501585;0.996502042
2024/05/03/13:05:05.983580;112647;1714766705;983240454;world;0.091590375;0.006867279;0.001571101;-0.002165275;-0.002540301;0.08420521;0.996442854
2024/05/03/13:05:06.003570;112648;1714766706;3234981;world;0.092141271;0.006911076;0.00156766;-0.002149016;-0.002315103;0.085087381;0.996368527
2024/05/03/13:05:06.023480;112649;1714766706;23169556;world;0.092462845;0.0065758;0.001409367;-0.002626631;-0.001300238;0.085715368;0.99631542
2024/05/03/13:05:06.023505;112650;1714766706;23203560;world;0.092831284;0.006727261;0.001613024;-0.002035802;-0.000864058;0.086475074;0.996251643
2024/05/03/13:05:06.073464;112651;1714766706;73099929;world;0.093747951;0.00688171;0.001445889;-0.002700068;-0.001310392;0.087075032;0.996197224
2024/05/03/13:05:06.073499;112653;1714766706;73135656;world;0.095333911;0.007681618;0.001507;-0.002965165;-0.003105795;0.087872334;0.996122539
2024/05/03/13:05:06.093309;112654;1714766706;92967478;world;0.095952541;0.00772086;0.001541231;-0.002936409;-0.002867013;0.088531323;0.996064961
2024/05/03/13:05:06.103805;112655;1714766706;103508263;world;0.096498676;0.007703362;0.001515404;-0.002908213;-0.002630877;0.089291655;0.995997787
2024/05/03/13:05:06.123902;112656;1714766706;123437435;world;0.097025901;0.007724622;0.00151048;-0.003018395;-0.002625809;0.090099692;0.995924711
2024/05/03/13:05:06.153629;112657;1714766706;153358616;world;0.097413085;0.007492326;0.001816747;-0.002684439;-0.001214211;0.091396347;0.99581027
2024/05/03/13:05:06.163542;112658;1714766706;163168783;world;0.098035619;0.007636573;0.001909874;-0.002382659;-0.001272604;0.092305079;0.995727181
2024/05/03/13:05:06.173315;112659;1714766706;173001562;world;0.098649189;0.007834263;0.0017689;-0.002456411;-0.001252648;0.092753455;0.995685339
2024/05/03/13:05:06.193386;112660;1714766706;193095075;world;0.099330992;0.007897027;0.001664204;-0.00333402;-0.001773318;0.09288311;0.995669842
2024/05/03/13:05:06.203561;112661;1714766706;203259293;world;0.099701084;0.007999472;0.00168986;-0.003261518;-0.001758723;0.093254328;0.99563545
2024/05/03/13:05:06.233416;112662;1714766706;233133893;world;0.100491762;0.008197101;0.001828382;-0.003082392;-0.00184102;0.094213523;0.995545506
2024/05/03/13:05:06.233440;112663;1714766706;233168658;world;0.10123086;0.008427858;0.001745387;-0.003089929;-0.002208598;0.094589703;0.995509148
2024/05/03/13:05:06.253267;112664;1714766706;252950255;world;0.101958394;0.008692501;0.001742675;-0.002765169;-0.002303652;0.095090546;0.99546212
2024/05/03/13:05:06.263820;112665;1714766706;263479509;world;0.102360249;0.008531789;0.001688559;-0.0031135;-0.00176512;0.095876187;0.995386899
2024/05/03/13:05:06.283229;112666;1714766706;282943258;world;0.102962665;0.008630186;0.001844507;-0.00316045;-0.001438702;0.09666089;0.99531132
2024/05/03/13:05:06.293663;112667;1714766706;293132273;world;0.103707857;0.008855669;0.001915385;-0.002516244;-0.001490128;0.097658746;0.995215654
2024/05/03/13:05:06.313437;112668;1714766706;313154611;world;0.104001641;0.008912738;0.001857386;-0.002537209;-0.001477263;0.097952753;0.995186746
2024/05/03/13:05:06.333682;112669;1714766706;333381585;world;0.104558192;0.008969916;0.001770072;-0.002878837;-0.001589436;0.098264754;0.995154858
2024/05/03/13:05:06.343299;112670;1714766706;343008824;world;0.105287112;0.009172331;0.001791193;-0.002864101;-0.001836805;0.098919593;0.995089591
2024/05/03/13:05:06.373380;112671;1714766706;373075375;world;0.106020473;0.009423246;0.001757508;-0.002774138;-0.002105176;0.099479176;0.995033622
2024/05/03/13:05:06.373406;112672;1714766706;373108828;world;0.106804296;0.009686217;0.001806967;-0.002445069;-0.002154044;0.100243606;0.994957626
2024/05/03/13:05:06.383319;112673;1714766706;383051611;world;0.107497767;0.009741146;0.001788645;-0.002366307;-0.002036332;0.100809775;0.994900823
2024/05/03/13:05:06.403289;112674;1714766706;403004688;world;0.107838251;0.009806023;0.001783875;-0.002452123;-0.002150742;0.100967854;0.994884431
2024/05/03/13:05:06.433560;112675;1714766706;433234336;world;0.108582839;0.009793838;0.001917792;-0.002934298;-0.001682388;0.102523558;0.99472481
2024/05/03/13:05:06.433569;112676;1714766706;433264132;world;0.109249584;0.009975275;0.002089144;-0.002674634;-0.001533929;0.103514202;0.994623184
2024/05/03/13:05:06.473159;112677;1714766706;472888281;world;0.109540418;0.010004558;0.002063299;-0.002721273;-0.001416569;0.103758968;0.994597793
2024/05/03/13:05:06.473194;112678;1714766706;472922645;world;0.11014235;0.010061339;0.001860475;-0.002848819;-0.00119799;0.104170613;0.994554639
2024/05/03/13:05:06.483376;112679;1714766706;483059701;world;0.110769004;0.010167973;0.001734859;-0.00280237;-0.001358876;0.104752332;0.994493484
2024/05/03/13:05:06.503586;112680;1714766706;503223888;world;0.111504354;0.010337668;0.0018334;-0.003086536;-0.001388971;0.105422474;0.99442178
2024/05/03/13:05:06.513205;112681;1714766706;512909186;world;0.112299003;0.010601749;0.001886313;-0.003151223;-0.001727305;0.106061816;0.994353056
2024/05/03/13:05:06.543633;112682;1714766706;543215778;world;0.11267589;0.010742703;0.001910884;-0.003083189;-0.002026768;0.106380753;0.994318664
2024/05/03/13:05:06.543662;112683;1714766706;543251164;world;0.113490716;0.010867471;0.001933104;-0.003740377;-0.001811083;0.107657254;0.994179368
2024/05/03/13:05:06.563266;112684;1714766706;562958243;world;0.113747962;0.01093935;0.001988785;-0.00361679;-0.00155929;0.108184896;0.994123042
2024/05/03/13:05:06.583339;112685;1714766706;583032638;world;0.114313111;0.011052581;0.002045881;-0.003083964;-0.001321194;0.108834311;0.994054258
2024/05/03/13:05:06.593163;112686;1714766706;592881984;world;0.114809141;0.011018328;0.001789333;-0.002650801;-0.000755641;0.108999476;0.994037986
2024/05/03/13:05:06.613395;112687;1714766706;613108998;world;0.115717314;0.011377838;0.001853024;-0.003118822;-0.001544175;0.10985899;0.993941069
2024/05/03/13:05:06.623460;112688;1714766706;623173849;world;0.1165969;0.011603087;0.00191477;-0.003246252;-0.002208879;0.110309251;0.99388957
2024/05/03/13:05:06.643418;112689;1714766706;643160613;world;0.117231108;0.01168689;0.002002869;-0.003335944;-0.00179782;0.111026682;0.993810236
2024/05/03/13:05:06.663382;112690;1714766706;663081850;world;0.117847763;0.011808557;0.002034519;-0.003314889;-0.001630446;0.111779869;0.993726194
2024/05/03/13:05:06.693208;112691;1714766706;692941465;world;0.11815121;0.011907605;0.002022936;-0.003222321;-0.001796432;0.112074479;0.993692994
2024/05/03/13:05:06.693221;112692;1714766706;692973565;world;0.118975341;0.012212713;0.002002166;-0.002874391;-0.002244883;0.1128956;0.993600249
2024/05/03/13:05:06.703441;112693;1714766706;703088198;world;0.119600199;0.012426529;0.001921803;-0.002826229;-0.002423713;0.113290466;0.993555009
2024/05/03/13:05:06.713592;112694;1714766706;713323971;world;0.120236561;0.012583554;0.001894567;-0.003004649;-0.002613802;0.113701537;0.993507028
2024/05/03/13:05:06.743709;112695;1714766706;743342582;world;0.120800734;0.012622608;0.001942707;-0.002910939;-0.00238306;0.114588656;0.993405938
2024/05/03/13:05:06.743716;112696;1714766706;743383289;world;0.12141864;0.012763639;0.001882103;-0.002662271;-0.002272305;0.115414687;0.993311286
2024/05/03/13:05:06.793415;112697;1714766706;793148402;world;0.122014545;0.012898575;0.002044669;-0.002422209;-0.001987241;0.116408445;0.993196487
2024/05/03/13:05:06.793451;112699;1714766706;793190702;world;0.123080641;0.013217337;0.002058104;-0.002880772;-0.002493007;0.116965719;0.993128657
2024/05/03/13:05:06.813574;112700;1714766706;813260648;world;0.124039255;0.013484919;0.002068058;-0.003114825;-0.002537511;0.118015371;0.993003666
2024/05/03/13:05:06.833484;112701;1714766706;833162653;world;0.124331445;0.013518235;0.00202433;-0.003160598;-0.002453191;0.118292816;0.992970765
2024/05/03/13:05:06.843474;112702;1714766706;843151079;world;0.124886379;0.013616471;0.001984432;-0.003411212;-0.002587676;0.118898325;0.992897272
2024/05/03/13:05:06.883580;112703;1714766706;883177434;world;0.125445098;0.013634725;0.002018525;-0.003278109;-0.00239174;0.119699247;0.992801905
2024/05/03/13:05:06.883604;112704;1714766706;883217048;world;0.125944331;0.013654426;0.002006312;-0.003359888;-0.001839814;0.120345093;0.992724717
2024/05/03/13:05:06.893616;112705;1714766706;893312847;world;0.126606777;0.013737317;0.002030113;-0.003458277;-0.001687693;0.120808639;0.99266839
2024/05/03/13:05:06.903374;112706;1714766706;903086612;world;0.126978666;0.013826625;0.002055459;-0.003467957;-0.001879058;0.121182367;0.992622495
2024/05/03/13:05:06.923277;112707;1714766706;922964941;world;0.127703354;0.014121899;0.002106819;-0.003300129;-0.002163263;0.121873356;0.992537796
2024/05/03/13:05:06.943248;112708;1714766706;942965430;world;0.128384382;0.014355812;0.00205248;-0.003563105;-0.002625437;0.122175671;0.992498696
2024/05/03/13:05:06.953186;112709;1714766706;952895977;world;0.12915352;0.014671056;0.002096353;-0.003333725;-0.002744929;0.123024039;0.992394328
2024/05/03/13:05:06.993485;112710;1714766706;993221312;world;0.129759163;0.014890727;0.002106327;-0.003265224;-0.002675313;0.123705372;0.992310047
2024/05/03/13:05:06.993572;112711;1714766706;993254794;world;0.130281761;0.014981408;0.002090305;-0.003490628;-0.002630049;0.124270163;0.99223882
2024/05/03/13:05:07.003636;112712;1714766707;3216953;world;0.130649328;0.014862176;0.002132102;-0.003309592;-0.001439729;0.125175983;0.992128015
2024/05/03/13:05:07.013247;112713;1714766707;13002709;world;0.131356642;0.015085043;0.002309763;-0.003245957;-0.001504403;0.126071513;0.992014766
2024/05/03/13:05:07.033462;112714;1714766707;33190649;world;0.131992251;0.015203814;0.002191622;-0.003353679;-0.001549229;0.126632363;0.991942883
2024/05/03/13:05:07.053536;112715;1714766707;53284051;world;0.132268742;0.01528047;0.002074335;-0.003454387;-0.001743676;0.126784816;0.991922736
2024/05/03/13:05:07.063859;112716;1714766707;63326681;world;0.133130327;0.015651817;0.002111441;-0.003440528;-0.002094133;0.127431259;0.99183923
2024/05/03/13:05:07.073478;112717;1714766707;73083815;world;0.134053171;0.016069956;0.002068016;-0.00334435;-0.00264247;0.127857223;0.9917835
2024/05/03/13:05:07.093204;112718;1714766707;92992149;world;0.134775028;0.016279193;0.001971265;-0.003354948;-0.002773819;0.128257424;0.991731346
2024/05/03/13:05:07.103464;112719;1714766707;103166416;world;0.135341391;0.016451035;0.002039906;-0.003138566;-0.002495414;0.129097059;0.991623938
2024/05/03/13:05:07.123176;112720;1714766707;122924290;world;0.13599354;0.016658209;0.001978245;-0.003573373;-0.002594709;0.129574165;0.991559923
2024/05/03/13:05:07.153758;112721;1714766707;153415386;world;0.136584014;0.016857687;0.002038853;-0.003524324;-0.002506049;0.130256623;0.991470873
2024/05/03/13:05:07.153912;112722;1714766707;153445713;world;0.136898115;0.016712161;0.002119671;-0.003479196;-0.001799827;0.131390765;0.991322994
2024/05/03/13:05:07.193190;112723;1714766707;192905224;world;0.137097239;0.016609974;0.002195159;-0.003402837;-0.001359829;0.131951705;0.991249442
2024/05/03/13:05:07.193213;112724;1714766707;192939168;world;0.13823539;0.016982213;0.002351497;-0.002971938;-0.001754156;0.133240581;0.991077781
2024/05/03/13:05:07.203453;112725;1714766707;203096010;world;0.138494372;0.017100736;0.002292936;-0.002842579;-0.002256707;0.133673385;0.991018772
2024/05/03/13:05:07.223359;112726;1714766707;223013152;world;0.139637008;0.017413225;0.00227693;-0.003208569;-0.002198865;0.134205922;0.990945816
2024/05/03/13:05:07.233724;112727;1714766707;233380620;world;0.140007213;0.017577367;0.002292386;-0.003080715;-0.002393777;0.134376675;0.99092263
2024/05/03/13:05:07.253671;112728;1714766707;253390118;world;0.140735388;0.017777169;0.002162203;-0.003320222;-0.002526983;0.134682342;0.990880132
2024/05/03/13:05:07.263519;112729;1714766707;263256525;world;0.141435727;0.017991593;0.002165411;-0.003460483;-0.002926234;0.135281488;0.990796924
2024/05/03/13:05:07.293449;112730;1714766707;293151554;world;0.141742453;0.018076185;0.002149661;-0.003460369;-0.002790556;0.135548845;0.990760684
2024/05/03/13:05:07.303254;112731;1714766707;302960885;world;0.14235273;0.017878249;0.002517102;-0.002998052;-0.001232572;0.137467414;0.990501046
2024/05/03/13:05:07.313628;112732;1714766707;313293999;world;0.142988354;0.017990343;0.002519985;-0.003043655;-0.001024502;0.138029546;0.990422964
2024/05/03/13:05:07.333626;112733;1714766707;333292182;world;0.14368026;0.018304132;0.002301432;-0.003462933;-0.001922664;0.13840358;0.990368009
2024/05/03/13:05:07.343198;112734;1714766707;342905295;world;0.144097388;0.018485749;0.002314066;-0.003579825;-0.002162491;0.138653591;0.990332186
2024/05/03/13:05:07.363328;112735;1714766707;363043481;world;0.144698501;0.018668769;0.00234587;-0.003513978;-0.001964652;0.139243841;0.990249932
2024/05/03/13:05:07.403647;112736;1714766707;403324935;world;0.145235896;0.018761545;0.002363388;-0.003440522;-0.001589922;0.139902577;0.990158021
2024/05/03/13:05:07.403675;112738;1714766707;403374408;world;0.146247461;0.019054785;0.002363758;-0.003593721;-0.001848126;0.140908152;0.990014434
2024/05/03/13:05:07.423594;112739;1714766707;423270038;world;0.147466108;0.01957747;0.002277432;-0.003758632;-0.002638092;0.141286194;0.989958227
2024/05/03/13:05:07.443637;112740;1714766707;443216455;world;0.147941083;0.019578729;0.002397473;-0.003690961;-0.001850559;0.142171606;0.989833474
2024/05/03/13:05:07.463479;112741;1714766707;463113639;world;0.148218438;0.019630119;0.002417361;-0.003610649;-0.001871204;0.142571807;0.989776134
2024/05/03/13:05:07.463507;112742;1714766707;463149406;world;0.148678839;0.019597979;0.002533913;-0.003602898;-0.001087311;0.143627197;0.989624679
2024/05/03/13:05:07.503380;112743;1714766707;502859809;world;0.149367318;0.01989153;0.00262326;-0.00340725;-0.001102419;0.144632205;0.989479005
2024/05/03/13:05:07.503400;112744;1714766707;502893792;world;0.14992781;0.020013649;0.002512987;-0.003662749;-0.00096039;0.145072222;0.989413857
2024/05/03/13:05:07.513620;112745;1714766707;513311655;world;0.150653437;0.020306503;0.00245333;-0.003696838;-0.001377156;0.145569921;0.989340127
2024/05/03/13:05:07.533387;112746;1714766707;533054901;world;0.151443303;0.020670416;0.002381388;-0.003492821;-0.001906129;0.145992637;0.98927772
2024/05/03/13:05:07.543342;112747;1714766707;543046594;world;0.15178813;0.020808879;0.002345356;-0.003518034;-0.0019856;0.146219626;0.989243984
2024/05/03/13:05:07.563366;112748;1714766707;563030281;world;0.152467653;0.021043567;0.002339682;-0.003700658;-0.002296294;0.146767855;0.989161432
2024/05/03/13:05:07.593650;112749;1714766707;593358945;world;0.153125644;0.021459747;0.002333403;-0.003700734;-0.002488415;0.147394806;0.989067733
2024/05/03/13:05:07.593723;112750;1714766707;593392749;world;0.153618321;0.021542404;0.0024868;-0.003624408;-0.002087835;0.148541674;0.988897383
2024/05/03/13:05:07.613409;112751;1714766707;613036495;world;0.154056072;0.021395229;0.00256075;-0.003840493;-0.001470844;0.149663478;0.988728523
2024/05/03/13:05:07.623457;112752;1714766707;623127466;world;0.154667094;0.021578824;0.002746552;-0.003154946;-0.001258283;0.150398433;0.988619685
2024/05/03/13:05:07.643413;112753;1714766707;643112966;world;0.15534772;0.021721426;0.002570867;-0.003085691;-0.00126881;0.150797248;0.988559067
2024/05/03/13:05:07.653376;112754;1714766707;653083128;world;0.155706972;0.021842331;0.002511078;-0.003261176;-0.001587058;0.150971264;0.98853147
2024/05/03/13:05:07.673522;112755;1714766707;673226324;world;0.156360924;0.022112105;0.002474974;-0.003304757;-0.0019612;0.151480213;0.988452852
2024/05/03/13:05:07.723522;112756;1714766707;723208585;world;0.157018855;0.022398422;0.002518775;-0.003332339;-0.002100793;0.152082562;0.988359928
2024/05/03/13:05:07.723550;112758;1714766707;723250052;world;0.158498049;0.023121629;0.002466875;-0.003428746;-0.002928168;0.153118849;0.988197505
2024/05/03/13:05:07.733253;112759;1714766707;732904545;world;0.159197226;0.023431811;0.002468645;-0.003119342;-0.003018265;0.153769627;0.988097191
2024/05/03/13:05:07.753227;112760;1714766707;752922223;world;0.159713417;0.023345064;0.002614912;-0.002784672;-0.002419163;0.154811084;0.987937272
2024/05/03/13:05:07.773285;112761;1714766707;772985671;world;0.160110638;0.023125038;0.002669283;-0.003066255;-0.001249649;0.155789062;0.987784863
2024/05/03/13:05:07.813605;112762;1714766707;813215052;world;0.160419539;0.02317033;0.002758269;-0.002899663;-0.00099648;0.156231582;0.987715662
2024/05/03/13:05:07.813632;112764;1714766707;813274183;world;0.161557958;0.023622202;0.002522087;-0.003082326;-0.001203097;0.157158896;0.987567782
2024/05/03/13:05:07.833409;112765;1714766707;833125728;world;0.162197918;0.023879042;0.002543971;-0.003387987;-0.001583634;0.157849967;0.987456024
2024/05/03/13:05:07.843764;112766;1714766707;843434747;world;0.163007259;0.024080902;0.002564431;-0.003680544;-0.001544195;0.158568531;0.987339914
2024/05/03/13:05:07.883672;112767;1714766707;883378354;world;0.163297221;0.024145884;0.002580211;-0.003652914;-0.001400383;0.158853605;0.987294495
2024/05/03/13:05:07.883705;112768;1714766707;883413540;world;0.163897157;0.024391819;0.002553131;-0.003520489;-0.001476804;0.159519881;0.987187386
2024/05/03/13:05:07.913803;112769;1714766707;913481074;world;0.164230123;0.024520658;0.002561122;-0.003499039;-0.001500853;0.159866184;0.987131417
2024/05/03/13:05:07.913811;112770;1714766707;913514506;world;0.164967477;0.024737457;0.002614719;-0.003421623;-0.001586776;0.160678327;0.986999691
2024/05/03/13:05:07.923582;112771;1714766707;923228267;world;0.165969044;0.025147151;0.002649343;-0.003560391;-0.001949447;0.161731422;0.986826539
2024/05/03/13:05:07.943434;112772;1714766707;943112026;world;0.166616648;0.025359204;0.002697309;-0.003660033;-0.001849319;0.162323818;0.986729085
2024/05/03/13:05:07.953366;112773;1714766707;953078702;world;0.166900322;0.025432669;0.002713722;-0.003618593;-0.001795192;0.162649214;0.98667568
2024/05/03/13:05:07.973629;112774;1714766707;973252477;world;0.167497084;0.025675628;0.002705201;-0.003737908;-0.001926695;0.163271084;0.986572266
2024/05/03/13:05:08.013476;112775;1714766708;13134340;world;0.168174922;0.025949433;0.002643652;-0.003831023;-0.001979279;0.163753614;0.986491859
2024/05/03/13:05:08.013482;112777;1714766708;13170187;world;0.16953218;0.026536219;0.002791354;-0.002920157;-0.002118024;0.165641621;0.986179411
2024/05/03/13:05:08.033445;112778;1714766708;33056671;world;0.169846952;0.02658942;0.002783728;-0.003269286;-0.00217876;0.165827811;0.986146867
2024/05/03/13:05:08.043401;112779;1714766708;43055634;world;0.170438632;0.02680297;0.002663512;-0.003862732;-0.002300191;0.166236892;0.986075699
2024/05/03/13:05:08.083469;112780;1714766708;83092412;world;0.171440601;0.027202588;0.002740241;-0.003817577;-0.002492164;0.167258978;0.985902548
2024/05/03/13:05:08.083494;112781;1714766708;83137797;world;0.171996281;0.027395807;0.002761383;-0.003547131;-0.002168074;0.16794081;0.985788405
2024/05/03/13:05:08.103577;112782;1714766708;103275963;world;0.172606945;0.027466958;0.002745849;-0.003717393;-0.001864888;0.168502808;0.985692501
2024/05/03/13:05:08.113294;112783;1714766708;112973495;world;0.172889024;0.027588785;0.002744052;-0.003568187;-0.00177917;0.168752164;0.98565048
2024/05/03/13:05:08.123148;112784;1714766708;122869018;world;0.173450589;0.027750133;0.002751706;-0.00347233;-0.001414241;0.169425204;0.98553592
2024/05/03/13:05:08.143192;112785;1714766708;142801574;world;0.174120367;0.028058084;0.002837101;-0.003310339;-0.00165427;0.170179427;0.98540616
2024/05/03/13:05:08.163498;112786;1714766708;163209902;world;0.174898967;0.028495904;0.002818293;-0.00271555;-0.002255162;0.170995176;0.985265553
2024/05/03/13:05:08.173400;112787;1714766708;173069427;world;0.175769448;0.028706048;0.002694737;-0.002745915;-0.003304224;0.171773955;0.985127032
2024/05/03/13:05:08.183387;112788;1714766708;183081017;world;0.176071674;0.028627086;0.002628662;-0.003086669;-0.003018193;0.172320127;0.985031605
2024/05/03/13:05:08.203507;112789;1714766708;203234382;world;0.176748484;0.028818974;0.002703067;-0.002895914;-0.002890983;0.172853768;0.984938979
2024/05/03/13:05:08.213298;112790;1714766708;212963783;world;0.177361265;0.029142689;0.002662;-0.002874128;-0.00296325;0.173279211;0.984864056
2024/05/03/13:05:08.233400;112791;1714766708;233094416;world;0.177838355;0.029587608;0.002666822;-0.003340822;-0.003256915;0.173031151;0.984905303
2024/05/03/13:05:08.253511;112792;1714766708;253219217;world;0.178256467;0.029594943;0.002785329;-0.00374692;-0.002500736;0.173881456;0.984756291
2024/05/03/13:05:08.273548;112793;1714766708;273244040;world;0.178882614;0.029807284;0.002818687;-0.003673272;-0.002526077;0.174570277;0.984634697
2024/05/03/13:05:08.273576;112794;1714766708;273276862;world;0.179194942;0.029926263;0.002821666;-0.003728346;-0.002652371;0.174911112;0.984573662
2024/05/03/13:05:08.303216;112795;1714766708;302926020;world;0.180173218;0.030456278;0.002923063;-0.003150018;-0.00331089;0.176394761;0.984308898
2024/05/03/13:05:08.313826;112796;1714766708;313339935;world;0.18052125;0.030578915;0.002907421;-0.002663378;-0.003596655;0.176915601;0.984215915
2024/05/03/13:05:08.324209;112797;1714766708;323846264;world;0.181186289;0.030690189;0.002766143;-0.00252308;-0.00413067;0.17775397;0.984063148
2024/05/03/13:05:08.343313;112798;1714766708;343046349;world;0.181603268;0.030642468;0.002794357;-0.003252885;-0.002722319;0.178085923;0.984005809
2024/05/03/13:05:08.363434;112799;1714766708;363068397;world;0.18206732;0.030723359;0.002820741;-0.003501739;-0.002315663;0.178667143;0.983900666
2024/05/03/13:05:08.383438;112800;1714766708;383149907;world;0.182814673;0.031055018;0.002820275;-0.003611588;-0.002322634;0.179117247;0.983818352
2024/05/03/13:05:08.393556;112801;1714766708;393305999;world;0.1835621;0.031535476;0.002847946;-0.00355979;-0.002547781;0.179570362;0.983735442
2024/05/03/13:05:08.413400;112802;1714766708;413132360;world;0.184240192;0.031867564;0.002891638;-0.003427509;-0.00272761;0.180356815;0.983591557
2024/05/03/13:05:08.423307;112803;1714766708;423006653;world;0.184547812;0.032003533;0.002876784;-0.003344786;-0.002828289;0.18077676;0.983514428
2024/05/03/13:05:08.433541;112804;1714766708;433288677;world;0.18519707;0.032340366;0.002844721;-0.003387574;-0.002934689;0.181273386;0.983422518
2024/05/03/13:05:08.453342;112805;1714766708;453054800;world;0.185764357;0.03240934;0.002905971;-0.003264938;-0.002414552;0.182062373;0.983278692
2024/05/03/13:05:08.463626;112806;1714766708;463327311;world;0.186454445;0.032629598;0.002911576;-0.002833735;-0.002410046;0.182951093;0.983115017
2024/05/03/13:05:08.483608;112807;1714766708;483171374;world;0.186744958;0.032494187;0.002750524;-0.002861887;-0.001402404;0.183632851;0.982989788
2024/05/03/13:05:08.523347;112808;1714766708;523069159;world;0.187403858;0.03273923;0.002824406;-0.002873832;-0.00137858;0.184374332;0.982850909
2024/05/03/13:05:08.523375;112809;1714766708;523104986;world;0.188151985;0.033143573;0.002787057;-0.003188308;-0.002042955;0.185030013;0.98272562
2024/05/03/13:05:08.533190;112810;1714766708;532890100;world;0.188604072;0.03340197;0.002893023;-0.003116671;-0.002194205;0.185351565;0.982664883
2024/05/03/13:05:08.553221;112811;1714766708;552916256;world;0.189554125;0.034023426;0.0030436;-0.003174158;-0.002649276;0.186156213;0.982511461
2024/05/03/13:05:08.563219;112812;1714766708;562959877;world;0.189862862;0.034207307;0.00296645;-0.003332901;-0.002660263;0.186449856;0.982455313
2024/05/03/13:05:08.583704;112813;1714766708;583422441;world;0.190752566;0.03444254;0.003016582;-0.003552727;-0.002498467;0.187246308;0.982303441
2024/05/03/13:05:08.593385;112814;1714766708;593144608;world;0.191239819;0.034358714;0.003238651;-0.003285928;-0.001397564;0.18833296;0.982098818
2024/05/03/13:05:08.613343;112815;1714766708;612883988;world;0.191759035;0.03446376;0.003323659;-0.003545999;-0.000688507;0.188822776;0.982004583
2024/05/03/13:05:08.623366;112816;1714766708;623125219;world;0.192113653;0.034566276;0.003394878;-0.003548703;-0.000755233;0.189325318;0.981907785
2024/05/03/13:05:08.643781;112817;1714766708;643228640;world;0.192849755;0.034802545;0.003370132;-0.003625094;-0.001002043;0.190052435;0.98176676
2024/05/03/13:05:08.653450;112818;1714766708;653118553;world;0.193177834;0.034971479;0.003391155;-0.003498858;-0.001204061;0.190468475;0.981686354
2024/05/03/13:05:08.673556;112819;1714766708;673236340;world;0.193991452;0.03534067;0.003329936;-0.003123802;-0.001417764;0.191290036;0.981527627
2024/05/03/13:05:08.693460;112820;1714766708;693127119;world;0.194819197;0.035864092;0.003022893;-0.003207361;-0.00271078;0.191382155;0.981506586
2024/05/03/13:05:08.723311;112821;1714766708;723022612;world;0.195162207;0.036119893;0.00298395;-0.00334792;-0.003130036;0.191406071;0.981500268
2024/05/03/13:05:08.723340;112822;1714766708;723056105;world;0.195751667;0.036407016;0.003037166;-0.003365926;-0.002762968;0.19231461;0.981323659
2024/05/03/13:05:08.733218;112823;1714766708;732895993;world;0.196288198;0.036511965;0.003108817;-0.003387345;-0.002656175;0.193231165;0.981143832
2024/05/03/13:05:08.753164;112824;1714766708;752872737;world;0.196635365;0.036341637;0.003350268;-0.003183949;-0.001156306;0.194360137;0.980924487
2024/05/03/13:05:08.763596;112825;1714766708;763310508;world;0.197274178;0.036538567;0.003455921;-0.003337459;-0.000935777;0.195089191;0.980779409
