time;.header.seq;.header.stamp.secs;.header.stamp.nsecs;.header.frame_id;.pose.position.x;.pose.position.y;.pose.position.z;.pose.orientation.x;.pose.orientation.y;.pose.orientation.z;.pose.orientation.w
2024/05/03/13:24:45.163566;188025;1714767885;163246654;world;9.20E-07;1.55E-05;-1.93E-05;-2.61E-05;3.75E-05;-2.79E-07;-1
2024/05/03/13:24:45.183818;188026;1714767885;183303495;world;-9.35E-06;5.48E-06;-2.69E-05;-7.92E-06;-1.67E-05;-2.19E-06;-1
2024/05/03/13:24:45.193507;188027;1714767885;193234136;world;-3.42E-06;1.60E-05;-2.41E-05;-1.81E-05;2.41E-06;-1.55E-05;-1
2024/05/03/13:24:45.213322;188028;1714767885;212992396;world;-2.53E-06;2.50E-05;-2.23E-05;-1.39E-05;2.26E-05;-5.46E-05;-1
2024/05/03/13:24:45.223722;188029;1714767885;223178137;world;-9.69E-06;9.49E-06;-2.27E-05;-1.05E-06;6.39E-05;-7.91E-06;-1
2024/05/03/13:24:45.243708;188030;1714767885;243403523;world;-3.16E-06;1.45E-05;-3.11E-05;-4.54E-05;1.50E-05;-2.60E-05;-1
2024/05/03/13:24:45.253198;188031;1714767885;252901153;world;-2.06E-05;3.43E-06;-2.28E-05;2.94E-05;1.87E-05;-4.09E-06;-1
2024/05/03/13:24:45.284898;188032;1714767885;283188314;world;-1.26E-05;2.11E-05;-2.12E-05;3.12E-05;2.57E-05;-2.32E-05;-1
2024/05/03/13:24:45.284934;188033;1714767885;283269857;world;-6.91E-06;2.63E-05;-1.94E-06;8.19E-05;0.000154139;-8.32E-05;-1
2024/05/03/13:24:45.313497;188034;1714767885;313175159;world;-2.04E-05;7.74E-06;-2.71E-05;2.08E-05;4.50E-05;-1.74E-05;-1
2024/05/03/13:24:45.313524;188035;1714767885;313214984;world;2.47E-06;1.15E-05;-2.33E-05;-1.71E-05;5.72E-05;-2.98E-05;-1
2024/05/03/13:24:45.333468;188036;1714767885;333211321;world;1.34E-05;2.80E-05;8.56E-06;0.000109258;0.000153011;-8.61E-05;-1
2024/05/03/13:24:45.344120;188037;1714767885;343855332;world;1.14E-05;2.59E-05;-3.36E-05;-4.18E-05;2.12E-05;-2.70E-05;-1
2024/05/03/13:24:45.363281;188038;1714767885;363022420;world;-1.04E-05;1.13E-05;-3.54E-05;-1.01E-05;3.95E-05;-2.89E-05;-1
2024/05/03/13:24:45.383772;188039;1714767885;383230465;world;-6.27E-06;9.23E-06;-2.00E-05;2.84E-05;5.47E-05;-1.65E-05;-1
2024/05/03/13:24:45.393261;188040;1714767885;392926327;world;-1.47E-05;1.06E-05;-2.34E-05;-2.69E-06;2.29E-05;-2.19E-06;-1
2024/05/03/13:24:45.423577;188041;1714767885;423280347;world;-1.75E-05;1.38E-05;-2.57E-05;1.52E-05;3.48E-05;-2.22E-05;-1
2024/05/03/13:24:45.433397;188042;1714767885;433134456;world;-1.21E-05;2.18E-05;-2.23E-05;-2.29E-05;-6.98E-06;-9.81E-06;-1
2024/05/03/13:24:45.443139;188043;1714767885;442877564;world;-2.19E-05;1.61E-05;-1.45E-05;-2.60E-07;6.44E-06;-3.46E-05;-1
2024/05/03/13:24:45.453532;188044;1714767885;453223286;world;-1.97E-05;1.43E-05;-2.42E-05;-1.40E-06;-2.08E-05;6.40E-06;-1
2024/05/03/13:24:45.473309;188045;1714767885;473010609;world;-3.73E-05;1.67E-05;-1.76E-05;5.89E-05;3.12E-05;-6.95E-06;-1
2024/05/03/13:24:45.493598;188046;1714767885;493319523;world;-3.36E-05;1.50E-05;-2.33E-05;8.44E-05;3.65E-05;-2.41E-05;-1
2024/05/03/13:24:45.523500;188047;1714767885;523188337;world;-1.31E-05;1.63E-05;-2.59E-05;3.97E-05;-5.70E-06;-4.09E-06;-1
2024/05/03/13:24:45.523532;188048;1714767885;523225927;world;-1.53E-05;1.41E-05;-2.19E-05;4.36E-06;1.92E-06;-3.17E-05;-1
2024/05/03/13:24:45.533365;188049;1714767885;533071705;world;-3.92E-05;1.91E-05;8.83E-06;0.000162671;0.000153171;-3.94E-05;-1
2024/05/03/13:24:45.553438;188050;1714767885;553059859;world;-9.67E-06;1.79E-05;-3.55E-05;-2.83E-05;-6.40E-06;-1.94E-05;-1
2024/05/03/13:24:45.563527;188051;1714767885;563211204;world;-1.88E-05;2.06E-05;-2.23E-05;-9.71E-06;1.44E-05;-2.41E-05;-1
2024/05/03/13:24:45.593595;188052;1714767885;593281553;world;-1.87E-05;1.42E-05;-1.94E-05;6.00E-06;-1.44E-05;-2.19E-06;-1
2024/05/03/13:24:45.603847;188053;1714767885;603357750;world;-1.68E-05;1.13E-05;-1.65E-05;9.17E-06;3.17E-05;-1.84E-05;-1
2024/05/03/13:24:45.623297;188054;1714767885;623009980;world;-2.20E-05;1.87E-05;-1.90E-05;1.91E-05;3.53E-05;-2.22E-05;-1
2024/05/03/13:24:45.633420;188055;1714767885;633169049;world;-2.78E-05;1.16E-05;-2.45E-05;-2.86E-06;-6.45E-06;-4.51E-05;-1
2024/05/03/13:24:45.643426;188056;1714767885;643176578;world;-3.09E-06;2.74E-05;-1.88E-05;-7.05E-05;1.23E-05;-5.27E-05;-1
2024/05/03/13:24:45.663325;188057;1714767885;662972397;world;-1.96E-05;1.53E-05;-1.33E-05;-2.04E-05;7.44E-07;-1.46E-05;-1
2024/05/03/13:24:45.683260;188058;1714767885;682960192;world;-3.64E-05;6.72E-06;-1.56E-05;1.71E-05;4.99E-05;-1.55E-05;-1
2024/05/03/13:24:45.693584;188059;1714767885;693296592;world;-1.97E-05;1.40E-05;-1.56E-05;2.17E-05;-4.84E-06;-7.91E-06;-1
2024/05/03/13:24:45.723232;188060;1714767885;722918006;world;-2.47E-05;1.24E-05;-1.71E-05;-2.99E-05;-1.95E-05;-4.09E-06;-1
2024/05/03/13:24:45.723266;188061;1714767885;722955005;world;-8.87E-06;2.15E-05;-1.12E-05;-6.65E-05;-1.56E-05;-4.41E-05;-1
2024/05/03/13:24:45.743610;188062;1714767885;743317368;world;-1.22E-05;2.42E-05;-6.65E-06;-4.98E-05;2.44E-05;-2.79E-05;-1
2024/05/03/13:24:45.763460;188063;1714767885;763202908;world;-4.85E-05;4.18E-06;-1.46E-05;4.03E-05;1.63E-05;-6.00E-06;-1
2024/05/03/13:24:45.773819;188064;1714767885;773434493;world;-4.23E-05;3.44E-06;-1.63E-05;-1.56E-05;2.24E-05;-3.14E-06;-1
2024/05/03/13:24:45.793851;188065;1714767885;793582896;world;-2.30E-05;1.42E-05;-8.12E-06;-7.65E-06;1.35E-05;-4.13E-05;-1
2024/05/03/13:24:45.803582;188066;1714767885;803273938;world;-3.08E-05;4.89E-06;-1.62E-05;9.45E-06;5.02E-06;-2.70E-05;-1
2024/05/03/13:24:45.824599;188067;1714767885;824170835;world;-2.43E-05;4.69E-06;-1.34E-05;2.05E-05;6.26E-06;-1.27E-05;-1
2024/05/03/13:24:45.833341;188068;1714767885;833073227;world;-1.22E-05;5.80E-06;-1.69E-05;9.86E-06;1.72E-05;3.54E-06;-1
2024/05/03/13:24:45.853256;188069;1714767885;852960821;world;2.11E-05;1.69E-05;-1.48E-05;2.51E-05;-1.63E-05;-4.13E-05;-1
2024/05/03/13:24:45.863250;188070;1714767885;863068745;world;-7.30E-07;1.21E-05;-3.27E-05;-5.64E-05;3.16E-05;-7.94E-05;-1
2024/05/03/13:24:45.883900;188071;1714767885;883346039;world;-1.56E-05;2.49E-06;-1.29E-05;5.17E-05;3.85E-05;6.78E-07;-1
2024/05/03/13:24:45.903645;188072;1714767885;903367964;world;-1.16E-05;2.43E-05;1.77E-05;0.00012746;0.000133932;-8.70E-05;-1
2024/05/03/13:24:45.933398;188073;1714767885;933011331;world;-4.77E-06;1.01E-05;-1.04E-05;2.59E-06;3.30E-05;-2.78E-07;-1
2024/05/03/13:24:45.933436;188074;1714767885;933052698;world;-2.48E-05;5.54E-06;-2.21E-05;1.94E-05;2.74E-08;1.02E-05;-1
2024/05/03/13:24:45.943128;188075;1714767885;942887899;world;-3.24E-07;2.87E-05;1.70E-05;0.000119067;0.000109911;-8.51E-05;-1
2024/05/03/13:24:45.964271;188076;1714767885;963523526;world;-2.31E-05;1.40E-06;-8.11E-06;1.30E-05;7.38E-05;-2.13E-05;-1
2024/05/03/13:24:45.973151;188077;1714767885;972864774;world;4.99E-07;1.05E-05;-1.93E-05;-1.40E-05;-2.81E-06;-3.08E-05;-1
2024/05/03/13:24:46.003656;188078;1714767886;3324938;world;-8.07E-06;8.33E-06;-1.94E-05;-4.99E-06;-4.40E-07;-1.84E-05;-1
2024/05/03/13:24:46.003680;188079;1714767886;3362458;world;-1.18E-05;1.93E-05;-1.98E-05;-2.13E-05;-1.54E-05;-2.60E-05;-1
2024/05/03/13:24:46.023138;188080;1714767886;22892025;world;-8.38E-06;9.00E-06;-1.26E-05;5.73E-06;8.61E-07;-1.65E-05;-1
2024/05/03/13:24:46.033091;188081;1714767886;32840010;world;-2.33E-05;9.26E-06;-1.67E-05;2.24E-05;1.50E-05;-2.60E-05;-1
2024/05/03/13:24:46.053284;188082;1714767886;53010593;world;-1.86E-05;1.53E-05;-3.14E-05;-3.67E-08;2.18E-06;-3.17E-05;-1
2024/05/03/13:24:46.073542;188083;1714767886;73238291;world;-8.82E-06;1.37E-05;-2.42E-05;-1.45E-05;-8.54E-06;-5.75E-05;-1
2024/05/03/13:24:46.083580;188084;1714767886;83249836;world;-1.23E-05;1.43E-05;-1.03E-05;2.24E-05;3.85E-05;-2.60E-05;-1
2024/05/03/13:24:46.103228;188085;1714767886;102972912;world;-1.29E-05;2.34E-05;-6.47E-06;1.91E-05;4.05E-05;-2.77E-07;-1
2024/05/03/13:24:46.123283;188086;1714767886;123043719;world;-2.35E-05;1.12E-05;-2.16E-05;6.89E-07;2.19E-05;-1.74E-05;-1
2024/05/03/13:24:46.133862;188087;1714767886;133351306;world;-1.99E-05;1.03E-05;-2.00E-05;-1.11E-05;-1.80E-05;-1.08E-05;-1
2024/05/03/13:24:46.153327;188088;1714767886;153019518;world;-1.73E-05;1.64E-05;-1.50E-05;2.67E-05;2.77E-05;1.21E-05;-1
2024/05/03/13:24:46.164536;188089;1714767886;164070051;world;-1.83E-05;1.03E-06;-2.84E-05;4.63E-05;7.80E-06;-1.23E-06;-1
2024/05/03/13:24:46.173294;188090;1714767886;173041854;world;-5.77E-06;3.48E-05;9.07E-06;9.67E-05;0.000148068;-8.23E-05;-1
2024/05/03/13:24:46.193553;188091;1714767886;193233597;world;-2.24E-05;1.28E-05;-2.45E-05;7.47E-05;-2.19E-05;3.69E-05;-1
2024/05/03/13:24:46.213443;188092;1714767886;213159763;world;-1.30E-05;7.37E-06;-1.93E-05;1.50E-05;-1.53E-06;-7.91E-06;-1
2024/05/03/13:24:46.233948;188093;1714767886;233683721;world;-9.71E-06;1.25E-05;-2.35E-05;-3.55E-05;6.34E-06;-2.32E-05;-1
2024/05/03/13:24:46.243294;188094;1714767886;242973509;world;-1.59E-05;1.26E-05;-1.32E-05;-1.61E-05;3.39E-05;-7.91E-06;-1
2024/05/03/13:24:46.253098;188095;1714767886;252834720;world;-9.41E-06;7.70E-06;-2.73E-05;1.85E-05;-4.04E-05;3.41E-05;-1
2024/05/03/13:24:46.273366;188096;1714767886;273069246;world;-2.10E-05;1.39E-05;-1.61E-05;-2.07E-05;8.39E-06;-1.17E-05;-1
2024/05/03/13:24:46.283653;188097;1714767886;283326789;world;-1.79E-05;1.95E-05;-1.70E-05;-2.43E-05;1.95E-06;-2.89E-05;-1
2024/05/03/13:24:46.313167;188098;1714767886;312899633;world;-8.94E-06;2.12E-05;-1.42E-05;-1.35E-05;-7.62E-06;-3.17E-05;-1
2024/05/03/13:24:46.353740;188099;1714767886;353354173;world;-8.00E-06;1.76E-05;-1.95E-05;-6.08E-05;-1.28E-05;-5.46E-05;-1
2024/05/03/13:24:46.353764;188101;1714767886;353404407;world;-9.36E-06;1.90E-05;-1.82E-05;-1.37E-05;-1.75E-05;-1.84E-05;-1
2024/05/03/13:24:46.363186;188102;1714767886;362903531;world;-1.72E-05;1.23E-05;-1.65E-05;8.59E-06;4.03E-06;-1.27E-05;-1
2024/05/03/13:24:46.383537;188103;1714767886;383284038;world;-2.22E-05;9.13E-06;-2.30E-05;-1.66E-05;-9.87E-06;-3.08E-05;-1
2024/05/03/13:24:46.393569;188104;1714767886;393238807;world;-1.76E-05;9.17E-06;-1.95E-05;-1.66E-05;4.73E-05;-5.56E-05;-1
2024/05/03/13:24:46.413358;188105;1714767886;413078129;world;-5.33E-07;1.16E-05;-1.56E-05;-6.21E-06;-5.60E-07;-2.60E-05;-1
2024/05/03/13:24:46.444053;188106;1714767886;443368939;world;-4.79E-06;1.22E-05;-1.54E-05;-4.04E-06;2.15E-05;-3.46E-05;-1
2024/05/03/13:24:46.444078;188107;1714767886;443404696;world;-1.22E-05;1.84E-05;-2.36E-05;-3.96E-05;-1.75E-06;-1.94E-05;-1
2024/05/03/13:24:46.463639;188108;1714767886;462870108;world;-9.60E-06;2.02E-06;-3.26E-05;5.04E-05;-5.84E-05;-8.86E-06;-1
2024/05/03/13:24:46.473774;188109;1714767886;473243920;world;-3.55E-06;1.03E-05;-2.68E-05;-3.86E-05;2.34E-05;-3.65E-05;-1
2024/05/03/13:24:46.493263;188110;1714767886;492990760;world;-1.87E-05;1.17E-05;-2.00E-05;2.18E-05;1.02E-05;-2.79E-05;-1
2024/05/03/13:24:46.513722;188111;1714767886;513394798;world;-1.41E-05;1.75E-05;-1.54E-05;8.79E-06;8.93E-06;-2.22E-05;-1
2024/05/03/13:24:46.523607;188112;1714767886;523320084;world;-1.54E-05;1.62E-05;-2.22E-05;-9.78E-06;1.81E-05;-6.00E-06;-1
2024/05/03/13:24:46.533266;188113;1714767886;532914985;world;-4.99E-06;4.36E-06;-2.78E-05;6.68E-05;-1.23E-05;1.12E-05;-1
2024/05/03/13:24:46.553423;188114;1714767886;552877301;world;-1.60E-05;1.99E-05;-1.89E-05;1.88E-05;2.74E-05;-4.03E-05;-1
2024/05/03/13:24:46.573716;188115;1714767886;573326606;world;-2.52E-05;7.84E-06;-1.80E-05;2.05E-05;2.55E-05;-3.56E-05;-1
2024/05/03/13:24:46.583585;188116;1714767886;583281433;world;-1.62E-05;7.53E-06;-2.56E-05;-1.93E-05;1.10E-05;-2.70E-05;-1
2024/05/03/13:24:46.603415;188117;1714767886;603133991;world;-4.91E-06;1.74E-05;-2.06E-05;-1.38E-05;3.60E-05;-3.17E-05;-1
2024/05/03/13:24:46.613277;188118;1714767886;612979331;world;-1.34E-06;2.34E-05;-1.82E-05;-8.39E-05;1.59E-05;-5.46E-05;-1
2024/05/03/13:24:46.654116;188119;1714767886;653394318;world;4.25E-07;1.67E-05;-1.63E-05;-3.80E-05;2.31E-06;-4.13E-05;-1
2024/05/03/13:24:46.654139;188120;1714767886;653433561;world;-2.04E-05;7.66E-06;-2.28E-05;3.64E-05;2.23E-05;-2.77E-07;-1
2024/05/03/13:24:46.663334;188121;1714767886;663155351;world;4.97E-06;7.46E-06;-1.91E-05;-7.51E-05;3.02E-05;-1.94E-05;-1
2024/05/03/13:24:46.673298;188122;1714767886;672945029;world;-1.73E-05;4.33E-06;-1.79E-05;-1.83E-05;1.19E-05;-3.14E-06;-1
2024/05/03/13:24:46.693565;188123;1714767886;693230086;world;-1.07E-05;1.66E-05;-2.24E-05;-4.25E-05;-8.79E-06;-5.65E-05;-1
2024/05/03/13:24:46.713456;188124;1714767886;713143389;world;-1.02E-05;9.35E-06;-2.40E-05;-7.22E-06;5.69E-06;-2.60E-05;-1
2024/05/03/13:24:46.723565;188125;1714767886;723309872;world;-9.87E-06;7.96E-06;-2.25E-05;4.18E-06;2.55E-05;-2.32E-05;-1
2024/05/03/13:24:46.763539;188126;1714767886;762995369;world;-8.84E-06;1.96E-05;-1.73E-05;-2.13E-05;1.59E-05;-3.65E-05;-1
2024/05/03/13:24:46.763563;188127;1714767886;763032067;world;-9.49E-06;5.72E-06;-2.77E-05;1.95E-05;9.82E-06;-1.84E-05;-1
2024/05/03/13:24:46.773432;188128;1714767886;773165481;world;-1.68E-05;1.38E-05;-2.77E-05;5.92E-05;2.03E-05;-2.70E-05;-1
2024/05/03/13:24:46.783203;188129;1714767886;782983802;world;8.22E-06;2.15E-05;-2.30E-05;-3.06E-05;-7.26E-06;-6.04E-05;-1
2024/05/03/13:24:46.803603;188130;1714767886;803258671;world;-1.41E-06;2.15E-05;-1.87E-05;-2.18E-05;3.41E-05;-4.61E-05;-1
2024/05/03/13:24:46.823446;188131;1714767886;822968791;world;-1.53E-05;9.54E-07;-1.42E-05;-1.05E-05;4.70E-05;-3.46E-05;-1
2024/05/03/13:24:46.853637;188132;1714767886;853275943;world;-2.20E-05;1.63E-05;-2.52E-05;2.79E-06;1.28E-05;-1.84E-05;-1
2024/05/03/13:24:46.853647;188133;1714767886;853311209;world;-3.03E-05;1.28E-05;-1.68E-05;4.47E-05;7.51E-05;-2.98E-05;-1
2024/05/03/13:24:46.863696;188134;1714767886;863314546;world;-3.21E-06;1.43E-05;-1.36E-05;-1.70E-05;1.19E-05;-1.84E-05;-1
2024/05/03/13:24:46.884012;188135;1714767886;883253956;world;-1.76E-05;8.66E-06;-1.81E-05;2.35E-05;2.79E-05;-2.70E-05;-1
2024/05/03/13:24:46.893754;188136;1714767886;892921400;world;-3.04E-06;1.68E-05;-1.14E-05;-5.82E-06;-2.83E-06;-2.89E-05;-1
2024/05/03/13:24:46.923618;188137;1714767886;923373229;world;-2.13E-05;8.77E-06;-1.80E-05;-7.42E-06;1.19E-05;1.12E-05;-1
2024/05/03/13:24:46.933594;188138;1714767886;933239339;world;-1.82E-05;1.32E-05;-1.33E-05;3.12E-05;4.28E-05;-3.75E-05;-1
2024/05/03/13:24:46.963626;188139;1714767886;963302173;world;-1.50E-05;1.53E-05;-6.79E-06;-2.33E-05;2.06E-05;-4.09E-06;-1
2024/05/03/13:24:46.963657;188140;1714767886;963336708;world;2.94E-06;1.34E-05;-1.92E-05;-6.23E-05;-1.12E-05;-2.41E-05;-1
2024/05/03/13:24:46.973635;188141;1714767886;973412722;world;-2.03E-05;1.24E-05;-2.17E-05;-7.66E-06;3.07E-05;-5.05E-06;-1
2024/05/03/13:24:46.993414;188142;1714767886;993048283;world;-2.41E-05;5.82E-06;-1.86E-05;2.50E-05;1.44E-05;-1.23E-06;-1
2024/05/03/13:24:47.004022;188143;1714767887;3492909;world;-1.55E-05;2.02E-05;1.80E-05;5.61E-05;0.000160306;-7.47E-05;-1
2024/05/03/13:24:47.023808;188144;1714767887;23471861;world;-1.47E-05;8.15E-06;-2.41E-05;1.05E-05;4.47E-05;-6.00E-06;-1
2024/05/03/13:24:47.063571;188145;1714767887;63224887;world;-9.40E-06;1.48E-05;-2.58E-05;-1.54E-05;2.82E-05;-1.36E-05;-1
2024/05/03/13:24:47.063597;188146;1714767887;63261706;world;-1.94E-05;1.60E-05;-1.75E-05;-8.90E-06;3.04E-05;-3.75E-05;-1
2024/05/03/13:24:47.073327;188147;1714767887;72999902;world;-1.90E-05;1.59E-05;-3.84E-06;1.78E-05;2.76E-05;-1.94E-05;-1
2024/05/03/13:24:47.084156;188148;1714767887;83634600;world;9.09E-06;1.41E-05;-2.14E-05;-4.15E-05;7.16E-05;-4.99E-05;-1
2024/05/03/13:24:47.093994;188149;1714767887;93628018;world;-1.71E-05;8.29E-07;-4.04E-05;4.64E-05;-5.23E-05;2.07E-05;-1
2024/05/03/13:24:47.113585;188150;1714767887;113262690;world;-2.95E-05;1.61E-05;-1.68E-05;2.11E-05;4.55E-05;-1.94E-05;-1
2024/05/03/13:24:47.133216;188151;1714767887;132926889;world;-9.61E-06;8.32E-06;-2.45E-05;-4.65E-05;-2.92E-05;-3.46E-05;-1
2024/05/03/13:24:47.153381;188152;1714767887;153054987;world;-2.08E-05;1.71E-05;-2.75E-05;-1.03E-05;-1.39E-05;-1.84E-05;-1
2024/05/03/13:24:47.163732;188153;1714767887;163372694;world;-1.57E-05;9.32E-06;-2.82E-05;-8.07E-06;-4.48E-06;1.59E-05;-1
2024/05/03/13:24:47.174383;188154;1714767887;173979795;world;-2.75E-05;1.94E-05;-2.61E-05;-2.63E-05;3.73E-05;-2.03E-05;-1
2024/05/03/13:24:47.193512;188155;1714767887;193098267;world;-1.97E-05;9.24E-06;-1.91E-05;2.84E-05;4.16E-05;-3.75E-05;-1
2024/05/03/13:24:47.213944;188156;1714767887;213153995;world;-1.96E-05;7.27E-06;-3.61E-05;3.43E-05;-6.56E-05;1.69E-05;-1
2024/05/03/13:24:47.233643;188157;1714767887;233349115;world;-1.54E-05;2.27E-05;-3.52E-05;-2.97E-05;-2.91E-06;-3.17E-05;-1
2024/05/03/13:24:47.253729;188158;1714767887;253299744;world;-3.00E-05;1.37E-05;-2.92E-05;-3.08E-06;1.97E-05;-8.86E-06;-1
2024/05/03/13:24:47.263433;188159;1714767887;263188268;world;-2.59E-05;1.40E-05;-2.86E-05;-3.25E-05;-2.37E-05;-6.00E-06;-1
2024/05/03/13:24:47.273480;188160;1714767887;273072605;world;-1.21E-05;2.71E-05;-2.60E-05;-4.40E-05;1.10E-05;-1.17E-05;-1
2024/05/03/13:24:47.283295;188161;1714767887;282969962;world;-1.65E-05;1.58E-05;-3.54E-05;-3.33E-05;-8.35E-06;-4.70E-05;-1
2024/05/03/13:24:47.303974;188162;1714767887;303591933;world;-2.78E-05;1.24E-05;-3.88E-05;-1.68E-05;-2.09E-05;-1.84E-05;-1
2024/05/03/13:24:47.323390;188163;1714767887;323073705;world;-2.23E-05;2.94E-05;-4.58E-05;-6.69E-05;-1.41E-05;-4.89E-05;-1
2024/05/03/13:24:47.333725;188164;1714767887;333314278;world;-1.73E-05;1.90E-05;-3.90E-05;-2.91E-05;-2.21E-05;-3.56E-05;-1
2024/05/03/13:24:47.363315;188165;1714767887;363038126;world;-1.67E-05;1.32E-05;-3.51E-05;-1.66E-05;1.56E-05;-2.60E-05;-1
2024/05/03/13:24:47.373592;188166;1714767887;373314447;world;7.67E-06;3.67E-05;-3.49E-05;-0.000115176;-3.49E-05;-4.80E-05;-1
2024/05/03/13:24:47.383542;188167;1714767887;383256139;world;-2.58E-05;2.62E-05;-3.97E-05;-2.84E-05;-7.58E-07;-6.80E-05;-1
2024/05/03/13:24:47.394860;188168;1714767887;394615047;world;5.62E-05;6.43E-05;5.71E-07;6.17E-05;0.00016183;-0.000284463;-1
2024/05/03/13:24:47.413118;188169;1714767887;412848119;world;5.99E-05;6.82E-05;-3.45E-06;9.11E-05;0.000199252;-0.000287316;-1
2024/05/03/13:24:47.433402;188170;1714767887;433035554;world;5.48E-05;7.74E-05;-4.84E-07;7.29E-05;0.000176237;-0.000291136;-1
2024/05/03/13:24:47.443840;188171;1714767887;443538720;world;6.59E-05;7.78E-05;-2.58E-06;0.000110448;0.000168195;-0.000314972;-1
2024/05/03/13:24:47.463250;188172;1714767887;462959918;world;6.62E-05;6.50E-05;-2.17E-07;0.000113123;0.000131006;-0.000309254;-1
2024/05/03/13:24:47.473202;188173;1714767887;472903733;world;-1.55E-05;2.30E-06;-2.65E-05;7.62E-05;0.000120454;8.31E-06;-1
2024/05/03/13:24:47.493417;188174;1714767887;493125423;world;-5.99E-06;1.54E-05;-5.20E-05;-5.53E-05;3.20E-05;-5.94E-05;-1
2024/05/03/13:24:47.503251;188175;1714767887;502985875;world;-3.68E-05;-4.13E-06;-3.88E-05;-6.68E-05;5.94E-05;-0.000117584;-1
2024/05/03/13:24:47.523346;188176;1714767887;523037705;world;-3.33E-05;-2.08E-05;-4.91E-05;4.19E-05;-7.84E-07;-2.79E-05;-1
2024/05/03/13:24:47.543889;188177;1714767887;543297466;world;-2.69E-05;3.37E-06;-5.01E-05;-5.54E-05;2.69E-05;-2.03E-05;-1
2024/05/03/13:24:47.563212;188178;1714767887;562936652;world;-6.77E-05;-2.17E-05;-5.30E-05;6.82E-05;-4.44E-06;-1.36E-05;-1
2024/05/03/13:24:47.563241;188179;1714767887;562974102;world;1.04E-05;2.73E-05;-1.47E-05;0.000116866;0.000146154;-5.46E-05;-1
2024/05/03/13:24:47.583755;188180;1714767887;583432278;world;-1.18E-05;-3.61E-06;-4.73E-05;5.06E-05;-5.21E-05;5.12E-05;-1
2024/05/03/13:24:47.603633;188181;1714767887;603326121;world;7.05E-05;6.67E-05;1.58E-06;7.53E-05;0.00016931;-0.000290182;-1
2024/05/03/13:24:47.613618;188182;1714767887;613352252;world;-2.17E-05;3.29E-05;2.80E-05;0.000455145;2.88E-05;-9.28E-05;-0.999999881
2024/05/03/13:24:47.644003;188183;1714767887;643362937;world;-1.26E-05;2.60E-05;3.15E-05;0.00042779;4.83E-05;-7.66E-05;-0.999999881
2024/05/03/13:24:47.644809;188184;1714767887;643938096;world;3.97E-05;5.96E-05;8.14E-05;0.000216074;0.000291792;-0.000117517;-1
2024/05/03/13:24:47.663725;188185;1714767887;663413246;world;1.49E-05;1.38E-05;3.98E-05;0.000237903;0.000382853;-0.00017757;-0.999999881
2024/05/03/13:24:47.683512;188186;1714767887;683218094;world;4.13E-05;6.14E-05;7.98E-05;7.09E-05;0.000324087;-0.000116603;-1
2024/05/03/13:24:47.693608;188187;1714767887;693290832;world;8.76E-05;0.000124084;0.000129946;-0.000183339;0.00024959;-7.57E-05;-1
2024/05/03/13:24:47.713715;188188;1714767887;713346411;world;6.04E-05;3.11E-05;7.10E-05;0.000223309;0.000356559;-9.27E-05;-0.999999881
2024/05/03/13:24:47.723727;188189;1714767887;723261381;world;6.77E-05;4.84E-05;6.13E-05;0.00022601;0.00037746;-8.51E-05;-0.999999881
2024/05/03/13:24:47.743492;188190;1714767887;743143385;world;5.56E-05;3.69E-05;4.80E-05;0.000213977;0.000362624;-0.000117502;-0.999999881
2024/05/03/13:24:47.773294;188191;1714767887;772977488;world;5.17E-05;3.01E-05;5.44E-05;0.000182593;0.000352835;-9.08E-05;-1
2024/05/03/13:24:47.773323;188192;1714767887;773013105;world;7.06E-05;1.63E-05;4.40E-05;-1.04E-05;0.000295627;-0.000132842;-1
2024/05/03/13:24:47.783286;188193;1714767887;782990115;world;-2.26E-05;1.76E-05;4.74E-05;0.000259968;0.000506986;4.18E-05;-0.999999881
2024/05/03/13:24:47.803627;188194;1714767887;803326510;world;1.10E-06;-2.37E-05;5.06E-06;0.000233505;0.000109296;-8.04E-05;-1
2024/05/03/13:24:47.823526;188195;1714767887;823155593;world;-1.70E-06;-1.60E-05;2.01E-05;0.000173667;5.63E-05;-0.000106126;-1
2024/05/03/13:24:47.843551;188196;1714767887;843260303;world;1.55E-05;-5.46E-05;-1.15E-06;0.000173529;8.54E-05;-0.000278736;-1
2024/05/03/13:24:47.853767;188197;1714767887;853395750;world;0.000105452;3.61E-06;-4.19E-06;0.000178789;3.96E-05;-0.000886235;-0.999999642
2024/05/03/13:24:47.873346;188198;1714767887;873061899;world;0.000206012;-4.17E-05;-4.99E-06;0.000264792;-3.64E-05;-0.001465131;-0.999998927
2024/05/03/13:24:47.883728;188199;1714767887;883291911;world;0.000413585;5.09E-05;-2.35E-05;-0.000123071;3.86E-05;-0.002842228;-0.999995947
2024/05/03/13:24:47.893286;188200;1714767887;892966162;world;0.000465062;7.97E-05;3.28E-06;-0.000135709;3.57E-05;-0.003472605;-0.99999404
2024/05/03/13:24:47.913327;188201;1714767887;913041748;world;0.000536639;0.000100454;2.17E-05;-0.000190111;-2.72E-06;-0.005926376;-0.999982476
2024/05/03/13:24:47.923464;188202;1714767887;923164428;world;0.000584316;0.00011746;2.12E-05;-0.000260473;-7.89E-05;-0.006931507;-0.99997592
2024/05/03/13:24:47.943825;188203;1714767887;943672989;world;0.000531141;0.000116799;2.98E-05;-0.00019233;-4.63E-05;-0.008972317;-0.999959707
2024/05/03/13:24:47.973416;188204;1714767887;973147083;world;0.000563648;0.000181271;7.78E-05;-7.38E-05;0.000208194;-0.01140599;-0.999934912
2024/05/03/13:24:47.973447;188205;1714767887;973186357;world;0.000687346;0.000260428;1.04E-05;-0.000442121;-5.81E-05;-0.014043598;-0.999901354
2024/05/03/13:24:47.993874;188206;1714767887;993292593;world;0.0007414;0.000245925;2.76E-05;-0.000537136;4.31E-05;-0.016540071;-0.999863148
2024/05/03/13:24:48.003524;188207;1714767888;3078524;world;0.000798188;0.000271904;1.17E-05;-0.000677901;0.000106442;-0.018168746;-0.999834776
2024/05/03/13:24:48.023465;188208;1714767888;23195979;world;0.000771217;0.000245831;1.87E-05;-0.00069058;0.000202082;-0.02196843;-0.999758422
2024/05/03/13:24:48.033617;188209;1714767888;33150144;world;0.000783183;0.000281741;4.22E-05;-0.000921376;0.000144028;-0.023267938;-0.999728858
2024/05/03/13:24:48.053530;188210;1714767888;53136201;world;0.00077799;0.000325665;4.03E-05;-0.000753171;8.08E-05;-0.025780998;-0.999667406
2024/05/03/13:24:48.083404;188211;1714767888;83054815;world;0.000750452;0.000327027;0.000101445;-0.000672271;3.47E-05;-0.028188113;-0.999602497
2024/05/03/13:24:48.083430;188212;1714767888;83099008;world;0.000663694;0.000278778;7.52E-05;-0.000327322;4.45E-05;-0.030646581;-0.999530196
2024/05/03/13:24:48.103373;188213;1714767888;103049378;world;0.000628117;0.000247101;7.81E-05;-8.37E-05;0.000102654;-0.033074353;-0.999452889
2024/05/03/13:24:48.113670;188214;1714767888;113328053;world;0.00063676;0.000249413;7.11E-05;-4.42E-05;0.000155485;-0.035593428;-0.999366343
2024/05/03/13:24:48.133504;188215;1714767888;133209033;world;0.000637602;0.000239876;6.35E-05;-0.00010838;8.81E-05;-0.036808562;-0.999322414
2024/05/03/13:24:48.153337;188216;1714767888;153091748;world;0.000679784;0.00021375;4.87E-05;-0.000453313;8.95E-05;-0.040094424;-0.999195874
2024/05/03/13:24:48.173505;188217;1714767888;173229218;world;0.00071945;0.000226801;6.50E-05;-0.000454998;9.48E-05;-0.042171676;-0.999110281
2024/05/03/13:24:48.183529;188218;1714767888;182933627;world;0.000742376;0.000227644;7.26E-05;-0.000512691;0.000208837;-0.043230299;-0.999064982
2024/05/03/13:24:48.193517;188219;1714767888;193217992;world;0.000669274;0.000219717;4.89E-05;-0.000478011;0.000209956;-0.045191038;-0.998978257
2024/05/03/13:24:48.203197;188220;1714767888;202881422;world;0.000676174;0.000228951;0.00011067;-0.000419503;0.000265343;-0.047164001;-0.998887122
2024/05/03/13:24:48.223750;188221;1714767888;223505758;world;0.000635531;0.000199028;8.37E-05;-0.000274967;0.000337164;-0.049210105;-0.998788416
2024/05/03/13:24:48.253581;188222;1714767888;253233562;world;0.000639956;0.000191808;8.42E-05;-0.000317248;0.000319605;-0.051207446;-0.998687923
2024/05/03/13:24:48.263524;188223;1714767888;263256619;world;0.000627518;0.000188124;0.000100268;-0.000299555;0.000314893;-0.053116959;-0.998588264
2024/05/03/13:24:48.283650;188224;1714767888;283297449;world;0.000619158;0.000177553;8.68E-05;-0.00030819;0.000313311;-0.054048307;-0.998538256
2024/05/03/13:24:48.283676;188225;1714767888;283343516;world;0.000627771;0.000184609;0.000111251;-0.000325246;0.000380124;-0.055890903;-0.998436749
2024/05/03/13:24:48.303597;188226;1714767888;303318111;world;0.000591218;0.00015537;0.000101644;-0.000222335;0.000412326;-0.057535224;-0.998343349
2024/05/03/13:24:48.313531;188227;1714767888;313262307;world;0.000578888;0.000141819;0.000105633;-0.000145457;0.00043123;-0.059178427;-0.998247385
2024/05/03/13:24:48.333532;188228;1714767888;333270699;world;0.000495419;0.000101458;0.000173146;0.000162868;0.000738799;-0.06056527;-0.998163998
2024/05/03/13:24:48.353524;188229;1714767888;353063501;world;0.000507999;0.000100492;0.00016541;5.08E-05;0.000721174;-0.061347816;-0.998116255
2024/05/03/13:24:48.363293;188230;1714767888;363003542;world;0.000509959;3.49E-05;0.000133047;0.000268119;0.000691676;-0.063718632;-0.99796766
2024/05/03/13:24:48.383698;188231;1714767888;383340677;world;0.000551648;7.51E-05;0.000146044;8.60E-05;0.000798861;-0.06548316;-0.997853339
2024/05/03/13:24:48.393679;188232;1714767888;393363149;world;0.000559252;6.71E-05;0.000152042;0.000117886;0.000744546;-0.066251084;-0.997802675
2024/05/03/13:24:48.413394;188233;1714767888;413092750;world;0.00055664;6.16E-05;0.000158662;8.36E-05;0.000768093;-0.067790695;-0.99769932
2024/05/03/13:24:48.433236;188234;1714767888;432986303;world;0.000571806;5.54E-05;0.000162377;0.000211484;0.000805759;-0.069298588;-0.997595608
2024/05/03/13:24:48.443565;188235;1714767888;443270177;world;0.000514645;2.16E-05;0.00013207;0.000355515;0.000772178;-0.070717886;-0.997496068
2024/05/03/13:24:48.463497;188236;1714767888;463194860;world;0.000501137;-3.94E-06;0.000133287;0.000423609;0.000754214;-0.072196044;-0.997390091
2024/05/03/13:24:48.483254;188237;1714767888;482976715;world;0.00049971;-1.14E-06;0.000132808;0.000582157;0.000750018;-0.073648296;-0.997283816
2024/05/03/13:24:48.493390;188238;1714767888;493089167;world;0.000500854;-4.00E-08;0.000118734;0.000449777;0.000777545;-0.074328408;-0.99723345
2024/05/03/13:24:48.503424;188239;1714767888;503165742;world;0.000472527;-7.87E-06;0.000115928;0.000646974;0.000807316;-0.075812705;-0.997121513
2024/05/03/13:24:48.523609;188240;1714767888;523303004;world;0.000398465;3.86E-05;9.38E-05;0.000788185;0.000801123;-0.077360593;-0.997002542
2024/05/03/13:24:48.533631;188241;1714767888;533315289;world;0.000383459;4.94E-05;8.72E-05;0.000702011;0.000838168;-0.078755438;-0.996893406
2024/05/03/13:24:48.563202;188242;1714767888;562906928;world;0.00046606;6.67E-05;0.00011574;0.000216565;0.000545162;-0.07998798;-0.996795714
2024/05/03/13:24:48.563230;188243;1714767888;562939980;world;0.000478894;6.66E-05;8.66E-05;0.000281692;0.000513075;-0.081269324;-0.996692061
2024/05/03/13:24:48.593593;188244;1714767888;593247494;world;0.00045836;3.27E-05;6.55E-05;0.000389044;0.000487455;-0.082773849;-0.996568203
2024/05/03/13:24:48.603460;188245;1714767888;603177965;world;0.000451129;4.26E-06;7.81E-05;0.000469091;0.000572185;-0.084047228;-0.99646157
2024/05/03/13:24:48.613537;188246;1714767888;613267315;world;0.000500973;2.42E-05;8.25E-05;0.0002744;0.000509449;-0.085428089;-0.996344149
2024/05/03/13:24:48.633318;188247;1714767888;632954522;world;0.000463162;1.45E-05;0.000106639;0.000251565;0.000497594;-0.08609511;-0.99628675
2024/05/03/13:24:48.643731;188248;1714767888;643432820;world;0.000452641;-2.88E-05;0.000102184;0.000305878;0.00047826;-0.087473646;-0.996166646
2024/05/03/13:24:48.663217;188249;1714767888;662926244;world;0.00038797;-3.04E-05;9.16E-05;0.000385571;0.000614582;-0.088815846;-0.996047795
2024/05/03/13:24:48.693370;188250;1714767888;693029935;world;0.000358462;-3.63E-05;9.71E-05;0.000444474;0.000639768;-0.090096191;-0.995932758
2024/05/03/13:24:48.693394;188251;1714767888;693064419;world;0.000379581;-2.85E-05;9.56E-05;0.000466062;0.000637423;-0.091484703;-0.995806217
2024/05/03/13:24:48.713446;188252;1714767888;713149022;world;0.000364903;-4.77E-05;8.14E-05;0.000651558;0.000725546;-0.092757948;-0.99568826
2024/05/03/13:24:48.723376;188253;1714767888;723073823;world;0.000347339;-3.77E-05;8.58E-05;0.000809327;0.00071452;-0.093967505;-0.995574713
2024/05/03/13:24:48.743804;188254;1714767888;743248934;world;0.000369944;9.38E-06;6.74E-05;0.000631003;0.00071867;-0.095244601;-0.995453477
2024/05/03/13:24:48.764358;188255;1714767888;763064372;world;0.000363164;1.32E-05;8.26E-05;0.00074799;0.000730171;-0.095912777;-0.995389223
2024/05/03/13:24:48.773432;188256;1714767888;773129617;world;0.000424888;3.67E-05;9.33E-05;0.000612659;0.000615086;-0.09716972;-0.99526751
2024/05/03/13:24:48.794193;188257;1714767888;793819184;world;0.000509158;4.41E-05;0.000140431;0.000349716;0.000555975;-0.098500572;-0.995136797
2024/05/03/13:24:48.803462;188258;1714767888;803214842;world;0.000522587;0.000102497;0.000148772;0.000124664;0.000675583;-0.099859655;-0.995001376
2024/05/03/13:24:48.823631;188259;1714767888;823391958;world;0.000552326;0.000146627;0.000169175;0.00019249;0.000758087;-0.10114906;-0.99487102
2024/05/03/13:24:48.833647;188260;1714767888;833346194;world;0.000576064;0.000106863;0.00014254;6.44E-05;0.000601429;-0.102456488;-0.994737327
2024/05/03/13:24:48.853616;188261;1714767888;853258685;world;0.000562999;0.000112321;0.000180965;0.000118155;0.000763803;-0.103687726;-0.994609594
2024/05/03/13:24:48.873272;188262;1714767888;872964967;world;0.000594791;0.00014475;0.000191317;2.50E-05;0.00076812;-0.105042227;-0.994467497
2024/05/03/13:24:48.903968;188263;1714767888;903595665;world;0.000597648;0.000131805;0.000178967;-2.27E-05;0.000743522;-0.105705149;-0.994397283
2024/05/03/13:24:48.903975;188264;1714767888;903652061;world;0.000605464;0.000129893;0.000187514;2.43E-05;0.000778381;-0.106960639;-0.994262993
2024/05/03/13:24:48.913392;188265;1714767888;913070392;world;0.000587061;0.000160959;0.00022904;4.60E-05;0.001013819;-0.108345836;-0.99411279
2024/05/03/13:24:48.923985;188266;1714767888;923386856;world;0.000566386;0.000118619;0.000199735;0.000223978;0.000940396;-0.109687053;-0.993965805
2024/05/03/13:24:48.943300;188267;1714767888;942982442;world;0.000535708;8.60E-05;0.000191262;0.000164005;0.001024647;-0.110973366;-0.993822813
2024/05/03/13:24:48.973325;188268;1714767888;973047561;world;0.00054162;6.77E-05;0.000183917;-0.000109109;0.001081202;-0.11243026;-0.993659079
2024/05/03/13:24:48.973334;188269;1714767888;973085802;world;0.000591464;6.52E-05;0.000184634;-0.000184186;0.001123131;-0.113792941;-0.993503869
2024/05/03/13:24:48.993658;188270;1714767888;993331998;world;0.000616945;9.43E-05;0.000184364;-0.000104731;0.001052824;-0.115185544;-0.993343472
2024/05/03/13:24:49.004090;188271;1714767889;3291032;world;0.000601366;5.34E-05;0.000195515;-0.000223675;0.001108502;-0.115858227;-0.993265152
2024/05/03/13:24:49.023704;188272;1714767889;23441731;world;0.000601999;4.64E-05;0.00019216;-0.000224824;0.001049191;-0.117206998;-0.993106902
2024/05/03/13:24:49.033748;188273;1714767889;33426412;world;0.000650965;6.87E-05;0.000214099;-0.0003254;0.001041341;-0.118523456;-0.992950678
2024/05/03/13:24:49.053287;188274;1714767889;53002561;world;0.000643;5.29E-05;0.000208611;-0.000393708;0.000971031;-0.119751595;-0.992803395
2024/05/03/13:24:49.073439;188275;1714767889;73214743;world;0.00057897;2.59E-05;0.000214423;-0.000316919;0.001122628;-0.12090569;-0.992663383
2024/05/03/13:24:49.083618;188276;1714767889;83308502;world;0.000583835;5.25E-05;0.000237492;-0.000276056;0.00125865;-0.122176021;-0.992507637
2024/05/03/13:24:49.103085;188277;1714767889;102843483;world;0.000625528;9.99E-05;0.000254733;-0.000458368;0.001077742;-0.123481296;-0.992346287
2024/05/03/13:24:49.113469;188278;1714767889;113178653;world;0.000569284;0.000104806;0.000135672;-1.75E-05;0.000772478;-0.125122607;-0.992141008
2024/05/03/13:24:49.133267;188279;1714767889;133094679;world;0.000566073;4.78E-05;0.000155755;-9.31E-05;0.000886614;-0.12632519;-0.99198854
2024/05/03/13:24:49.143496;188280;1714767889;143273226;world;0.000540532;4.45E-05;0.000161161;-9.22E-05;0.000925206;-0.126908869;-0.991914034
2024/05/03/13:24:49.173088;188281;1714767889;172848074;world;0.000542976;4.40E-05;0.000116845;0.000132078;0.000910143;-0.129085064;-0.991633177
2024/05/03/13:24:49.183514;188282;1714767889;183158177;world;0.000541046;4.00E-05;0.000126934;0.000116142;0.000978599;-0.129740372;-0.991547525
2024/05/03/13:24:49.193297;188283;1714767889;193076887;world;0.00052613;4.74E-05;0.00013403;0.000331824;0.000971898;-0.130986363;-0.991383672
2024/05/03/13:24:49.203857;188284;1714767889;203381621;world;0.000553951;5.45E-05;0.000146345;0.0003138;0.001050354;-0.13220121;-0.991222262
2024/05/03/13:24:49.223226;188285;1714767889;222959464;world;0.000570983;5.26E-05;0.000116735;0.00025023;0.001062721;-0.133490592;-0.991049528
2024/05/03/13:24:49.243403;188286;1714767889;243152849;world;0.000535887;8.52E-05;6.19E-05;0.000449244;0.000866528;-0.134841815;-0.990866661
2024/05/03/13:24:49.313307;188287;1714767889;313035693;world;0.000534784;8.48E-05;6.09E-05;0.000470705;0.00068524;-0.136247814;-0.990674436
2024/05/03/13:24:49.313331;188290;1714767889;313086939;world;0.000424571;2.52E-05;0.000103165;0.001034488;0.000901112;-0.139959097;-0.990156412
2024/05/03/13:24:49.323394;188291;1714767889;323114643;world;0.000394434;4.41E-06;8.55E-05;0.001101817;0.00097425;-0.140632212;-0.990060806
2024/05/03/13:24:49.383530;188292;1714767889;383249016;world;0.000363879;9.65E-07;9.13E-05;0.001257486;0.001081572;-0.141861111;-0.989885211
2024/05/03/13:24:49.383559;188295;1714767889;383301254;world;0.000402201;2.25E-05;9.86E-05;0.001131881;0.000977369;-0.145359084;-0.989377916
2024/05/03/13:24:49.403466;188296;1714767889;403226849;world;0.000405841;3.91E-05;0.00010314;0.001064631;0.000895051;-0.14679046;-0.989166677
2024/05/03/13:24:49.453617;188297;1714767889;453300816;world;0.000433199;2.51E-05;0.000127214;0.000930017;0.000770565;-0.148198962;-0.988956869
2024/05/03/13:24:49.453643;188299;1714767889;453354908;world;0.000396922;-2.49E-06;0.000112816;0.001241996;0.001150347;-0.150594294;-0.988594294
2024/05/03/13:24:49.463279;188300;1714767889;463022377;world;0.00039918;5.25E-06;0.000108723;0.001170111;0.001142137;-0.151859537;-0.988400817
2024/05/03/13:24:49.523646;188301;1714767889;523406639;world;0.00038743;-1.53E-05;0.000136356;0.001254522;0.001177082;-0.152536139;-0.988296449
2024/05/03/13:24:49.523671;188304;1714767889;523471731;world;0.000450682;-3.46E-05;0.000129524;0.001115604;0.000902029;-0.156621054;-0.987657785
2024/05/03/13:24:49.533510;188305;1714767889;533210502;world;0.000425458;-4.72E-05;0.000158332;0.001118305;0.001086332;-0.157792524;-0.987471044
2024/05/03/13:24:49.593299;188306;1714767889;592906644;world;0.000441574;-2.20E-05;0.00013541;0.001089216;0.000991795;-0.159222975;-0.987241626
2024/05/03/13:24:49.593328;188308;1714767889;592951568;world;0.000482444;2.05E-05;0.000133638;0.00104146;0.000965051;-0.161939651;-0.986799657
2024/05/03/13:24:49.713781;188309;1714767889;713284525;world;0.000446979;1.64E-06;0.000128402;0.001065419;0.001080702;-0.16330111;-0.986575186
2024/05/03/13:24:49.713808;188314;1714767889;713348024;world;0.000383876;-3.01E-05;0.000102399;0.001210152;0.001202023;-0.169265702;-0.98556906
2024/05/03/13:24:49.713813;188315;1714767889;713432122;world;0.00038296;-5.16E-05;9.99E-05;0.001280906;0.001222728;-0.170575634;-0.985342979
2024/05/03/13:24:49.713817;188316;1714767889;713445276;world;0.000387281;-4.43E-05;0.000113599;0.001233014;0.001251661;-0.171867639;-0.985118508
2024/05/03/13:24:49.813421;188317;1714767889;813051096;world;0.000375379;-3.80E-05;0.000117059;0.001232036;0.001274135;-0.173285097;-0.984870195
2024/05/03/13:24:49.823586;188318;1714767889;823229424;world;0.000378847;-3.57E-05;0.000125271;0.001129466;0.001244185;-0.17451933;-0.98465234
2024/05/03/13:24:49.823607;188321;1714767889;823278256;world;0.000312127;-8.42E-05;0.000133915;0.001056957;0.001137845;-0.177772358;-0.98407042
2024/05/03/13:24:49.913467;188322;1714767889;913113262;world;0.000332769;-0.00015231;0.000131355;0.000939057;0.00108203;-0.179004714;-0.983847201
2024/05/03/13:24:49.913492;188327;1714767889;913180949;world;0.000308931;-0.000130539;0.00014229;0.001146024;0.00121438;-0.185241044;-0.982691705
2024/05/03/13:24:49.913494;188328;1714767889;913265507;world;0.000305928;-0.000176917;0.000121683;0.001331685;0.001328983;-0.186531842;-0.982447088
2024/05/03/13:24:49.973669;188329;1714767889;973352317;world;0.000314355;-0.000163808;0.000146847;0.001407029;0.001407915;-0.187802881;-0.982204735
2024/05/03/13:24:49.973691;188333;1714767889;973424382;world;0.000394143;-9.32E-05;0.000132758;0.001207789;0.001457498;-0.193067685;-0.981183648
2024/05/03/13:24:49.993448;188334;1714767889;993167658;world;0.000373755;-0.000123443;0.000122541;0.00130423;0.001514729;-0.193605438;-0.981077492
2024/05/03/13:24:50.063852;188335;1714767890;63624530;world;0.000413384;-6.42E-05;0.000138744;0.001245815;0.001540199;-0.195022762;-0.980796814
2024/05/03/13:24:50.063860;188339;1714767890;63687738;world;0.000405326;-0.000121985;0.00010847;0.001124114;0.001673849;-0.200230107;-0.979746819
2024/05/03/13:24:50.153279;188340;1714767890;153025202;world;0.000361063;-0.000165022;0.00013172;0.001120969;0.001735021;-0.201494142;-0.979487598
2024/05/03/13:24:50.153306;188343;1714767890;153084353;world;0.000357512;-0.000133398;0.000124363;0.001162869;0.001674358;-0.204770714;-0.978807926
2024/05/03/13:24:50.153309;188344;1714767890;153130530;world;0.000325985;-0.000168171;0.000136303;0.001190216;0.001726065;-0.205924228;-0.978565753
2024/05/03/13:24:50.163694;188345;1714767890;163153324;world;0.000311557;-0.000158682;0.000119864;0.001235419;0.001816893;-0.207194969;-0.978297234
2024/05/03/13:24:50.223502;188346;1714767890;223164015;world;0.000329662;-0.000168803;0.000133137;0.001325059;0.001876632;-0.208360791;-0.978049338
2024/05/03/13:24:50.223531;188349;1714767890;223216534;world;0.000316557;-0.000199619;0.000127289;0.001451004;0.001809952;-0.211587593;-0.977356315
2024/05/03/13:24:50.273795;188350;1714767890;273372927;world;0.000315562;-0.000166035;9.47E-05;0.001428621;0.001702444;-0.212999657;-0.977049708
2024/05/03/13:24:50.273798;188352;1714767890;273417260;world;0.000310823;-0.00014641;0.000125218;0.001265429;0.001784816;-0.215414524;-0.9765203
2024/05/03/13:24:50.284080;188353;1714767890;283784259;world;0.000273254;-0.000162615;0.000108046;0.001370819;0.001795926;-0.216702998;-0.976235032
2024/05/03/13:24:50.353680;188354;1714767890;353346421;world;0.000263847;-0.000112976;8.77E-05;0.001352235;0.001739083;-0.218076095;-0.97592926
2024/05/03/13:24:50.353704;188357;1714767890;353397898;world;0.000337999;-0.000107055;8.98E-05;0.001151379;0.001674421;-0.222215384;-0.974995553
2024/05/03/13:24:50.363639;188358;1714767890;363317750;world;0.000317574;-0.000146043;8.53E-05;0.001235135;0.00179024;-0.223495334;-0.974702537
2024/05/03/13:24:50.423563;188359;1714767890;423163092;world;0.000317227;-0.000144195;7.63E-05;0.001197752;0.001737113;-0.224199995;-0.974540889
2024/05/03/13:24:50.423589;188361;1714767890;423209309;world;0.000273757;-0.000156921;6.59E-05;0.001337449;0.001886182;-0.226698875;-0.973962128
2024/05/03/13:24:50.443316;188362;1714767890;443040976;world;0.000324376;-0.000101834;0.000110887;0.001282254;0.001816872;-0.227930546;-0.973674834
2024/05/03/13:24:50.493832;188363;1714767890;492904309;world;0.000318591;-0.000105875;9.33E-05;0.001322494;0.001872794;-0.2292144;-0.973373294
2024/05/03/13:24:50.493860;188366;1714767890;492965775;world;0.000348855;-6.10E-05;0.00018314;0.001174574;0.002094644;-0.232917756;-0.97249347
2024/05/03/13:24:50.563504;188367;1714767890;563019198;world;0.000359956;-6.34E-05;0.000182165;0.001186416;0.002128702;-0.234160274;-0.972195029
2024/05/03/13:24:50.563522;188370;1714767890;563069312;world;0.000282019;-0.00012594;0.000137899;0.001290549;0.002170853;-0.237600163;-0.97135973
2024/05/03/13:24:50.573348;188371;1714767890;573104136;world;0.000266615;-0.00012411;0.000144895;0.001311791;0.002200939;-0.238901392;-0.971040487
2024/05/03/13:24:50.643633;188372;1714767890;643324156;world;0.000257336;-0.000133702;0.000140451;0.001244142;0.002287343;-0.240167275;-0.970728099
2024/05/03/13:24:50.643669;188376;1714767890;643382134;world;0.000264913;-0.000205594;8.82E-05;0.001371379;0.002068518;-0.244773716;-0.969577134
2024/05/03/13:24:50.663702;188377;1714767890;662984583;world;0.000241403;-0.000188272;0.000175231;0.00153325;0.002470042;-0.246027529;-0.969258547
2024/05/03/13:24:50.733259;188378;1714767890;732949180;world;0.00029714;-0.000123337;8.34E-05;0.001153607;0.001931511;-0.247523293;-0.968879402
2024/05/03/13:24:50.733279;188380;1714767890;732993563;world;0.000264637;-0.000105;0.000128165;0.00100136;0.002101437;-0.250008404;-0.968240917
2024/05/03/13:24:50.813465;188381;1714767890;813143960;world;0.000261221;-0.000110541;0.000107064;0.001021856;0.002109524;-0.251311004;-0.967903554
2024/05/03/13:24:50.813489;188386;1714767890;813211196;world;0.000268195;-8.43E-05;0.000119427;0.00119265;0.001831787;-0.25746426;-0.966285348
2024/05/03/13:24:50.823688;188387;1714767890;823152187;world;0.000248112;-7.36E-05;0.000108769;0.001255089;0.001772738;-0.258799195;-0.965928733
2024/05/03/13:24:50.903832;188388;1714767890;902904698;world;0.0002461;-6.65E-05;0.000119034;0.001240796;0.00186514;-0.260119021;-0.965573967
2024/05/03/13:24:50.903840;188392;1714767890;902964661;world;0.000163194;-0.000215532;0.000150837;0.001846026;0.002010712;-0.265115708;-0.964212716
2024/05/03/13:24:50.983451;188393;1714767890;983133632;world;0.000157967;-0.000247247;0.000155841;0.00186394;0.002081181;-0.265756428;-0.964036167
2024/05/03/13:24:50.983480;188397;1714767890;983180801;world;0.000194542;-0.000209399;0.00019605;0.00187388;0.00207027;-0.271003932;-0.962574184
2024/05/03/13:24:50.993774;188398;1714767890;993198726;world;0.000200383;-0.000241076;0.00017938;0.001829083;0.002137227;-0.27227065;-0.962216675
2024/05/03/13:24:51.063351;188399;1714767891;62962122;world;0.000198465;-0.000241895;0.000176776;0.00182968;0.002122618;-0.272911102;-0.962035179
2024/05/03/13:24:51.063381;188402;1714767891;63019760;world;0.000205293;-0.000301959;0.000160499;0.00170637;0.00219397;-0.276728719;-0.960944057
2024/05/03/13:24:51.063385;188403;1714767891;63026723;world;0.000180971;-0.000291066;0.000147352;0.001772358;0.00215491;-0.278049767;-0.960562646
2024/05/03/13:24:51.083404;188404;1714767891;83050862;world;0.000167381;-0.000291542;0.000160133;0.001722542;0.00220186;-0.279331237;-0.960190713
2024/05/03/13:24:51.153247;188405;1714767891;152925262;world;0.000170045;-0.000308685;0.000150038;0.001663195;0.002234282;-0.280567348;-0.959830344
2024/05/03/13:24:51.153276;188408;1714767891;152979434;world;0.00022538;-0.000295957;0.000163721;0.0017402;0.002308108;-0.284573078;-0.958650053
2024/05/03/13:24:51.163273;188409;1714767891;163030321;world;0.000229642;-0.000305636;0.000154956;0.001747154;0.002315238;-0.285204649;-0.958462238
2024/05/03/13:24:51.253625;188410;1714767891;253270317;world;0.000219807;-0.00027712;0.000182983;0.001721233;0.002363024;-0.286449403;-0.958090901
2024/05/03/13:24:51.253651;188414;1714767891;253335690;world;0.000150107;-0.000372065;0.000183945;0.001832274;0.002273057;-0.291552752;-0.95655036
2024/05/03/13:24:51.323190;188415;1714767891;322868213;world;0.00014418;-0.000377668;0.000188706;0.001754059;0.002213837;-0.292219698;-0.956347108
2024/05/03/13:24:51.323220;188419;1714767891;322912987;world;0.000197448;-0.00034138;0.000203722;0.001444734;0.002306317;-0.297341287;-0.954767466
2024/05/03/13:24:51.333146;188420;1714767891;332855786;world;0.000190847;-0.000331305;0.00022208;0.001504745;0.002396327;-0.298600048;-0.954374135
2024/05/03/13:24:51.413483;188421;1714767891;413208202;world;0.00019788;-0.000286033;0.000219668;0.001501261;0.002394791;-0.300002307;-0.953934371
2024/05/03/13:24:51.413507;188425;1714767891;413265850;world;0.00019595;-0.000279808;0.000225856;0.001661276;0.002125735;-0.30453369;-0.95249778
2024/05/03/13:24:51.493251;188426;1714767891;493058857;world;0.000187233;-0.000267915;0.000201295;0.001796875;0.002182799;-0.305898219;-0.952060103
2024/05/03/13:24:51.493254;188430;1714767891;493103280;world;0.000164114;-0.000268122;0.000187296;0.001934313;0.002415877;-0.310235292;-0.950654745
2024/05/03/13:24:51.503500;188431;1714767891;503162082;world;9.57E-05;-0.000347368;0.00018003;0.002072366;0.002464303;-0.311544508;-0.950226188
2024/05/03/13:24:51.583835;188432;1714767891;583101985;world;8.15E-05;-0.000371452;0.000147051;0.002081156;0.002501388;-0.312809199;-0.949810445
2024/05/03/13:24:51.583843;188436;1714767891;583160184;world;0.000126854;-0.000288606;0.000146203;0.002086587;0.002602204;-0.318039984;-0.94807142
2024/05/03/13:24:51.663713;188437;1714767891;663350717;world;0.000131261;-0.000289992;0.000164381;0.001983385;0.002632389;-0.319333047;-0.947636902
2024/05/03/13:24:51.663734;188439;1714767891;663393848;world;0.0001783;-0.000235512;0.000193379;0.001974274;0.002551141;-0.321293503;-0.946974218
2024/05/03/13:24:51.673498;188440;1714767891;673061536;world;0.000200145;-0.000239378;0.000207532;0.001985321;0.002594722;-0.323207378;-0.94632256
2024/05/03/13:24:51.673562;188441;1714767891;673091332;world;0.000170205;-0.000265909;0.000200556;0.002063099;0.002615925;-0.323861301;-0.946098745
2024/05/03/13:24:51.683701;188442;1714767891;683269498;world;0.000159901;-0.00029756;0.000194151;0.002179872;0.002704403;-0.325154305;-0.945654631
2024/05/03/13:24:51.743511;188443;1714767891;743112065;world;0.000156749;-0.000322509;0.000181529;0.002261079;0.002788847;-0.326447755;-0.94520849
2024/05/03/13:24:51.743541;188446;1714767891;743155376;world;9.62E-05;-0.000353645;0.000137555;0.002296481;0.002808284;-0.329565763;-0.944125712
2024/05/03/13:24:51.773464;188447;1714767891;773133159;world;8.75E-05;-0.000343931;0.000143147;0.002202998;0.002686626;-0.330875933;-0.943667948
2024/05/03/13:24:51.833427;188448;1714767891;833090320;world;7.58E-05;-0.000309099;0.000147896;0.002046296;0.002512704;-0.33273536;-0.943014681
2024/05/03/13:24:51.833459;188451;1714767891;833143419;world;5.36E-05;-0.000335782;0.000140666;0.002016333;0.00243121;-0.335927159;-0.94188273
2024/05/03/13:24:51.843491;188452;1714767891;843128735;world;5.63E-05;-0.00032926;0.000152727;0.002051579;0.002525392;-0.33724165;-0.941412568
2024/05/03/13:24:51.863549;188453;1714767891;863228024;world;4.93E-05;-0.000363705;0.000148576;0.002264833;0.002675582;-0.337845773;-0.941194952
2024/05/03/13:24:51.913874;188454;1714767891;913252330;world;1.01E-05;-0.000363732;0.000129545;0.002253015;0.002570213;-0.339804649;-0.940489829
2024/05/03/13:24:51.913906;188457;1714767891;913310909;world;8.84E-05;-0.000305015;0.000160267;0.002437552;0.0025077;-0.342968196;-0.939340472
2024/05/03/13:24:51.983522;188458;1714767891;983139181;world;4.82E-05;-0.000338117;0.000159994;0.00233784;0.002459855;-0.344275415;-0.938862622
2024/05/03/13:24:51.983575;188461;1714767891;983177743;world;3.63E-05;-0.000339229;0.000137329;0.002673627;0.002390372;-0.347540081;-0.93765831
2024/05/03/13:24:51.993485;188462;1714767891;993180470;world;2.64E-05;-0.000406479;0.000127109;0.002737605;0.002443905;-0.348770767;-0.937200904
2024/05/03/13:24:52.044223;188463;1714767892;43819889;world;7.00E-06;-0.000409992;9.49E-05;0.002667666;0.002441251;-0.350067616;-0.936717451
2024/05/03/13:24:52.044253;188465;1714767892;43874321;world;-2.38E-05;-0.000483295;7.59E-05;0.002899006;0.002660046;-0.35262081;-0.935757995
2024/05/03/13:24:52.053444;188466;1714767892;53135898;world;4.05E-06;-0.000453472;8.31E-05;0.002743137;0.002632079;-0.353938401;-0.935261071
2024/05/03/13:24:52.113296;188467;1714767892;112937227;world;1.06E-05;-0.000405641;9.67E-05;0.00265076;0.002518071;-0.35528186;-0.934752047
2024/05/03/13:24:52.113323;188470;1714767892;112987642;world;-3.16E-06;-0.000520259;0.00013856;0.002790425;0.002448841;-0.358922899;-0.933359861
2024/05/03/13:24:52.133707;188471;1714767892;133198692;world;-2.84E-05;-0.000570503;0.000120179;0.002934727;0.002536977;-0.359520227;-0.933129251
2024/05/03/13:24:52.183685;188472;1714767892;183342880;world;-4.79E-05;-0.000602168;0.000138346;0.002937675;0.002665062;-0.360761136;-0.932649851
2024/05/03/13:24:52.183708;188474;1714767892;183387865;world;1.24E-05;-0.000602552;0.000146916;0.003081025;0.002722212;-0.363288671;-0.931667566
2024/05/03/13:24:52.193180;188475;1714767892;192855448;world;2.82E-05;-0.000590106;0.000144771;0.003047541;0.002657213;-0.364474773;-0.931204557
2024/05/03/13:24:52.273392;188476;1714767892;273083142;world;0.000115562;-0.000428241;0.000166928;0.002679785;0.002383946;-0.365751773;-0.930705547
2024/05/03/13:24:52.273415;188479;1714767892;273121824;world;0.000101842;-0.000521067;0.000149395;0.002687591;0.002220647;-0.368895471;-0.92946434
2024/05/03/13:24:52.283734;188480;1714767892;283525452;world;9.51E-05;-0.00050114;0.000148158;0.002514104;0.002226167;-0.370119065;-0.928978264
2024/05/03/13:24:52.353241;188481;1714767892;352906656;world;8.26E-05;-0.000500616;0.000163709;0.002568782;0.002307049;-0.371436685;-0.928451836
2024/05/03/13:24:52.353270;188485;1714767892;352952743;world;0.000124209;-0.000418175;0.00017008;0.002763421;0.002324876;-0.376502991;-0.92640841
2024/05/03/13:24:52.433276;188486;1714767892;432961723;world;0.000138413;-0.000399422;0.000175856;0.002791442;0.002396915;-0.377644926;-0.925943255
2024/05/03/13:24:52.433298;188490;1714767892;433021114;world;9.99E-05;-0.000423477;0.000162531;0.003098466;0.002551043;-0.381899953;-0.924194932
2024/05/03/13:24:52.523677;188491;1714767892;522915102;world;7.25E-05;-0.000427824;0.000122886;0.003144831;0.002404661;-0.383183777;-0.923663676
2024/05/03/13:24:52.523704;188496;1714767892;522992117;world;0.000101242;-0.000384882;0.000113606;0.002923761;0.00236506;-0.388749421;-0.921335816
2024/05/03/13:24:52.533200;188497;1714767892;532852126;world;0.00013398;-0.000377623;9.06E-05;0.002871546;0.002418634;-0.389996022;-0.920808911
2024/05/03/13:24:52.603328;188498;1714767892;603002242;world;0.000177186;-0.000337951;0.000132052;0.002940577;0.00240235;-0.391261727;-0.920271635
2024/05/03/13:24:52.603377;188501;1714767892;603052677;world;3.79E-05;-0.000440454;6.82E-05;0.003323652;0.002684926;-0.39472425;-0.918789744
2024/05/03/13:24:52.613264;188502;1714767892;612919789;world;3.45E-05;-0.00045721;8.91E-05;0.003253067;0.002744867;-0.39585191;-0.918304503
2024/05/03/13:24:52.763287;188503;1714767892;762919866;world;1.58E-05;-0.000496147;6.89E-05;0.003305571;0.002825047;-0.396418989;-0.918059409
2024/05/03/13:24:52.763315;188511;1714767892;762998975;world;3.05E-05;-0.000439895;0.000100801;0.003246311;0.003175362;-0.405376762;-0.914138436
2024/05/03/13:24:52.793466;188512;1714767892;793082677;world;-1.73E-05;-0.000477201;9.63E-05;0.003214194;0.003264615;-0.406637013;-0.913578331
2024/05/03/13:24:52.793491;188513;1714767892;793118264;world;3.17E-06;-0.000474311;7.11E-05;0.0031572;0.003091933;-0.407812536;-0.913055003
2024/05/03/13:24:52.803634;188514;1714767892;803309975;world;5.48E-07;-0.000503327;9.97E-05;0.003327385;0.00315288;-0.40903461;-0.912507355
2024/05/03/13:24:52.823358;188515;1714767892;823050704;world;-1.94E-05;-0.000523844;9.15E-05;0.003343874;0.0031175;-0.410214305;-0.911977708
2024/05/03/13:24:52.833467;188516;1714767892;833136376;world;-2.74E-05;-0.000512319;5.95E-05;0.003299522;0.00293126;-0.411391169;-0.911448181
2024/05/03/13:24:52.873545;188517;1714767892;873218518;world;3.19E-05;-0.000430902;0.000131615;0.003427835;0.002883486;-0.412636608;-0.910884738
2024/05/03/13:24:52.873573;188518;1714767892;873253563;world;7.71E-05;-0.00036574;0.000162758;0.0033233;0.002800265;-0.413800091;-0.910357475
2024/05/03/13:24:52.893239;188519;1714767892;892971317;world;7.42E-05;-0.000374971;0.000153108;0.003350269;0.002794272;-0.414381593;-0.910092771
2024/05/03/13:24:52.903383;188520;1714767892;903051229;world;8.10E-05;-0.000336956;0.000170948;0.003282819;0.002831412;-0.416103184;-0.909307122
2024/05/03/13:24:52.913351;188521;1714767892;913009002;world;7.92E-05;-0.000329196;0.000163325;0.003307786;0.002864896;-0.416681319;-0.90904212
2024/05/03/13:24:52.924467;188522;1714767892;923338352;world;0.000101376;-0.000301316;0.000169158;0.003185575;0.002784971;-0.41790843;-0.908479273
2024/05/03/13:24:52.943732;188523;1714767892;943078078;world;8.44E-05;-0.000302365;0.000141894;0.00320308;0.002785127;-0.419165969;-0.907899678
2024/05/03/13:24:52.963750;188524;1714767892;963386910;world;8.94E-05;-0.000309898;0.000154875;0.00332179;0.002857579;-0.420395225;-0.907330513
2024/05/03/13:24:53.003294;188525;1714767893;2926434;world;7.59E-05;-0.000320861;0.000151143;0.00323655;0.002873871;-0.421648204;-0.906749189
2024/05/03/13:24:53.003301;188527;1714767893;2980596;world;-1.23E-05;-0.000341997;0.000127039;0.003439166;0.00312496;-0.423496455;-0.905885816
2024/05/03/13:24:53.013534;188528;1714767893;13178919;world;2.75E-06;-0.000381626;0.000116186;0.003512659;0.003219996;-0.424688667;-0.905326903
2024/05/03/13:24:53.033166;188529;1714767893;32925198;world;-1.15E-06;-0.000374719;8.94E-05;0.003570847;0.003181828;-0.425906301;-0.904754639
2024/05/03/13:24:53.053262;188530;1714767893;52876771;world;7.50E-06;-0.000343079;0.000101045;0.003570155;0.003175375;-0.427107096;-0.904188514
2024/05/03/13:24:53.073424;188531;1714767893;73114850;world;2.38E-05;-0.000347232;6.37E-05;0.003596691;0.003171447;-0.428262025;-0.90364188
2024/05/03/13:24:53.084012;188532;1714767893;83290471;world;3.38E-06;-0.000376501;3.58E-05;0.003581863;0.003110197;-0.429483801;-0.903062105
2024/05/03/13:24:53.103972;188533;1714767893;103252855;world;1.05E-05;-0.000393856;2.10E-05;0.003547855;0.003051663;-0.43072474;-0.902471185
2024/05/03/13:24:53.113273;188534;1714767893;112980836;world;-1.33E-06;-0.000406329;2.23E-05;0.003621551;0.002976394;-0.431867003;-0.901925147
2024/05/03/13:24:53.133201;188535;1714767893;132856698;world;-4.62E-06;-0.000386436;2.14E-05;0.003570023;0.002884701;-0.432495236;-0.90162462
2024/05/03/13:24:53.143506;188536;1714767893;143182250;world;1.11E-05;-0.000375127;5.49E-05;0.003565548;0.002866372;-0.433675468;-0.901057541
2024/05/03/13:24:53.173412;188537;1714767893;173104259;world;6.21E-06;-0.000367446;5.67E-05;0.003586888;0.002928914;-0.434938133;-0.900448382
2024/05/03/13:24:53.173441;188538;1714767893;173137772;world;1.21E-05;-0.000351448;5.84E-05;0.003452385;0.002912423;-0.436151057;-0.899862111
2024/05/03/13:24:53.203164;188539;1714767893;202926011;world;5.42E-06;-0.000350451;7.06E-05;0.003459073;0.003065138;-0.437330514;-0.899289072
2024/05/03/13:24:53.213410;188540;1714767893;212968683;world;-1.16E-05;-0.000326162;6.97E-05;0.003433771;0.003086747;-0.438520581;-0.898709238
2024/05/03/13:24:53.223584;188541;1714767893;223337848;world;3.72E-06;-0.000324631;6.41E-05;0.003514799;0.003097974;-0.439107209;-0.898422539
2024/05/03/13:24:53.243241;188542;1714767893;242969341;world;3.51E-05;-0.000359474;6.97E-05;0.003566602;0.003320028;-0.440813422;-0.897585511
2024/05/03/13:24:53.253634;188543;1714767893;253229720;world;4.05E-05;-0.000341041;6.67E-05;0.003527944;0.003313368;-0.441409409;-0.897292793
2024/05/03/13:24:53.273327;188544;1714767893;272988562;world;5.66E-05;-0.000344427;5.12E-05;0.003595079;0.003211745;-0.442575067;-0.896718502
2024/05/03/13:24:53.323801;188545;1714767893;323355490;world;5.06E-05;-0.000349009;5.16E-05;0.003563484;0.003246292;-0.4437567;-0.896134377
2024/05/03/13:24:53.323828;188547;1714767893;323398631;world;7.48E-05;-0.000345143;6.63E-05;0.003637253;0.003119919;-0.446141064;-0.894949913
2024/05/03/13:24:53.333213;188548;1714767893;332892974;world;6.15E-05;-0.000371108;2.89E-05;0.003604625;0.003027717;-0.447311878;-0.894365668
2024/05/03/13:24:53.353382;188549;1714767893;353045974;world;2.48E-05;-0.0004148;-3.18E-05;0.003740754;0.002991979;-0.448530465;-0.893754661
2024/05/03/13:24:53.363816;188550;1714767893;363565861;world;3.38E-05;-0.000441773;-2.71E-06;0.003599888;0.003049809;-0.44904682;-0.893495858
2024/05/03/13:24:53.383401;188551;1714767893;383133986;world;4.56E-05;-0.000386028;1.91E-05;0.003611921;0.002898982;-0.450326294;-0.892852128
2024/05/03/13:24:53.403417;188552;1714767893;403094656;world;2.26E-05;-0.000432136;9.37E-06;0.003676276;0.003015432;-0.451530278;-0.892243087
2024/05/03/13:24:53.413366;188553;1714767893;412993898;world;2.41E-05;-0.000466958;-1.92E-06;0.003632164;0.003048777;-0.452663541;-0.891668797
2024/05/03/13:24:53.423572;188554;1714767893;423303720;world;1.60E-05;-0.000469392;-8.46E-06;0.00366406;0.003082333;-0.45385775;-0.891061306
2024/05/03/13:24:53.443208;188555;1714767893;442956583;world;2.46E-05;-0.000441862;2.62E-05;0.00365338;0.00313947;-0.455020666;-0.890467882
2024/05/03/13:24:53.453969;188556;1714767893;453472935;world;7.12E-06;-0.000331476;-1.64E-05;0.003511967;0.003048736;-0.456303477;-0.889812052
2024/05/03/13:24:53.473197;188557;1714767893;472957481;world;3.58E-05;-0.000380173;5.83E-05;0.003643959;0.003122875;-0.457430094;-0.889232635
2024/05/03/13:24:53.513219;188558;1714767893;512959863;world;2.36E-05;-0.000374259;6.91E-05;0.003662083;0.003176884;-0.457965761;-0.888956606
2024/05/03/13:24:53.513250;188559;1714767893;512993937;world;3.77E-05;-0.00047835;0.000107622;0.003681226;0.003130447;-0.45897004;-0.888438582
2024/05/03/13:24:53.523585;188560;1714767893;523323627;world;5.40E-05;-0.000487447;0.000112337;0.003793506;0.003100617;-0.460082471;-0.887862742
2024/05/03/13:24:53.533396;188561;1714767893;533076341;world;7.89E-05;-0.000420382;0.000148461;0.003717205;0.003032258;-0.461240053;-0.887262404
2024/05/03/13:24:53.553263;188562;1714767893;552988545;world;4.15E-05;-0.000432292;0.000152692;0.00375058;0.003003682;-0.462441862;-0.886636615
2024/05/03/13:24:53.574153;188563;1714767893;573119102;world;3.84E-05;-0.000437267;0.000146416;0.003715815;0.003023618;-0.463546813;-0.886059523
2024/05/03/13:24:53.583626;188564;1714767893;583322176;world;4.76E-05;-0.000420108;0.000112933;0.003765561;0.002980989;-0.464824647;-0.885389686
2024/05/03/13:24:53.613756;188565;1714767893;613288287;world;4.13E-05;-0.000389973;0.00012096;0.003729728;0.003011907;-0.466062248;-0.884738922
2024/05/03/13:24:53.613782;188566;1714767893;613322091;world;3.56E-05;-0.000362493;0.000117446;0.003736835;0.002985898;-0.466638446;-0.884435236
2024/05/03/13:24:53.633331;188567;1714767893;633039614;world;2.41E-05;-0.000374114;0.000114469;0.003648476;0.002933441;-0.467832983;-0.88380444
2024/05/03/13:24:53.643573;188568;1714767893;643204126;world;5.97E-05;-0.000332355;0.000103839;0.003588716;0.002842363;-0.468997836;-0.883187473
2024/05/03/13:24:53.663695;188569;1714767893;663395978;world;2.47E-05;-0.000296328;0.000102892;0.003081768;0.003132393;-0.470681548;-0.882292271
2024/05/03/13:24:53.683218;188570;1714767893;682917225;world;3.40E-06;-0.000348814;9.49E-05;0.003247346;0.003313089;-0.471266061;-0.881978869
