time;.header.seq;.header.stamp.secs;.header.stamp.nsecs;.header.frame_id;.pose.position.x;.pose.position.y;.pose.position.z;.pose.orientation.x;.pose.orientation.y;.pose.orientation.z;.pose.orientation.w
2024/05/03/13:20:04.663513;170075;1714767604;663173283;world;-4.19E-07;-1.55E-05;1.11E-05;-4.98E-08;-9.13E-06;1.62E-05;-1
2024/05/03/13:20:04.673585;170076;1714767604;673244028;world;-4.65E-06;-1.96E-05;2.04E-05;2.35E-05;-2.83E-05;4.68E-05;-1
2024/05/03/13:20:04.693436;170077;1714767604;693049280;world;-1.17E-05;-1.34E-05;1.93E-05;-9.88E-06;-1.94E-05;3.72E-05;-1
2024/05/03/13:20:04.713223;170078;1714767604;712895607;world;6.03E-07;-1.85E-05;1.51E-05;1.19E-05;-1.57E-05;2.77E-05;-1
2024/05/03/13:20:04.743953;170079;1714767604;743513739;world;1.88E-06;-1.87E-05;8.95E-06;1.46E-05;-2.83E-05;3.53E-05;-1
2024/05/03/13:20:04.753789;170080;1714767604;753397454;world;-7.74E-06;-1.90E-05;1.91E-05;4.30E-05;-2.17E-05;3.91E-05;-1
2024/05/03/13:20:04.803484;170081;1714767604;803146779;world;-1.29E-05;-1.66E-05;2.15E-05;-1.08E-05;-3.92E-05;7.25E-05;-1
2024/05/03/13:20:04.803530;170083;1714767604;803196102;world;-9.40E-06;-2.49E-05;1.01E-05;-8.85E-06;2.51E-06;3.34E-05;-1
2024/05/03/13:20:04.813180;170084;1714767604;812941397;world;2.35E-06;-2.06E-05;1.79E-05;-2.65E-05;-3.29E-05;2.48E-05;-1
2024/05/03/13:20:04.813209;170085;1714767604;812972886;world;-6.98E-06;-1.84E-05;2.24E-05;1.97E-05;2.99E-05;1.05E-05;-1
2024/05/03/13:20:04.843363;170086;1714767604;842969615;world;-1.49E-06;-1.57E-05;2.25E-05;-1.41E-05;-1.34E-05;4.77E-05;-1
2024/05/03/13:20:04.843389;170087;1714767604;843013468;world;-9.23E-06;-1.40E-05;1.37E-05;7.26E-06;-7.87E-06;3.63E-05;-1
2024/05/03/13:20:04.863551;170088;1714767604;863044484;world;-1.13E-05;-1.20E-05;1.65E-05;6.64E-05;1.09E-05;4.01E-05;-1
2024/05/03/13:20:04.873879;170089;1714767604;873487341;world;-5.22E-06;-2.39E-05;1.94E-05;3.43E-05;-9.84E-06;3.82E-05;-1
2024/05/03/13:20:04.893366;170090;1714767604;893119709;world;-3.65E-06;-3.19E-05;1.45E-05;1.99E-05;2.31E-05;3.15E-05;-1
2024/05/03/13:20:04.913487;170091;1714767604;913022112;world;-5.45E-06;-5.75E-06;1.97E-05;-9.84E-07;1.88E-06;2.48E-05;-1
2024/05/03/13:20:04.933777;170092;1714767604;933379318;world;-5.05E-07;-1.98E-05;2.44E-06;3.94E-06;2.05E-05;3.24E-05;-1
2024/05/03/13:20:04.943451;170093;1714767604;943171661;world;-8.30E-06;-2.59E-05;1.94E-05;3.85E-05;1.51E-06;1.15E-05;-1
2024/05/03/13:20:04.963783;170094;1714767604;963276887;world;-8.16E-06;-2.25E-05;1.82E-05;1.27E-08;-2.37E-05;3.53E-05;-1
2024/05/03/13:20:04.973566;170095;1714767604;973194301;world;-3.60E-06;-3.38E-05;9.70E-06;-4.40E-06;-4.90E-05;2.96E-05;-1
2024/05/03/13:20:04.993948;170096;1714767604;993455382;world;-3.62E-06;-1.88E-05;1.25E-05;-1.32E-05;-2.19E-05;2.01E-05;-1
2024/05/03/13:20:05.013631;170097;1714767605;13195581;world;-5.19E-06;-2.56E-05;2.41E-05;9.54E-07;-2.38E-05;4.77E-05;-1
2024/05/03/13:20:05.033367;170098;1714767605;32910100;world;-3.36E-06;-2.91E-05;1.31E-05;-2.61E-05;-3.63E-05;3.91E-05;-1
2024/05/03/13:20:05.043391;170099;1714767605;43061629;world;-7.72E-06;-1.24E-05;1.64E-05;1.90E-05;2.24E-06;4.58E-05;-1
2024/05/03/13:20:05.053760;170100;1714767605;53487006;world;-1.64E-06;-2.48E-05;2.42E-06;-3.80E-05;-4.30E-06;1.15E-05;-1
2024/05/03/13:20:05.063246;170101;1714767605;62961157;world;-6.45E-06;-2.25E-05;1.38E-05;8.20E-06;1.65E-06;1.34E-05;-1
2024/05/03/13:20:05.083652;170102;1714767605;83066202;world;-6.25E-06;-2.15E-05;1.91E-05;2.35E-05;1.75E-05;4.01E-05;-1
2024/05/03/13:20:05.093648;170103;1714767605;93126348;world;-4.92E-06;-2.50E-05;1.44E-05;-1.87E-05;-1.08E-05;6.01E-05;-1
2024/05/03/13:20:05.113610;170104;1714767605;113209368;world;-8.25E-06;-2.51E-05;1.61E-05;-5.56E-06;2.21E-05;1.05E-05;-1
2024/05/03/13:20:05.144797;170105;1714767605;143698547;world;-9.18E-06;-2.17E-05;1.35E-05;1.12E-05;-2.44E-05;3.72E-05;-1
2024/05/03/13:20:05.144854;170106;1714767605;143745545;world;-9.56E-06;-2.09E-05;1.78E-05;2.52E-05;2.69E-06;5.06E-05;-1
2024/05/03/13:20:05.163712;170107;1714767605;163338918;world;-9.10E-06;-1.14E-05;5.36E-06;-1.01E-05;1.01E-05;1.62E-05;-1
2024/05/03/13:20:05.173407;170108;1714767605;172999276;world;-4.66E-06;-2.70E-05;1.19E-06;-3.44E-05;2.40E-05;7.65E-06;-1
2024/05/03/13:20:05.193843;170109;1714767605;193464754;world;-1.63E-06;-2.89E-05;9.46E-06;-6.19E-06;-2.13E-05;2.96E-05;-1
2024/05/03/13:20:05.204100;170110;1714767605;203595919;world;-1.20E-05;-1.24E-05;2.25E-05;1.07E-05;2.21E-05;3.53E-05;-1
2024/05/03/13:20:05.223804;170111;1714767605;223412876;world;-9.70E-06;-1.42E-05;1.83E-05;6.22E-06;-1.30E-05;3.34E-05;-1
2024/05/03/13:20:05.253747;170112;1714767605;253427534;world;-1.79E-06;-3.20E-05;1.77E-05;2.00E-05;-1.73E-06;1.43E-05;-1
2024/05/03/13:20:05.263416;170113;1714767605;263064638;world;-1.66E-05;-2.55E-05;7.58E-06;2.26E-05;-2.57E-05;4.96E-05;-1
2024/05/03/13:20:05.273463;170114;1714767605;273157304;world;-5.90E-06;-1.84E-05;1.64E-05;-6.33E-06;-1.25E-05;3.53E-05;-1
2024/05/03/13:20:05.293657;170115;1714767605;293313122;world;-3.18E-06;-2.44E-05;1.46E-05;-1.63E-06;-4.44E-05;5.72E-05;-1
2024/05/03/13:20:05.303329;170116;1714767605;302993747;world;-8.34E-06;-2.12E-05;1.40E-05;-2.88E-05;5.74E-06;3.53E-05;-1
2024/05/03/13:20:05.323201;170117;1714767605;322940302;world;-5.77E-06;-7.52E-06;2.22E-05;2.93E-05;1.56E-05;3.91E-05;-1
2024/05/03/13:20:05.353446;170118;1714767605;353030401;world;-5.01E-06;-3.28E-05;1.44E-05;9.89E-06;-1.84E-05;1.81E-05;-1
2024/05/03/13:20:05.353473;170119;1714767605;353081768;world;-6.95E-07;-1.80E-05;9.62E-06;-2.57E-05;-1.39E-05;3.82E-05;-1
2024/05/03/13:20:05.363397;170120;1714767605;362987214;world;-2.86E-06;-2.49E-05;1.71E-05;-1.35E-05;-1.12E-05;3.53E-05;-1
2024/05/03/13:20:05.383168;170121;1714767605;382880320;world;-3.32E-06;-1.87E-05;2.29E-05;1.38E-05;1.06E-05;3.82E-05;-1
2024/05/03/13:20:05.393364;170122;1714767605;392917533;world;-9.35E-07;-2.10E-05;1.77E-05;1.02E-05;-8.77E-06;6.20E-05;-1
2024/05/03/13:20:05.413500;170123;1714767605;413209403;world;-1.10E-05;-1.13E-05;1.33E-05;-4.01E-05;-1.87E-05;1.91E-05;-1
2024/05/03/13:20:05.423844;170124;1714767605;423020466;world;-6.43E-06;-9.95E-06;1.98E-05;-4.50E-06;3.02E-05;2.48E-05;-1
2024/05/03/13:20:05.453334;170125;1714767605;452953560;world;4.42E-06;-1.98E-05;1.01E-05;-6.38E-05;-3.79E-05;1.72E-05;-1
2024/05/03/13:20:05.453394;170126;1714767605;452989808;world;-9.45E-06;-1.85E-05;1.46E-05;-9.55E-07;1.85E-05;4.68E-05;-1
2024/05/03/13:20:05.473985;170127;1714767605;473627501;world;-3.79E-06;-1.74E-05;7.85E-06;1.15E-05;-2.28E-05;2.77E-05;-1
2024/05/03/13:20:05.493576;170128;1714767605;493166484;world;-9.17E-06;-1.35E-05;9.99E-06;-3.79E-05;-9.09E-06;2.86E-05;-1
2024/05/03/13:20:05.503188;170129;1714767605;502958596;world;-1.17E-05;-2.60E-05;1.46E-05;-8.49E-06;-6.41E-06;3.53E-05;-1
2024/05/03/13:20:05.533599;170130;1714767605;533330012;world;-9.13E-06;-1.01E-05;1.03E-05;-1.77E-05;6.79E-07;2.20E-05;-1
2024/05/03/13:20:05.553394;170131;1714767605;552997615;world;-1.37E-06;-9.17E-06;1.60E-06;-2.37E-05;-2.38E-05;1.93E-06;-1
2024/05/03/13:20:05.553425;170132;1714767605;553043962;world;-8.18E-06;-1.13E-05;6.50E-06;-2.07E-05;-1.94E-05;2.48E-05;-1
2024/05/03/13:20:05.563887;170133;1714767605;563424665;world;-3.61E-06;-1.58E-05;1.23E-05;1.05E-05;2.12E-05;1.62E-05;-1
2024/05/03/13:20:05.583430;170134;1714767605;583130315;world;-5.11E-06;-2.17E-05;1.40E-06;3.17E-05;-2.52E-05;1.72E-05;-1
2024/05/03/13:20:05.603149;170135;1714767605;602952247;world;1.13E-06;-1.06E-05;9.03E-06;-2.43E-05;-1.50E-05;3.05E-05;-1
2024/05/03/13:20:05.633360;170136;1714767605;633077010;world;-9.33E-06;-9.76E-06;1.39E-05;-7.16E-06;-3.03E-05;2.58E-05;-1
2024/05/03/13:20:05.633389;170137;1714767605;633113549;world;1.45E-06;-2.29E-05;6.13E-06;-1.60E-05;8.93E-06;1.72E-05;-1
2024/05/03/13:20:05.663116;170138;1714767605;662868879;world;2.57E-06;-1.18E-05;9.47E-06;-5.56E-06;-3.22E-05;9.56E-06;-1
2024/05/03/13:20:05.663144;170139;1714767605;662912541;world;-6.96E-06;-2.51E-05;1.09E-05;7.93E-07;7.17E-06;2.86E-05;-1
2024/05/03/13:20:05.673194;170140;1714767605;672925519;world;2.74E-06;-2.29E-05;1.29E-05;-8.78E-06;-3.60E-05;2.86E-05;-1
2024/05/03/13:20:05.694145;170141;1714767605;693189332;world;7.48E-06;-5.67E-06;1.34E-05;-3.31E-05;3.70E-05;1.15E-05;-1
2024/05/03/13:20:05.703302;170142;1714767605;703004107;world;-2.94E-06;-1.13E-05;2.18E-05;-2.79E-05;-2.86E-05;2.96E-05;-1
2024/05/03/13:20:05.733710;170143;1714767605;733140011;world;6.90E-06;-8.88E-06;2.12E-05;-3.09E-05;-2.82E-06;9.78E-07;-1
2024/05/03/13:20:05.744522;170144;1714767605;743911111;world;-9.37E-06;-1.04E-05;1.86E-05;-4.14E-05;2.95E-05;1.62E-05;-1
2024/05/03/13:20:05.753141;170145;1714767605;752907993;world;4.08E-06;-2.65E-05;8.70E-06;-1.46E-05;-1.68E-05;1.43E-05;-1
2024/05/03/13:20:05.773705;170146;1714767605;773125667;world;4.28E-06;-1.72E-05;1.59E-05;-4.24E-06;3.13E-05;4.39E-05;-1
2024/05/03/13:20:05.783517;170147;1714767605;783204089;world;-7.30E-07;4.18E-06;2.31E-05;-4.57E-05;9.96E-06;2.67E-05;-1
2024/05/03/13:20:05.803566;170148;1714767605;803276000;world;-5.51E-07;-7.10E-06;8.65E-06;-4.42E-05;-2.90E-05;2.58E-05;-1
2024/05/03/13:20:05.823342;170149;1714767605;823098463;world;1.86E-08;-2.56E-05;1.53E-05;-4.63E-05;-2.17E-05;3.15E-05;-1
2024/05/03/13:20:05.833494;170150;1714767605;833265890;world;-4.66E-07;-1.73E-05;1.23E-05;-3.53E-05;-2.64E-05;4.10E-05;-1
2024/05/03/13:20:05.863403;170151;1714767605;863023547;world;-3.91E-06;-1.20E-05;1.64E-05;-1.55E-05;1.22E-06;4.48E-05;-1
2024/05/03/13:20:05.863463;170152;1714767605;863066467;world;1.64E-06;-8.49E-06;1.09E-05;5.72E-05;-2.16E-05;3.44E-05;-1
2024/05/03/13:20:05.883662;170153;1714767605;883390139;world;-9.05E-06;-1.02E-05;1.84E-05;-1.44E-05;2.03E-05;2.67E-05;-1
2024/05/03/13:20:05.903274;170154;1714767605;902984225;world;-3.44E-06;-2.86E-05;1.30E-05;1.81E-05;-1.15E-05;3.91E-05;-1
2024/05/03/13:20:05.914166;170155;1714767605;913780492;world;2.84E-06;-1.64E-05;1.86E-05;-3.09E-05;2.31E-05;-1.05E-05;-1
2024/05/03/13:20:05.943721;170156;1714767605;943347912;world;-8.92E-06;3.59E-06;1.71E-05;-8.01E-06;4.06E-05;2.86E-05;-1
2024/05/03/13:20:05.943749;170157;1714767605;943386644;world;-1.12E-05;-2.98E-05;1.79E-05;3.92E-05;-1.54E-06;3.82E-05;-1
2024/05/03/13:20:05.973411;170158;1714767605;973186066;world;7.06E-06;-3.42E-05;5.32E-06;-2.84E-05;2.17E-05;3.05E-05;-1
2024/05/03/13:20:05.973436;170159;1714767605;973222855;world;1.33E-06;-8.95E-06;1.48E-05;1.35E-05;1.10E-06;2.39E-05;-1
2024/05/03/13:20:05.994172;170160;1714767605;993472721;world;-1.21E-06;-1.98E-05;6.26E-06;1.60E-05;-1.76E-05;5.72E-05;-1
2024/05/03/13:20:06.003491;170161;1714767606;3174425;world;-6.56E-06;-1.53E-05;2.30E-05;3.59E-05;-7.68E-07;5.34E-05;-1
2024/05/03/13:20:06.023631;170162;1714767606;23130840;world;-8.05E-06;-2.38E-05;1.14E-05;1.15E-05;-2.73E-06;2.96E-05;-1
2024/05/03/13:20:06.033571;170163;1714767606;33249585;world;-9.02E-06;-1.73E-05;2.08E-05;6.83E-05;5.05E-06;7.06E-05;-1
2024/05/03/13:20:06.063468;170164;1714767606;63092640;world;-5.79E-06;-1.78E-05;1.15E-05;-4.40E-06;-1.85E-05;2.86E-05;-1
2024/05/03/13:20:06.063499;170165;1714767606;63131513;world;-1.48E-06;-1.99E-05;2.25E-05;-7.74E-06;6.72E-07;2.58E-05;-1
2024/05/03/13:20:06.083682;170166;1714767606;83253980;world;-9.13E-07;-1.46E-05;2.18E-05;3.33E-06;-7.81E-06;5.92E-05;-1
2024/05/03/13:20:06.093476;170167;1714767606;93105094;world;-4.84E-06;-1.39E-05;1.20E-05;-9.85E-07;-1.06E-05;3.24E-05;-1
2024/05/03/13:20:06.113455;170168;1714767606;113088550;world;-6.57E-06;-1.61E-05;1.51E-05;-1.14E-05;1.21E-05;2.67E-05;-1
2024/05/03/13:20:06.143507;170169;1714767606;143090525;world;8.87E-07;-2.98E-05;1.11E-05;2.35E-05;1.48E-05;3.44E-05;-1
2024/05/03/13:20:06.143522;170170;1714767606;143124368;world;-9.71E-06;-1.62E-05;1.72E-05;7.40E-06;-9.53E-06;3.24E-05;-1
2024/05/03/13:20:06.183718;170171;1714767606;183304557;world;-3.87E-07;-6.86E-06;1.38E-05;-2.11E-05;1.72E-05;3.24E-05;-1
2024/05/03/13:20:06.183727;170172;1714767606;183338030;world;2.27E-06;-2.21E-05;1.91E-06;-3.76E-05;-3.09E-05;4.87E-05;-1
2024/05/03/13:20:06.193589;170173;1714767606;193202770;world;-1.42E-05;-1.92E-05;5.68E-06;2.90E-05;3.85E-06;5.15E-05;-1
2024/05/03/13:20:06.213498;170174;1714767606;213143637;world;-3.48E-06;-1.66E-05;2.38E-05;-1.21E-05;4.47E-06;1.53E-05;-1
2024/05/03/13:20:06.223410;170175;1714767606;223099226;world;-5.30E-06;-1.09E-05;1.35E-05;7.12E-07;-2.34E-05;2.77E-05;-1
2024/05/03/13:20:06.243681;170176;1714767606;243278558;world;-1.15E-05;-1.56E-05;8.05E-06;-3.39E-05;-7.65E-05;3.91E-05;-1
2024/05/03/13:20:06.273445;170177;1714767606;273063856;world;-5.18E-07;-2.22E-05;9.36E-06;-1.66E-06;-1.95E-05;3.05E-05;-1
2024/05/03/13:20:06.273665;170178;1714767606;273096617;world;-1.02E-05;-2.28E-05;1.90E-05;-7.45E-06;-1.65E-05;6.20E-05;-1
2024/05/03/13:20:06.293664;170179;1714767606;293256885;world;2.08E-06;-7.45E-06;7.25E-06;-2.90E-05;1.10E-06;4.10E-05;-1
2024/05/03/13:20:06.303645;170180;1714767606;303296391;world;-5.35E-06;-8.49E-06;1.21E-05;-1.60E-06;1.72E-05;1.72E-05;-1
2024/05/03/13:20:06.313440;170181;1714767606;313125775;world;-5.08E-06;-3.02E-05;1.02E-05;-1.14E-05;-1.30E-05;1.81E-05;-1
2024/05/03/13:20:06.333823;170182;1714767606;333478193;world;-5.55E-06;-2.44E-05;1.07E-05;9.98E-06;-2.72E-05;3.53E-05;-1
2024/05/03/13:20:06.353624;170183;1714767606;353216128;world;-4.56E-06;-1.58E-05;1.70E-05;-3.10E-06;-2.04E-05;5.92E-05;-1
2024/05/03/13:20:06.373724;170184;1714767606;373346328;world;-1.32E-05;-1.94E-05;7.09E-06;2.31E-05;-4.27E-05;5.92E-05;-1
2024/05/03/13:20:06.383802;170185;1714767606;383446404;world;-1.54E-05;-2.58E-05;2.20E-05;-5.80E-06;-8.45E-06;7.82E-05;-1
2024/05/03/13:20:06.393352;170186;1714767606;393049508;world;-5.57E-06;-2.20E-05;1.57E-05;-2.01E-06;-1.32E-05;4.20E-05;-1
2024/05/03/13:20:06.413310;170187;1714767606;412938516;world;-2.03E-06;-1.79E-05;2.20E-05;-3.37E-05;-1.62E-06;6.30E-05;-1
2024/05/03/13:20:06.424602;170188;1714767606;423066399;world;-6.08E-06;-3.23E-05;3.95E-06;1.91E-05;-4.81E-05;6.96E-05;-1
2024/05/03/13:20:06.443462;170189;1714767606;443097085;world;-5.11E-06;-1.77E-05;1.65E-05;-5.70E-06;-3.33E-06;5.34E-05;-1
2024/05/03/13:20:06.473418;170190;1714767606;473158911;world;-7.09E-06;-2.40E-05;1.46E-05;-8.06E-06;-2.34E-05;4.29E-05;-1
2024/05/03/13:20:06.473426;170191;1714767606;473198626;world;9.16E-07;-1.24E-05;2.10E-05;6.92E-06;-3.11E-06;6.58E-05;-1
2024/05/03/13:20:06.493325;170192;1714767606;493043120;world;-1.11E-05;-2.05E-05;8.63E-06;1.29E-05;7.88E-06;4.29E-05;-1
2024/05/03/13:20:06.513339;170193;1714767606;513107927;world;1.72E-06;-3.69E-05;4.40E-06;1.19E-05;-2.53E-05;3.72E-05;-1
2024/05/03/13:20:06.523706;170194;1714767606;523404968;world;-2.73E-06;-3.50E-05;1.32E-05;-4.13E-06;-2.83E-05;5.63E-05;-1
2024/05/03/13:20:06.553196;170195;1714767606;552976936;world;-1.01E-05;-2.56E-05;1.12E-05;1.90E-06;-6.45E-05;4.10E-05;-1
2024/05/03/13:20:06.553209;170196;1714767606;553017001;world;-9.26E-07;-2.54E-05;3.97E-06;1.28E-05;-3.55E-05;2.58E-05;-1
2024/05/03/13:20:06.583650;170197;1714767606;583332774;world;-2.32E-06;-1.64E-05;9.45E-06;2.24E-05;-1.30E-05;2.20E-05;-1
2024/05/03/13:20:06.583685;170198;1714767606;583370935;world;-1.22E-05;-1.70E-05;2.10E-05;-4.69E-06;2.24E-05;5.92E-05;-1
2024/05/03/13:20:06.603629;170199;1714767606;603277186;world;6.93E-06;-2.36E-05;7.89E-06;7.97E-06;-2.71E-05;5.72E-05;-1
2024/05/03/13:20:06.613915;170200;1714767606;613267109;world;-1.40E-05;-1.72E-05;1.03E-05;-3.29E-06;-4.73E-05;5.34E-05;-1
2024/05/03/13:20:06.633690;170201;1714767606;633309143;world;-2.29E-06;-2.25E-05;1.20E-05;-3.31E-05;1.07E-05;4.20E-05;-1
2024/05/03/13:20:06.653353;170202;1714767606;653041289;world;-6.93E-06;-3.33E-05;8.71E-06;-4.63E-05;-3.79E-05;3.82E-05;-1
2024/05/03/13:20:06.683642;170203;1714767606;683343706;world;-1.24E-05;-1.80E-05;1.75E-05;5.44E-06;-2.30E-05;3.82E-05;-1
2024/05/03/13:20:06.683671;170204;1714767606;683381036;world;-9.31E-09;-1.23E-05;1.76E-05;-2.76E-05;-3.02E-05;6.01E-05;-1
2024/05/03/13:20:06.693608;170205;1714767606;693308223;world;-7.12E-07;-3.25E-05;1.08E-05;1.77E-05;-1.07E-05;7.06E-05;-1
2024/05/03/13:20:06.713356;170206;1714767606;713056306;world;-1.23E-05;-2.60E-05;1.19E-05;1.90E-05;-2.11E-05;4.01E-05;-1
2024/05/03/13:20:06.723692;170207;1714767606;723231948;world;-2.40E-06;-1.89E-05;1.39E-05;-3.91E-05;4.72E-06;4.29E-05;-1
2024/05/03/13:20:06.743302;170208;1714767606;742939977;world;3.08E-06;-1.56E-05;2.32E-05;-1.09E-05;7.02E-06;1.34E-05;-1
2024/05/03/13:20:06.753690;170209;1714767606;753372161;world;-7.88E-06;-8.13E-06;1.03E-05;-2.28E-05;-2.28E-05;5.75E-06;-1
2024/05/03/13:20:06.803356;170210;1714767606;803032251;world;-9.57E-06;-1.39E-05;7.20E-06;-2.23E-05;-8.96E-06;-4.74E-06;-1
2024/05/03/13:20:06.803384;170212;1714767606;803080100;world;-7.40E-06;-1.07E-05;1.16E-05;-2.75E-05;-5.15E-05;1.91E-05;-1
2024/05/03/13:20:06.823461;170213;1714767606;823134649;world;3.79E-06;-1.81E-05;1.01E-05;3.08E-05;1.75E-05;1.72E-05;-1
2024/05/03/13:20:06.833239;170214;1714767606;832904500;world;-7.64E-07;-2.55E-05;-7.33E-06;-5.36E-05;-0.000112373;6.01E-05;-1
2024/05/03/13:20:06.854780;170215;1714767606;853949096;world;5.89E-07;-1.29E-05;-8.32E-06;-6.14E-05;-7.29E-05;1.81E-05;-1
2024/05/03/13:20:06.863202;170216;1714767606;862908427;world;-1.80E-06;-1.84E-05;-2.50E-06;-3.78E-05;-8.08E-05;2.69E-08;-1
2024/05/03/13:20:06.893272;170217;1714767606;892909290;world;9.02E-06;-1.88E-05;-1.64E-05;-7.92E-05;-9.32E-05;4.80E-06;-1
2024/05/03/13:20:06.893302;170218;1714767606;892944596;world;-8.95E-06;-9.91E-06;-1.64E-05;-6.35E-05;-8.82E-05;1.94E-06;-1
2024/05/03/13:20:06.913567;170219;1714767606;913268490;world;2.83E-07;-1.49E-05;-1.66E-05;-7.65E-05;-8.91E-05;-1.05E-05;-1
2024/05/03/13:20:06.933594;170220;1714767606;933233080;world;-1.90E-06;-8.88E-06;-1.17E-05;-7.88E-05;-7.17E-05;-2.38E-05;-1
2024/05/03/13:20:06.943308;170221;1714767606;943000486;world;-1.99E-06;-8.25E-06;-1.06E-05;-0.000112722;-5.16E-05;-4.38E-05;-1
2024/05/03/13:20:06.963400;170222;1714767606;963030108;world;7.92E-06;-4.07E-06;-8.31E-06;-7.12E-05;-6.43E-06;-1.24E-05;-1
2024/05/03/13:20:06.983441;170223;1714767606;983155031;world;-3.92E-06;-2.09E-05;-1.12E-05;-9.49E-05;-6.27E-05;-2.00E-05;-1
2024/05/03/13:20:06.983546;170224;1714767606;983195306;world;7.13E-06;4.79E-06;1.81E-07;-0.000145269;-3.42E-05;-1.88E-06;-1
2024/05/03/13:20:07.013775;170225;1714767607;13385367;world;1.61E-05;1.15E-05;-1.67E-06;-0.000171015;-3.91E-05;2.67E-05;-1
2024/05/03/13:20:07.013806;170226;1714767607;13420043;world;2.18E-05;1.11E-05;-1.14E-05;-0.000152414;-4.61E-05;2.10E-05;-1
2024/05/03/13:20:07.033220;170227;1714767607;32869360;world;1.44E-05;1.84E-05;-6.61E-06;-0.000139116;1.74E-05;3.05E-05;-1
2024/05/03/13:20:07.053280;170228;1714767607;52929669;world;1.28E-05;2.86E-05;-1.14E-06;-0.000132644;3.36E-06;4.58E-05;-1
2024/05/03/13:20:07.083570;170229;1714767607;83179669;world;2.51E-05;3.12E-06;-1.29E-05;-0.000140265;-1.43E-05;5.06E-05;-1
2024/05/03/13:20:07.093902;170230;1714767607;93267249;world;2.18E-05;1.07E-05;-9.60E-07;-0.000149294;-9.95E-06;4.48E-05;-1
2024/05/03/13:20:07.103515;170231;1714767607;103262092;world;-7.51E-06;-2.03E-05;-2.25E-05;-0.00014207;-7.63E-06;0.000145937;-1
2024/05/03/13:20:07.114085;170232;1714767607;113780894;world;0.000318041;-5.13E-05;-1.35E-05;-0.000274369;-0.000122516;0.000612316;-0.999999762
2024/05/03/13:20:07.133162;170233;1714767607;132868603;world;0.001128566;-8.20E-05;-2.71E-05;0.000119351;0.000152041;0.001175922;-0.999999285
2024/05/03/13:20:07.143398;170234;1714767607;143068141;world;0.002334557;-0.000102946;-1.42E-06;0.000243404;8.12E-07;0.001832985;-0.999998331
2024/05/03/13:20:07.163581;170235;1714767607;163279042;world;0.003819427;-0.000120363;-2.59E-06;4.58E-05;-1.94E-05;0.002903958;-0.999995828
2024/05/03/13:20:07.203509;170236;1714767607;203152268;world;0.00459183;-9.54E-05;6.80E-05;-9.64E-05;-0.000340091;0.003488591;-0.99999392
2024/05/03/13:20:07.203532;170238;1714767607;203206881;world;0.007809965;-3.95E-05;0.00010967;-0.00017857;0.000303624;0.005877432;-0.999982715
2024/05/03/13:20:07.223534;170239;1714767607;223108703;world;0.009529429;-0.000181736;0.000102993;-0.000364118;-0.000112737;0.006910333;-0.999976039
2024/05/03/13:20:07.233407;170240;1714767607;233080574;world;0.011210034;-0.000272139;9.27E-05;-0.000410421;-0.000303024;0.008176859;-0.999966502
2024/05/03/13:20:07.263982;170241;1714767607;263068260;world;0.01297212;-0.000240548;0.000112425;-0.000493356;-0.000449419;0.00916111;-0.9999578
2024/05/03/13:20:07.273534;170242;1714767607;273198316;world;0.013853464;-0.000206924;8.77E-05;-0.000491096;-0.000462749;0.009612186;-0.999953628
2024/05/03/13:20:07.294009;170243;1714767607;292989231;world;0.015615249;-0.000296565;0.000101525;-0.000637122;-0.000640788;0.010750036;-0.999941826
2024/05/03/13:20:07.303469;170244;1714767607;303174982;world;0.017350692;-0.000381501;9.39E-05;-0.000609206;-0.000773512;0.012274926;-0.999924183
2024/05/03/13:20:07.323838;170245;1714767607;323499148;world;0.019007467;-0.000337294;0.000180807;-0.000877408;-0.000404064;0.013409576;-0.999909639
2024/05/03/13:20:07.333172;170246;1714767607;332853771;world;0.020730186;-0.000412025;0.000225744;-0.000862006;-0.000521033;0.014517736;-0.999894142
2024/05/03/13:20:07.353264;170247;1714767607;352969574;world;0.022338139;-0.000520853;0.000199264;-0.000977501;-0.000801245;0.015813958;-0.999874234
2024/05/03/13:20:07.373437;170248;1714767607;373140792;world;0.023824461;-0.000532876;0.000245422;-0.001020572;-0.000540702;0.01699993;-0.999854922
2024/05/03/13:20:07.403547;170249;1714767607;403224758;world;0.025220351;-0.000647843;0.000179502;-0.000494503;-0.000444515;0.017949332;-0.99983871
2024/05/03/13:20:07.403569;170250;1714767607;403259854;world;0.026525851;-0.000576138;0.000257239;-0.000585417;-0.000386276;0.0191889;-0.999815643
2024/05/03/13:20:07.413394;170251;1714767607;413086562;world;0.027149325;-0.000610294;0.00024852;-0.000702367;-0.000474709;0.01976968;-0.999804199
2024/05/03/13:20:07.423344;170252;1714767607;422956892;world;0.028351659;-0.000692057;0.00023812;-0.000640059;-0.000508659;0.020951984;-0.999780238
2024/05/03/13:20:07.443455;170253;1714767607;443127009;world;0.030013477;-0.000888838;2.96E-05;-0.000164313;-1.74E-05;0.022046234;-0.999756992
2024/05/03/13:20:07.453638;170254;1714767607;453284748;world;0.030635506;-0.000779378;0.000130517;-0.000418161;-0.000236777;0.022750918;-0.999741137
2024/05/03/13:20:07.473624;170255;1714767607;473305104;world;0.031596061;-0.000714086;0.000164129;-0.000153581;-0.000132354;0.023845362;-0.999715626
2024/05/03/13:20:07.503388;170256;1714767607;502995792;world;0.032377232;-0.000768928;0.000187038;0.000164671;-0.00062094;0.025258163;-0.999680758
2024/05/03/13:20:07.503415;170257;1714767607;503029445;world;0.033137571;-0.000807595;0.000243409;0.000281136;-0.000686142;0.026216196;-0.999656081
2024/05/03/13:20:07.523167;170258;1714767607;522861386;world;0.033580311;-0.00084129;0.0002216;0.000272883;-0.000675216;0.02661757;-0.999645472
2024/05/03/13:20:07.533439;170259;1714767607;533138469;world;0.034589183;-0.001049861;9.06E-05;0.000424494;-0.000332875;0.027518488;-0.999621153
2024/05/03/13:20:07.553495;170260;1714767607;553175857;world;0.034944326;-0.000982397;0.000217666;0.000253508;-0.000707401;0.028114276;-0.999604523
2024/05/03/13:20:07.573396;170261;1714767607;573077629;world;0.035627834;-0.00101064;0.000204882;0.000111947;-0.000780561;0.028885581;-0.999582469
2024/05/03/13:20:07.593230;170262;1714767607;592883912;world;0.036231209;-0.001071897;0.000234614;0.00017446;-0.000839165;0.029727256;-0.999557674
2024/05/03/13:20:07.603659;170263;1714767607;603354377;world;0.036789775;-0.001096055;0.000244847;0.000113145;-0.000916546;0.030677684;-0.999528885
2024/05/03/13:20:07.613533;170264;1714767607;613095100;world;0.037289273;-0.001091877;0.000279801;-4.95E-05;-0.001035789;0.031496655;-0.999503374
2024/05/03/13:20:07.633536;170265;1714767607;633124335;world;0.03763381;-0.00106038;0.000339554;-0.000186772;-0.000875845;0.032101087;-0.999484301
2024/05/03/13:20:07.643719;170266;1714767607;643201068;world;0.037855521;-0.001041926;0.000360636;-0.000236383;-0.000652081;0.032117274;-0.999483943
2024/05/03/13:20:07.663729;170267;1714767607;662969957;world;0.038264252;-0.001124633;0.000330021;0.000230877;-0.000855487;0.032996695;-0.999455154
2024/05/03/13:20:07.683362;170268;1714767607;683056575;world;0.038949888;-0.00114533;0.000269569;0.000307336;-0.001017492;0.03382105;-0.999427319
2024/05/03/13:20:07.714100;170269;1714767607;713167122;world;0.039477024;-0.00118586;0.000297851;0.000230165;-0.001000206;0.034818102;-0.999393225
2024/05/03/13:20:07.714132;170270;1714767607;713202749;world;0.03966745;-0.001122217;0.000359308;0.000511379;-0.001237683;0.035360001;-0.999373734
2024/05/03/13:20:07.723475;170271;1714767607;723177825;world;0.040093068;-0.001173173;0.000361695;0.000584452;-0.001276996;0.0360642;-0.999348581
2024/05/03/13:20:07.743686;170272;1714767607;743308363;world;0.040566355;-0.001311029;0.000337855;0.000631642;-0.001123463;0.036338706;-0.999338686
2024/05/03/13:20:07.753577;170273;1714767607;753095059;world;0.041000776;-0.001245328;0.000359421;0.000458998;-0.001300115;0.036994521;-0.999314547
2024/05/03/13:20:07.783573;170274;1714767607;783264077;world;0.041532367;-0.001166017;0.000411167;0.000939172;-0.001730139;0.037819739;-0.999282658
2024/05/03/13:20:07.814179;170275;1714767607;813158759;world;0.042124838;-0.001294289;0.000308291;7.16E-05;-0.001341085;0.038062394;-0.999274552
2024/05/03/13:20:07.814204;170276;1714767607;813789722;world;0.042414952;-0.001312543;0.000315058;-0.000341364;-0.001186435;0.038196303;-0.999269545
2024/05/03/13:20:07.824081;170277;1714767607;823360381;world;0.04314322;-0.001399527;0.000357377;-0.000523955;-0.00137693;0.039210565;-0.999229908
2024/05/03/13:20:07.833521;170278;1714767607;833024515;world;0.043353196;-0.001412341;0.000375857;-0.000261117;-0.001458305;0.039637167;-0.999213099
2024/05/03/13:20:07.844160;170279;1714767607;843810822;world;0.0438601;-0.00143335;0.000432048;0.000149186;-0.001622873;0.040436052;-0.999180853
2024/05/03/13:20:07.863303;170280;1714767607;862973146;world;0.044529773;-0.001590913;0.000303524;-0.000416202;-0.001103508;0.040560585;-0.999176443
2024/05/03/13:20:07.883837;170281;1714767607;883111265;world;0.045115046;-0.001648458;0.000359443;-0.000175566;-0.001361779;0.041259803;-0.999147534
2024/05/03/13:20:07.903229;170282;1714767607;902913180;world;0.045638904;-0.001495857;0.000536819;-0.000186245;-0.001596194;0.042418513;-0.999098659
2024/05/03/13:20:07.913472;170283;1714767607;913139027;world;0.045941934;-0.001604664;0.000362261;7.30E-05;-0.00104088;0.042608675;-0.999091387
2024/05/03/13:20:07.923223;170284;1714767607;922957509;world;0.046606317;-0.001854345;0.000240543;9.24E-05;-0.001397853;0.043352775;-0.999058902
2024/05/03/13:20:07.943387;170285;1714767607;942935474;world;0.047386274;-0.001646638;0.000318093;-0.000319255;-0.000925377;0.043763816;-0.999041498
2024/05/03/13:20:07.963690;170286;1714767607;963408107;world;0.048067532;-0.001717302;0.000283328;-0.000327635;-0.001065375;0.044509873;-0.999008358
2024/05/03/13:20:07.983372;170287;1714767607;983153626;world;0.048631221;-0.001974076;0.000228714;-0.000348886;-0.0011038;0.044780478;-0.998996198
2024/05/03/13:20:08.013672;170288;1714767608;13329397;world;0.049255416;-0.002029233;0.000313359;-0.00061299;-0.001097448;0.045312349;-0.998972058
2024/05/03/13:20:08.013695;170289;1714767608;13385362;world;0.049937524;-0.002114752;0.000281971;-0.000565205;-0.001112619;0.046137337;-0.998934329
2024/05/03/13:20:08.023509;170290;1714767608;23056437;world;0.050670803;-0.002166571;0.00025164;-0.000549352;-0.001049122;0.047002282;-0.998894155
2024/05/03/13:20:08.033594;170291;1714767608;33144185;world;0.050974969;-0.002177723;0.000227269;-0.000146531;-0.000712294;0.047116134;-0.998889148
2024/05/03/13:20:08.053354;170292;1714767608;53009108;world;0.05172424;-0.002238323;0.000242718;-0.000129324;-0.000803657;0.047862973;-0.998853564
2024/05/03/13:20:08.073558;170293;1714767608;73231301;world;0.052753039;-0.002254927;0.000426505;-0.000405981;-0.001053797;0.048958734;-0.998800159
2024/05/03/13:20:08.084026;170294;1714767608;83665158;world;0.053063087;-0.002266726;0.000450216;-0.000286906;-0.001076954;0.049349159;-0.998781025
2024/05/03/13:20:08.113199;170295;1714767608;112917548;world;0.053923011;-0.002409162;0.00039232;-0.000588129;-0.001253614;0.049912512;-0.998752713
2024/05/03/13:20:08.113225;170296;1714767608;112962623;world;0.054595999;-0.002472473;0.000431909;-0.000706089;-0.001154393;0.050578341;-0.998719215
2024/05/03/13:20:08.133280;170297;1714767608;133024294;world;0.055317331;-0.002556506;0.000437167;-0.000804914;-0.001273312;0.051180486;-0.998688281
2024/05/03/13:20:08.143766;170298;1714767608;143326102;world;0.055983346;-0.002620556;0.000429846;-0.000601674;-0.001186756;0.052011639;-0.998645604
2024/05/03/13:20:08.163467;170299;1714767608;163006951;world;0.056607824;-0.002727413;0.000367416;-0.000295797;-0.00093832;0.052636921;-0.998613238
2024/05/03/13:20:08.183159;170300;1714767608;182900507;world;0.057396285;-0.002804332;0.00044687;-0.000553113;-0.001300135;0.053390659;-0.998572707
2024/05/03/13:20:08.193213;170301;1714767608;192927831;world;0.057752885;-0.002831394;0.000451985;-0.000724353;-0.00131233;0.053660363;-0.998558104
2024/05/03/13:20:08.213193;170302;1714767608;212909653;world;0.058454163;-0.002968455;0.000379834;-0.000507141;-0.001615072;0.054354504;-0.998520315
2024/05/03/13:20:08.233491;170303;1714767608;233166323;world;0.059132405;-0.003000023;0.000397346;-0.000337765;-0.001568587;0.055013169;-0.998484313
2024/05/03/13:20:08.243334;170304;1714767608;243061245;world;0.059761938;-0.0030473;0.000443278;-0.000313077;-0.00166242;0.055736858;-0.99844414
2024/05/03/13:20:08.253487;170305;1714767608;253047596;world;0.060353696;-0.003137739;0.000345762;0.000441701;-0.001416663;0.056186073;-0.998419285
2024/05/03/13:20:08.273423;170306;1714767608;272961631;world;0.061039887;-0.00322959;0.000334056;0.000336624;-0.001613594;0.056758426;-0.998386621
2024/05/03/13:20:08.293264;170307;1714767608;292903689;world;0.061751977;-0.003309894;0.00036413;0.000312677;-0.001514868;0.057453532;-0.998347044
2024/05/03/13:20:08.323373;170308;1714767608;323100307;world;0.062483609;-0.003396064;0.000396398;0.000232096;-0.001464991;0.058281019;-0.998299181
2024/05/03/13:20:08.323408;170309;1714767608;323138339;world;0.062838152;-0.003428188;0.000385745;0.000145001;-0.001348128;0.058545824;-0.998283803
2024/05/03/13:20:08.333679;170310;1714767608;333352633;world;0.063505538;-0.003512121;0.000382893;3.12E-05;-0.001316443;0.059140045;-0.998248816
2024/05/03/13:20:08.343361;170311;1714767608;343025763;world;0.064140454;-0.003623133;0.00036991;7.32E-05;-0.001413271;0.059831142;-0.998207569
2024/05/03/13:20:08.363158;170312;1714767608;362922127;world;0.064855002;-0.003613959;0.000463681;-0.000242964;-0.001127258;0.060497854;-0.998167753
2024/05/03/13:20:08.383234;170313;1714767608;382980763;world;0.065479234;-0.003675061;0.000492234;-0.000222712;-0.001172126;0.061069936;-0.998132765
2024/05/03/13:20:08.393582;170314;1714767608;393317028;world;0.065792836;-0.003741851;0.000480324;-0.00012004;-0.001356536;0.061448701;-0.998109341
2024/05/03/13:20:08.423158;170315;1714767608;422859208;world;0.066793501;-0.00384033;0.000502903;-0.000144287;-0.001181261;0.062338669;-0.998054385
2024/05/03/13:20:08.434357;170316;1714767608;433555767;world;0.067504346;-0.003934905;0.000508342;-0.000156902;-0.001047519;0.062934488;-0.998017073
2024/05/03/13:20:08.443096;170317;1714767608;442857691;world;0.067851856;-0.003992916;0.000511315;-0.000246113;-0.001139679;0.063261069;-0.99799639
2024/05/03/13:20:08.453262;170318;1714767608;453031189;world;0.068514116;-0.004064432;0.000533709;-0.000332714;-0.000943643;0.063873999;-0.997957468
2024/05/03/13:20:08.473322;170319;1714767608;472947903;world;0.069138244;-0.004163824;0.000537368;-0.000352369;-0.001152451;0.064468928;-0.997919023
2024/05/03/13:20:08.493324;170320;1714767608;492966644;world;0.069753781;-0.00426605;0.000532033;-0.000171454;-0.00131521;0.065140642;-0.997875214
2024/05/03/13:20:08.534018;170321;1714767608;533701284;world;0.070321247;-0.004302419;0.000560407;4.68E-05;-0.001506;0.065903574;-0.997824907
2024/05/03/13:20:08.534027;170323;1714767608;533752020;world;0.071402401;-0.004497116;0.000541998;-0.000236827;-0.001266211;0.066895463;-0.997759223
2024/05/03/13:20:08.553443;170324;1714767608;553187928;world;0.072011076;-0.004548548;0.000605044;-0.000241284;-0.001475915;0.067631043;-0.997709274
2024/05/03/13:20:08.563412;170325;1714767608;563123470;world;0.072634943;-0.004628026;0.000610244;-0.000375637;-0.001385653;0.068289608;-0.997664571
2024/05/03/13:20:08.583157;170326;1714767608;582904918;world;0.073314473;-0.004719687;0.000603255;-0.000333657;-0.001402625;0.068935588;-0.997620046
2024/05/03/13:20:08.603348;170327;1714767608;602993742;world;0.073908672;-0.004936726;0.000445169;1.35E-05;-0.002090747;0.069574505;-0.997574627
2024/05/03/13:20:08.643568;170328;1714767608;643170124;world;0.074560031;-0.004890535;0.000490436;0.000151752;-0.001355234;0.069953851;-0.997549355
2024/05/03/13:20:08.643961;170330;1714767608;643215660;world;0.075906396;-0.005056201;0.000600821;0.000230991;-0.001506246;0.071430102;-0.99744451
2024/05/03/13:20:08.663267;170331;1714767608;663050135;world;0.076569356;-0.00515953;0.000591758;0.000195305;-0.001498729;0.07211218;-0.997395396
2024/05/03/13:20:08.673683;170332;1714767608;673441122;world;0.076894619;-0.005184312;0.000589115;0.000173503;-0.001489558;0.072409004;-0.997373939
2024/05/03/13:20:08.703315;170333;1714767608;703078312;world;0.077512719;-0.005364267;0.000545806;0.00019136;-0.001780247;0.07298249;-0.997331619
2024/05/03/13:20:08.703322;170334;1714767608;703115252;world;0.078157328;-0.005493787;0.000530761;7.75E-05;-0.001812933;0.073667496;-0.997281194
2024/05/03/13:20:08.733525;170335;1714767608;733133441;world;0.078820474;-0.005575231;0.000563938;-7.10E-05;-0.001949564;0.074398205;-0.997226775
2024/05/03/13:20:08.733533;170336;1714767608;733186761;world;0.079490796;-0.005691059;0.000566822;-4.33E-05;-0.001927761;0.075061955;-0.997177005
2024/05/03/13:20:08.753460;170337;1714767608;753255150;world;0.080084562;-0.005789441;0.000550538;3.13E-05;-0.001889876;0.075659975;-0.997131944
2024/05/03/13:20:08.773558;170338;1714767608;773157544;world;0.080413282;-0.005834433;0.000551618;-3.23E-05;-0.001922452;0.075995751;-0.997106373
2024/05/03/13:20:08.783717;170339;1714767608;783126367;world;0.081075937;-0.005899531;0.000569433;-0.000119751;-0.001901288;0.076693878;-0.997052908
2024/05/03/13:20:08.803177;170340;1714767608;802826221;world;0.081723139;-0.00600612;0.000558994;-0.000132584;-0.001743223;0.077326171;-0.99700433
2024/05/03/13:20:08.833574;170341;1714767608;833320721;world;0.082324751;-0.006083431;0.000586335;-0.000112565;-0.001774949;0.077996455;-0.996952057
2024/05/03/13:20:08.833604;170342;1714767608;833354635;world;0.08301539;-0.006184907;0.000595373;-0.00015948;-0.00172201;0.078503266;-0.99691236
2024/05/03/13:20:08.853245;170343;1714767608;852952026;world;0.083686158;-0.006281518;0.000652554;-0.000261047;-0.001760838;0.079179421;-0.996858835
2024/05/03/13:20:08.863234;170344;1714767608;863065502;world;0.084340587;-0.006495988;0.000587916;-0.00017186;-0.002269048;0.07999412;-0.996792734
2024/05/03/13:20:08.883237;170345;1714767608;882913883;world;0.085054532;-0.006600876;0.000611488;-0.000408194;-0.002021485;0.080594324;-0.996744871
2024/05/03/13:20:08.893510;170346;1714767608;893191737;world;0.085355327;-0.006637766;0.00062339;-0.000401248;-0.002004588;0.0809137;-0.996719062
2024/05/03/13:20:08.913335;170347;1714767608;913092909;world;0.08598198;-0.006728171;0.000607204;-0.000394312;-0.001970266;0.081491575;-0.996672034
2024/05/03/13:20:08.933691;170348;1714767608;933418467;world;0.086975977;-0.006833908;0.000625004;-0.000589983;-0.001862781;0.082306407;-0.996605158
2024/05/03/13:20:08.943572;170349;1714767608;943351905;world;0.08735545;-0.00686432;0.000678965;-0.001071634;-0.002058611;0.082709454;-0.996571064
2024/05/03/13:20:08.953446;170350;1714767608;953206526;world;0.087878965;-0.007045481;0.000639773;-0.000725521;-0.002005741;0.083000556;-0.996547282
2024/05/03/13:20:08.973180;170351;1714767608;972987882;world;0.088510334;-0.007091733;0.000599052;-0.000565554;-0.002064911;0.083702616;-0.996488571
2024/05/03/13:20:08.993370;170352;1714767608;993100229;world;0.089169756;-0.007210894;0.000622407;-0.000405344;-0.00220804;0.084392317;-0.996430099
2024/05/03/13:20:09.013383;170353;1714767609;12994457;world;0.089899793;-0.007288788;0.000652287;-0.000514284;-0.002032718;0.08520963;-0.996360838
2024/05/03/13:20:09.033381;170354;1714767609;32983492;world;0.09056969;-0.007403485;0.000682011;-0.000365795;-0.001788105;0.085884824;-0.996303439
2024/05/03/13:20:09.033411;170355;1714767609;33029038;world;0.091187209;-0.007526174;0.000684349;-0.000381676;-0.00179846;0.086535685;-0.996247113
2024/05/03/13:20:09.053484;170356;1714767609;53064731;world;0.091483891;-0.007585443;0.000673097;-0.00037341;-0.00181695;0.086830191;-0.996221423
2024/05/03/13:20:09.073394;170357;1714767609;73124281;world;0.092140131;-0.007728269;0.000646752;-0.000405448;-0.001947186;0.087442152;-0.9961676
2024/05/03/13:20:09.083440;170358;1714767609;83197711;world;0.092738688;-0.007838573;0.000650243;-0.000303854;-0.00191419;0.088016704;-0.996117115
2024/05/03/13:20:09.103220;170359;1714767609;102935736;world;0.093456939;-0.007974844;0.000697037;-0.00022796;-0.001757301;0.088800222;-0.996047914
2024/05/03/13:20:09.113373;170360;1714767609;113010200;world;0.094137654;-0.008058858;0.000713454;-0.000309134;-0.001868795;0.089483343;-0.995986521
2024/05/03/13:20:09.143395;170361;1714767609;143057126;world;0.094833359;-0.008193847;0.000714204;-0.000339524;-0.00187214;0.090097941;-0.995931089
2024/05/03/13:20:09.143420;170362;1714767609;143093274;world;0.095161796;-0.008248554;0.000706071;-0.00031738;-0.00195708;0.090441771;-0.995899856
2024/05/03/13:20:09.163289;170363;1714767609;163014740;world;0.096071199;-0.008478211;0.000675195;-0.000275733;-0.002135427;0.091445632;-0.995807767
2024/05/03/13:20:09.183525;170364;1714767609;183283403;world;0.096718684;-0.008585142;0.00068052;-0.000288942;-0.002013803;0.092129357;-0.995745003
2024/05/03/13:20:09.193307;170365;1714767609;193126974;world;0.097046688;-0.008660963;0.000669681;-0.000324539;-0.00195959;0.092407629;-0.995719373
2024/05/03/13:20:09.213581;170366;1714767609;213389271;world;0.097662501;-0.008809385;0.000684464;-0.000250332;-0.00199896;0.093026623;-0.995661557
2024/05/03/13:20:09.253190;170367;1714767609;252931956;world;0.098336816;-0.008926487;0.000677573;-0.000250767;-0.001917636;0.093658008;-0.995602608
2024/05/03/13:20:09.253219;170369;1714767609;252983633;world;0.09967275;-0.009147851;0.000687733;-0.000187563;-0.001926832;0.094941542;-0.995481014
2024/05/03/13:20:09.273440;170370;1714767609;273077786;world;0.100013137;-0.009205677;0.000689288;-4.37E-05;-0.001835908;0.095313378;-0.995445609
2024/05/03/13:20:09.293105;170371;1714767609;292880873;world;0.100980103;-0.009353768;0.00072698;-0.000276331;-0.002074415;0.096424557;-0.995338082
2024/05/03/13:20:09.313307;170372;1714767609;313098719;world;0.101573348;-0.009475755;0.000724799;-0.000257503;-0.00196412;0.09700539;-0.995281875
2024/05/03/13:20:09.323205;170373;1714767609;323002922;world;0.101914831;-0.009607247;0.000692859;-2.00E-05;-0.001876447;0.0971549;-0.99526751
2024/05/03/13:20:09.333308;170374;1714767609;333128702;world;0.102502629;-0.009807901;0.000696179;4.86E-05;-0.001895905;0.09755531;-0.995228291
2024/05/03/13:20:09.353440;170375;1714767609;353235298;world;0.10320612;-0.009871286;0.000706757;-0.000203704;-0.001877035;0.098379567;-0.995147169
2024/05/03/13:20:09.363394;170376;1714767609;362985733;world;0.103864118;-0.010003123;0.000712552;-0.000105408;-0.001828439;0.099137664;-0.995072067
2024/05/03/13:20:09.383346;170377;1714767609;382957155;world;0.104537822;-0.010142529;0.000730392;-5.87E-05;-0.002098997;0.09992525;-0.994992793
2024/05/03/13:20:09.393578;170378;1714767609;393254767;world;0.104866661;-0.010210725;0.000740601;0.000110167;-0.001962446;0.100294001;-0.994955957
2024/05/03/13:20:09.423134;170379;1714767609;422814812;world;0.105796337;-0.010410506;0.000720814;8.93E-05;-0.001832543;0.101145126;-0.994870067
2024/05/03/13:20:09.443631;170380;1714767609;443261462;world;0.10610678;-0.010454257;0.000715809;4.71E-05;-0.001801055;0.101476327;-0.99483633
2024/05/03/13:20:09.443640;170381;1714767609;443299674;world;0.106795833;-0.010606659;0.000720097;-0.000107485;-0.001875457;0.102025934;-0.994779944
2024/05/03/13:20:09.463840;170382;1714767609;463281707;world;0.107498072;-0.010782798;0.000704206;-0.000365774;-0.001940439;0.102592759;-0.994721532
2024/05/03/13:20:09.473767;170383;1714767609;473296441;world;0.108147621;-0.010879464;0.000723061;-0.000131043;-0.001741927;0.103172831;-0.994661987
2024/05/03/13:20:09.493457;170384;1714767609;493173918;world;0.108801194;-0.010992846;0.000734971;-1.60E-05;-0.001755707;0.103837579;-0.994592726
2024/05/03/13:20:09.513750;170385;1714767609;513430166;world;0.109556556;-0.011181838;0.000700718;-0.000136136;-0.001951813;0.104560614;-0.994516671
2024/05/03/13:20:09.523589;170386;1714767609;523091783;world;0.109861232;-0.011209728;0.000746773;-6.21E-05;-0.001825172;0.104851581;-0.994486272
2024/05/03/13:20:09.553185;170387;1714767609;552899996;world;0.110489301;-0.011423198;0.000724762;-0.000121978;-0.001972964;0.105594322;-0.994407415
2024/05/03/13:20:09.553209;170388;1714767609;552934852;world;0.111116469;-0.011537848;0.00073822;-0.00033939;-0.002022725;0.10610687;-0.994352698
2024/05/03/13:20:09.573448;170389;1714767609;573170189;world;0.111748397;-0.011645244;0.000716884;-0.000508541;-0.002370172;0.106639378;-0.994294822
2024/05/03/13:20:09.583510;170390;1714767609;583230887;world;0.112451591;-0.011785815;0.000704199;-0.000276595;-0.002107362;0.107327171;-0.994221509
2024/05/03/13:20:09.593333;170391;1714767609;593058546;world;0.113098569;-0.011907419;0.000706201;-0.000120565;-0.002085471;0.108086288;-0.994139314
2024/05/03/13:20:09.623140;170392;1714767609;622924524;world;0.113737918;-0.01204717;0.000714645;-0.000124682;-0.002143866;0.108789764;-0.994062483
2024/05/03/13:20:09.653816;170393;1714767609;653588438;world;0.11442209;-0.012202568;0.000702456;-0.000117617;-0.002158701;0.109557636;-0.993978143
2024/05/03/13:20:09.653870;170394;1714767609;653625819;world;0.115082704;-0.01228858;0.000737587;1.12E-05;-0.001981319;0.110036954;-0.993925512
2024/05/03/13:20:09.663346;170395;1714767609;663182360;world;0.11574205;-0.012463881;0.000736771;-7.26E-05;-0.002037588;0.110725254;-0.993848979
2024/05/03/13:20:09.683529;170396;1714767609;683176974;world;0.116403237;-0.0126344;0.000756529;-0.00043215;-0.002187389;0.111144014;-0.993801892
2024/05/03/13:20:09.693511;170397;1714767609;693132118;world;0.116704777;-0.012729323;0.000767849;-0.000562391;-0.002305405;0.111398369;-0.993773043
2024/05/03/13:20:09.713446;170398;1714767609;713207384;world;0.117429204;-0.012846598;0.000757713;-0.000311786;-0.001934383;0.112220243;-0.993681431
2024/05/03/13:20:09.723074;170399;1714767609;722890363;world;0.118060172;-0.013016607;0.000745128;-0.00025538;-0.00184958;0.112751707;-0.993621528
2024/05/03/13:20:09.753328;170400;1714767609;752978357;world;0.118699409;-0.013180634;0.000719886;-0.000296213;-0.001828258;0.113460548;-0.993540823
2024/05/03/13:20:09.753340;170401;1714767609;753012942;world;0.119410023;-0.013359392;0.000730384;-0.000410117;-0.001886429;0.114153378;-0.993461251
2024/05/03/13:20:09.773677;170402;1714767609;773191313;world;0.120098606;-0.013533043;0.000726873;-0.000617875;-0.001917535;0.114757247;-0.993391514
2024/05/03/13:20:09.783398;170403;1714767609;782959904;world;0.120694071;-0.013688283;0.000737465;-0.00075648;-0.002121596;0.115214296;-0.993338108
2024/05/03/13:20:09.803285;170404;1714767609;802993521;world;0.121004023;-0.013740099;0.000744549;-0.000762792;-0.002162895;0.115557268;-0.993298233
2024/05/03/13:20:09.824009;170405;1714767609;823123732;world;0.121656001;-0.013806663;0.000761115;-0.000575895;-0.001954931;0.116267182;-0.993215859
2024/05/03/13:20:09.833495;170406;1714767609;833181363;world;0.122321784;-0.013938198;0.000755023;-0.000384412;-0.002138045;0.116986811;-0.993131101
2024/05/03/13:20:09.853336;170407;1714767609;852968370;world;0.122973546;-0.014117936;0.000731447;-0.000422738;-0.002139101;0.117557995;-0.993063629
2024/05/03/13:20:09.863616;170408;1714767609;863265661;world;0.123615712;-0.014292529;0.000727033;-0.000540719;-0.002136541;0.118131161;-0.99299556
2024/05/03/13:20:09.883368;170409;1714767609;883143497;world;0.12426056;-0.014469288;0.000728602;-0.00066621;-0.002154225;0.118690126;-0.992928803
2024/05/03/13:20:09.893365;170410;1714767609;893076775;world;0.124587543;-0.014586928;0.000695955;-0.000626106;-0.002161098;0.119022407;-0.992889047
2024/05/03/13:20:09.913594;170411;1714767609;913246169;world;0.125585482;-0.014779282;0.000679027;-0.00093768;-0.002376493;0.119955875;-0.992775917
2024/05/03/13:20:09.933947;170412;1714767609;933147222;world;0.12628518;-0.01493261;0.000724921;-0.000756332;-0.00222182;0.120735481;-0.99268204
2024/05/03/13:20:09.964200;170413;1714767609;963350484;world;0.126572594;-0.014966876;0.000765133;-0.000703542;-0.00207006;0.121187754;-0.992627203
2024/05/03/13:20:09.964230;170414;1714767609;963387002;world;0.127197176;-0.015146057;0.000720742;-0.000638916;-0.002318281;0.121846691;-0.992546022
2024/05/03/13:20:09.973667;170415;1714767609;973388777;world;0.127848998;-0.015346955;0.000709689;-0.000501023;-0.00232058;0.12247017;-0.99246937
2024/05/03/13:20:09.983582;170416;1714767609;983309070;world;0.128487587;-0.015511981;0.000694294;-0.000555415;-0.002381491;0.123034425;-0.992399395
2024/05/03/13:20:10.003302;170417;1714767610;3031186;world;0.129168943;-0.015691854;0.000708644;-0.000610819;-0.002382513;0.123721614;-0.992313921
2024/05/03/13:20:10.023482;170418;1714767610;23216370;world;0.129523769;-0.015883015;0.000618225;-0.000747056;-0.002694884;0.124173604;-0.992256641
2024/05/03/13:20:10.033634;170419;1714767610;33282969;world;0.130128875;-0.015953517;0.000680205;-0.000707674;-0.002439813;0.124652088;-0.992197335
2024/05/03/13:20:10.063398;170420;1714767610;63122008;world;0.131091073;-0.016082801;0.0007642;-0.000372425;-0.002212438;0.125586033;-0.992080271
2024/05/03/13:20:10.063418;170421;1714767610;63143609;world;0.131472737;-0.016238153;0.000726318;-0.000676365;-0.002298054;0.126080573;-0.99201715
2024/05/03/13:20:10.083523;170422;1714767610;83243773;world;0.131975636;-0.016370118;0.000706954;0.000192331;-0.002311572;0.126632169;-0.991947114
2024/05/03/13:20:10.093453;170423;1714767610;93157234;world;0.132785603;-0.016538845;0.000741337;-0.000553513;-0.00225734;0.127409428;-0.991847515
2024/05/03/13:20:10.113683;170424;1714767610;113096105;world;0.133333221;-0.016677843;0.000771788;-0.000202353;-0.002028006;0.127768964;-0.991801918
2024/05/03/13:20:10.133525;170425;1714767610;133262593;world;0.133887216;-0.016798582;0.000784121;3.98E-05;-0.001969098;0.128021955;-0.991769433
2024/05/03/13:20:10.173310;170426;1714767610;172935012;world;0.134198606;-0.016903868;0.000752653;0.000203984;-0.002202283;0.128332868;-0.991728723
2024/05/03/13:20:10.173337;170428;1714767610;172976870;world;0.135712907;-0.017336767;0.000766842;-0.000248709;-0.002270092;0.130163744;-0.991489947
2024/05/03/13:20:10.193693;170429;1714767610;193342097;world;0.136361271;-0.01754388;0.000755606;-0.000266224;-0.00200834;0.130828306;-0.991403043
2024/05/03/13:20:10.203417;170430;1714767610;202960068;world;0.13696669;-0.017731594;0.000720751;-5.74E-05;-0.00193918;0.131362081;-0.991332591
2024/05/03/13:20:10.223301;170431;1714767610;222967919;world;0.137565926;-0.017824231;0.000764789;-0.000100001;-0.002088779;0.132024929;-0.991244197
2024/05/03/13:20:10.243567;170432;1714767610;243229315;world;0.138257593;-0.01802611;0.000739392;-0.000385106;-0.002293282;0.132607922;-0.991165936
2024/05/03/13:20:10.263971;170433;1714767610;263518015;world;0.138871938;-0.018236812;0.000756296;-0.000543302;-0.002365066;0.133253872;-0.991079032
2024/05/03/13:20:10.273626;170434;1714767610;273237400;world;0.139526248;-0.01844972;0.000719633;-0.000385897;-0.002403746;0.133909494;-0.990990639
2024/05/03/13:20:10.283516;170435;1714767610;283134109;world;0.140206441;-0.018633353;0.000683055;-0.000537577;-0.002252944;0.134470105;-0.990915
2024/05/03/13:20:10.303241;170436;1714767610;302981675;world;0.14055182;-0.018716611;0.000636398;-0.000884657;-0.002513866;0.134592026;-0.990897596
2024/05/03/13:20:10.323371;170437;1714767610;323062761;world;0.141601518;-0.018975545;0.000635904;-0.000911706;-0.002834336;0.13564226;-0.990753412
2024/05/03/13:20:10.343203;170438;1714767610;342929699;world;0.141872466;-0.019008761;0.000683867;-0.000698084;-0.00267637;0.136040315;-0.99069947
2024/05/03/13:20:10.373327;170439;1714767610;373014847;world;0.142442837;-0.019123407;0.000739714;-0.00064208;-0.002742113;0.136778131;-0.990597785
2024/05/03/13:20:10.373358;170440;1714767610;373048791;world;0.143043682;-0.019314159;0.000756341;-0.00046041;-0.00278796;0.13740404;-0.990511119
2024/05/03/13:20:10.383985;170441;1714767610;383490993;world;0.143651456;-0.019519286;0.000754713;-0.000245238;-0.002736582;0.137933373;-0.990437686
2024/05/03/13:20:10.393343;170442;1714767610;393031976;world;0.14435403;-0.019782851;0.000683658;-0.000288264;-0.002657678;0.138657868;-0.990336776
2024/05/03/13:20:10.413297;170443;1714767610;412994501;world;0.144690081;-0.019867584;0.000696573;-0.000261267;-0.00269871;0.138976127;-0.990292013
2024/05/03/13:20:10.423443;170444;1714767610;423184647;world;0.145324215;-0.020017065;0.000747546;-0.000343923;-0.00255751;0.139736429;-0.99018538
2024/05/03/13:20:10.443678;170445;1714767610;443311336;world;0.145941347;-0.020200573;0.000770207;-0.000500677;-0.00243274;0.140297592;-0.990106285
2024/05/03/13:20:10.463691;170446;1714767610;463369727;world;0.146510884;-0.020354658;0.000781707;-0.000279367;-0.002537648;0.14096947;-0.990010679
2024/05/03/13:20:10.473654;170447;1714767610;473372769;world;0.147095487;-0.020469362;0.000811718;-0.000319206;-0.00257374;0.141562447;-0.989925981
2024/05/03/13:20:10.493724;170448;1714767610;493384738;world;0.147764608;-0.020638483;0.00081776;-0.000496775;-0.002726543;0.142196447;-0.989834547
2024/05/03/13:20:10.513833;170449;1714767610;513274097;world;0.1484707;-0.020887636;0.000780981;-0.00046832;-0.002611418;0.142835349;-0.989742935
2024/05/03/13:20:10.523733;170450;1714767610;523473804;world;0.148799077;-0.02099037;0.000807435;-0.000589643;-0.002574512;0.143129125;-0.989700556
2024/05/03/13:20:10.543259;170451;1714767610;542882752;world;0.14971143;-0.021249989;0.000780365;-0.00041105;-0.002615801;0.144214094;-0.989542961
2024/05/03/13:20:10.563211;170452;1714767610;562903431;world;0.150345474;-0.02139093;0.000814126;-0.000228415;-0.002496363;0.144874185;-0.989446998
2024/05/03/13:20:10.573712;170453;1714767610;573298585;world;0.150955409;-0.021583447;0.000821182;-0.000191488;-0.002441362;0.145490199;-0.989356697
2024/05/03/13:20:10.583322;170454;1714767610;582996181;world;0.151288807;-0.021679809;0.00080656;-0.000337435;-0.002522594;0.145797193;-0.989311218
2024/05/03/13:20:10.603714;170455;1714767610;603249081;world;0.151877582;-0.021831801;0.000820759;-0.000295451;-0.002583849;0.146408498;-0.989220798
2024/05/03/13:20:10.613518;170456;1714767610;613223492;world;0.152494356;-0.022014098;0.000792184;-1.40E-05;-0.00259688;0.146996483;-0.989133656
2024/05/03/13:20:10.633593;170457;1714767610;633225296;world;0.153166801;-0.022245696;0.000766361;-0.000177236;-0.002536285;0.147580743;-0.989046752
2024/05/03/13:20:10.653644;170458;1714767610;653273082;world;0.153801963;-0.022456717;0.000810843;-0.000242898;-0.002751758;0.148639262;-0.988887608
2024/05/03/13:20:10.683583;170459;1714767610;683235655;world;0.154410452;-0.022667667;0.000809069;-0.000327732;-0.00264408;0.149362713;-0.988778949
2024/05/03/13:20:10.683608;170460;1714767610;683270019;world;0.154684126;-0.022760103;0.000827569;-0.000295298;-0.00262781;0.149699241;-0.988728046
2024/05/03/13:20:10.693591;170461;1714767610;693301251;world;0.155278355;-0.022957463;0.000819173;-0.000160012;-0.002651489;0.150376871;-0.988625169
2024/05/03/13:20:10.714083;170462;1714767610;713399712;world;0.15587236;-0.023152309;0.000827061;-0.000115907;-0.002677496;0.150827438;-0.988556445
2024/05/03/13:20:10.723669;170463;1714767610;723198307;world;0.156542152;-0.02336413;0.000798858;2.66E-05;-0.002581198;0.151412487;-0.988467395
2024/05/03/13:20:10.733305;170464;1714767610;732961636;world;0.157154009;-0.023566738;0.000785497;-4.72E-08;-0.002597802;0.152097836;-0.988362014
2024/05/03/13:20:10.753383;170465;1714767610;753043095;world;0.15777871;-0.023749132;0.000810181;-1.36E-05;-0.002649733;0.152759522;-0.988259912
2024/05/03/13:20:10.783417;170466;1714767610;782876382;world;0.158468187;-0.023953032;0.000798767;-0.000117307;-0.002636796;0.153395921;-0.988161325
2024/05/03/13:20:10.793281;170467;1714767610;792990780;world;0.159107983;-0.024173986;0.000766205;8.03E-05;-0.00260382;0.154108793;-0.98805052
2024/05/03/13:20:10.803658;170468;1714767610;803214672;world;0.159413159;-0.024257811;0.000768763;8.06E-05;-0.002572163;0.154437631;-0.987999201
2024/05/03/13:20:10.813254;170469;1714767610;812988442;world;0.160003945;-0.024460068;0.000790339;9.37E-05;-0.002599877;0.155165911;-0.987885058
2024/05/03/13:20:10.833421;170470;1714767610;833101660;world;0.160640195;-0.024622377;0.000796457;-1.48E-06;-0.002697954;0.155621201;-0.987813115
2024/05/03/13:20:10.853477;170471;1714767610;853113449;world;0.161269009;-0.024823122;0.000726645;7.22E-05;-0.002508012;0.155948803;-0.987761974
2024/05/03/13:20:10.883505;170472;1714767610;883212533;world;0.161884576;-0.024996687;0.000786751;0.000170905;-0.002757061;0.156565607;-0.987663686
2024/05/03/13:20:10.883530;170473;1714767610;883246647;world;0.162544966;-0.025180619;0.000811736;0.000158119;-0.002726666;0.157319114;-0.98754406
2024/05/03/13:20:10.893444;170474;1714767610;893171319;world;0.163270995;-0.025395252;0.000810866;7.77E-05;-0.002647537;0.158221483;-0.987400115
2024/05/03/13:20:10.913224;170475;1714767610;912936916;world;0.163675815;-0.025528783;0.000816241;-0.000209129;-0.002621162;0.158651575;-0.987331212
2024/05/03/13:20:10.933556;170476;1714767610;933243778;world;0.164576143;-0.025792059;0.000821167;-0.000342515;-0.002505249;0.159444556;-0.987203658
2024/05/03/13:20:10.953271;170477;1714767610;952941699;world;0.164872855;-0.025883084;0.000832049;-0.00038238;-0.002473392;0.159726098;-0.987158239
2024/05/03/13:20:10.963517;170478;1714767610;963250287;world;0.165459678;-0.026096607;0.000820917;-0.000293841;-0.002513492;0.16033785;-0.987058938
2024/05/03/13:20:10.983791;170479;1714767610;983017717;world;0.166100055;-0.026297672;0.000777149;-0.00035201;-0.002488093;0.160931915;-0.986962378
2024/05/03/13:20:10.993602;170480;1714767610;993204084;world;0.166674137;-0.026543131;0.000785107;6.55E-05;-0.002627996;0.161495715;-0.986869991
2024/05/03/13:20:11.003461;170481;1714767611;3175523;world;0.167290509;-0.026680904;0.000862114;4.38E-05;-0.002771797;0.162210137;-0.986752391
2024/05/03/13:20:11.023342;170482;1714767611;23043231;world;0.167613819;-0.026795346;0.000840785;2.15E-05;-0.002737083;0.16262424;-0.986684263
2024/05/03/13:20:11.033453;170483;1714767611;33137591;world;0.168662325;-0.027161751;0.000780094;-0.000319958;-0.003062081;0.163865417;-0.986477971
2024/05/03/13:20:11.053364;170484;1714767611;53038923;world;0.169288084;-0.027305732;0.000811962;-2.07E-05;-0.002993989;0.164626524;-0.98635143
2024/05/03/13:20:11.083331;170485;1714767611;83049603;world;0.169601247;-0.027426245;0.000809693;0.000154636;-0.002925575;0.164916664;-0.986303151
2024/05/03/13:20:11.083470;170486;1714767611;83083577;world;0.170165479;-0.027617026;0.000863214;0.000445564;-0.002938746;0.165319338;-0.986235678
2024/05/03/13:20:11.093341;170487;1714767611;93036642;world;0.170715049;-0.027851023;0.000822914;0.000786857;-0.002797667;0.165760398;-0.986161828
2024/05/03/13:20:11.113561;170488;1714767611;113169568;world;0.171392158;-0.028053479;0.000810473;0.000890796;-0.002838793;0.16642496;-0.986049712
2024/05/03/13:20:11.133497;170489;1714767611;133188720;world;0.17214869;-0.028320182;0.000896549;0.000525956;-0.003086944;0.167297691;-0.985901475
2024/05/03/13:20:11.143485;170490;1714767611;143173234;world;0.172763586;-0.028517913;0.000955273;0.000328001;-0.003224685;0.168331578;-0.985725164
2024/05/03/13:20:11.163501;170491;1714767611;162991880;world;0.173368275;-0.028681826;0.000887715;0.00043501;-0.002956885;0.169102013;-0.985594094
2024/05/03/13:20:11.193363;170492;1714767611;193075577;world;0.173654646;-0.028796084;0.000862363;0.000508363;-0.002899929;0.169377208;-0.985546947
2024/05/03/13:20:11.193390;170493;1714767611;193105623;world;0.174302757;-0.029000299;0.000919811;0.000134978;-0.003058893;0.17007944;-0.985425591
2024/05/03/13:20:11.214085;170494;1714767611;213393517;world;0.174953654;-0.029265083;0.000875262;0.000206777;-0.003065414;0.170597985;-0.985336006
2024/05/03/13:20:11.223705;170495;1714767611;223421466;world;0.175615177;-0.029483745;0.000853244;9.12E-05;-0.003146131;0.17123729;-0.985224783
2024/05/03/13:20:11.233310;170496;1714767611;233036778;world;0.176243007;-0.029689716;0.000841772;0.000325953;-0.003083149;0.171704456;-0.985143721
2024/05/03/13:20:11.263620;170497;1714767611;263271357;world;0.176831633;-0.029875584;0.000861848;0.000376467;-0.003114696;0.172225729;-0.985052526
2024/05/03/13:20:11.283563;170498;1714767611;283215699;world;0.177187502;-0.029982621;0.000874273;0.000267623;-0.003182241;0.172590569;-0.984988451
2024/05/03/13:20:11.293249;170499;1714767611;292968689;world;0.177918062;-0.030257439;0.000859877;-2.82E-05;-0.003254119;0.173327908;-0.984858811
2024/05/03/13:20:11.303504;170500;1714767611;303121525;world;0.178548366;-0.03051137;0.000839983;0.000258105;-0.003297851;0.173951611;-0.984748662
2024/05/03/13:20:11.323616;170501;1714767611;323322552;world;0.179196596;-0.030700628;0.000832866;0.000165815;-0.003234905;0.174527541;-0.984647036
2024/05/03/13:20:11.333519;170502;1714767611;333273573;world;0.179843485;-0.030858874;0.000808509;0.000207686;-0.00309299;0.175149903;-0.984536946
2024/05/03/13:20:11.343344;170503;1714767611;343015793;world;0.180421308;-0.031023879;0.000867043;0.000251546;-0.003051097;0.175864235;-0.98440969
2024/05/03/13:20:11.363671;170504;1714767611;363375233;world;0.181051493;-0.031275734;0.000852969;3.26E-05;-0.003186208;0.176443249;-0.984305739
2024/05/03/13:20:11.393443;170505;1714767611;393136986;world;0.18165189;-0.031512994;0.000838102;2.00E-06;-0.003215895;0.177136049;-0.984181166
2024/05/03/13:20:11.393472;170506;1714767611;393169947;world;0.182317659;-0.031747364;0.000833784;0.000169834;-0.003141418;0.177977398;-0.984029591
2024/05/03/13:20:11.413263;170507;1714767611;412967093;world;0.182979539;-0.032055426;0.000808564;0.000390017;-0.003124031;0.178733051;-0.98389256
2024/05/03/13:20:11.433458;170508;1714767611;433117912;world;0.183609575;-0.032300688;0.000818722;0.000221781;-0.003070406;0.179287136;-0.983792067
2024/05/03/13:20:11.443274;170509;1714767611;442901970;world;0.183879301;-0.032404505;0.000819213;0.00029092;-0.002961477;0.179562718;-0.983742118
2024/05/03/13:20:11.473472;170510;1714767611;473072070;world;0.184462428;-0.032632746;0.000830945;0.00032525;-0.002951793;0.180103928;-0.983643115
2024/05/03/13:20:11.493853;170511;1714767611;493532641;world;0.185031295;-0.032813616;0.000850252;0.000523374;-0.00301203;0.180641785;-0.98354429
2024/05/03/13:20:11.493873;170512;1714767611;493574078;world;0.185625598;-0.032976434;0.000868657;0.000632492;-0.003001587;0.181323335;-0.983418822
2024/05/03/13:20:11.503222;170513;1714767611;502882244;world;0.18622601;-0.033186954;0.000885386;0.000762865;-0.003041267;0.182064712;-0.983281553
2024/05/03/13:20:11.513365;170514;1714767611;513026247;world;0.186526716;-0.033265896;0.000903553;0.000737445;-0.003152097;0.182449207;-0.983209968
