time;.header.seq;.header.stamp.secs;.header.stamp.nsecs;.header.frame_id;.pose.position.x;.pose.position.y;.pose.position.z;.pose.orientation.x;.pose.orientation.y;.pose.orientation.z;.pose.orientation.w
2024/05/03/12:53:19.963740;69301;1714765999;963192854;world;0.000432551;-0.000979066;-4.63E-05;0.000138126;0.000639835;0.002744612;0.999996066
2024/05/03/12:53:19.993549;69302;1714765999;993128815;world;0.00046171;-0.000859192;-1.92E-05;0.00034408;0.000506807;0.002838736;0.999995828
2024/05/03/12:53:20.003529;69303;1714766000;3237626;world;0.000462771;-0.000867374;-1.74E-05;0.000349243;0.000543193;0.00281601;0.999995828
2024/05/03/12:53:20.013623;69304;1714766000;13253289;world;0.000453387;-0.00088381;-4.85E-06;0.000365456;0.000530041;0.002829286;0.999995828
2024/05/03/12:53:20.023573;69305;1714766000;23298390;world;0.000464968;-0.000883376;-1.41E-05;0.000296301;0.000519089;0.002870122;0.999995708
2024/05/03/12:53:20.043819;69306;1714766000;43391683;world;0.000450371;-0.00086776;-1.44E-05;0.000372838;0.000573977;0.002867472;0.999995708
2024/05/03/12:53:20.063690;69307;1714766000;63333313;world;0.000457688;-0.000880506;-1.46E-06;0.000317978;0.000544505;0.002895783;0.999995589
2024/05/03/12:53:20.073422;69308;1714766000;73146305;world;0.000461604;-0.000890674;-1.30E-05;0.000315168;0.000548342;0.002891557;0.999995708
2024/05/03/12:53:20.103450;69309;1714766000;103123535;world;0.000454775;-0.000886858;-2.06E-05;0.000358081;0.00054509;0.002830242;0.999995828
2024/05/03/12:53:20.103486;69310;1714766000;103164432;world;0.000428092;-0.000990769;-5.42E-05;0.00018748;0.000593698;0.002667373;0.999996305
2024/05/03/12:53:20.123737;69311;1714766000;123446662;world;0.000457481;-0.000849646;-1.90E-06;0.000409791;0.000573049;0.002806618;0.999995828
2024/05/03/12:53:20.133457;69312;1714766000;133220509;world;0.00045475;-0.000881266;-1.05E-05;0.000353961;0.000524859;0.002813203;0.999995828
2024/05/03/12:53:20.153281;69313;1714766000;152899133;world;0.000445666;-0.000869652;-1.02E-05;0.000384154;0.000603147;0.002820265;0.999995828
2024/05/03/12:53:20.163742;69314;1714766000;163345719;world;0.000419328;-0.000974156;-5.17E-05;0.000186819;0.000608552;0.002676673;0.999996185
2024/05/03/12:53:20.183476;69315;1714766000;183169034;world;0.000459642;-0.00089003;7.13E-06;0.000353022;0.000563191;0.002800035;0.999995947
2024/05/03/12:53:20.193312;69316;1714766000;192986155;world;0.0004655;-0.0008817;-2.53E-05;0.000318397;0.000541274;0.002886425;0.999995708
2024/05/03/12:53:20.213238;69317;1714766000;212879432;world;0.000416091;-0.00097522;-4.84E-05;0.000138586;0.000590338;0.00263792;0.999996424
2024/05/03/12:53:20.233410;69318;1714766000;233015858;world;0.000459839;-0.000877017;-9.41E-06;0.000312791;0.000501649;0.00283454;0.999995828
2024/05/03/12:53:20.243324;69319;1714766000;243008670;world;0.0004622;-0.000861472;-1.48E-05;0.000324491;0.000547574;0.002856213;0.999995708
2024/05/03/12:53:20.273612;69320;1714766000;273195045;world;0.000447217;-0.000879178;-2.80E-06;0.000346105;0.000581483;0.002833379;0.999995828
2024/05/03/12:53:20.273638;69321;1714766000;273237755;world;0.000440301;-0.000985559;-4.05E-05;0.000133227;0.000587052;0.002689155;0.999996185
2024/05/03/12:53:20.303968;69322;1714766000;303593643;world;0.000468118;-0.000902656;-3.54E-06;0.000350546;0.000543113;0.002841535;0.999995828
2024/05/03/12:53:20.304004;69323;1714766000;303646572;world;0.000443971;-0.000921246;-1.83E-05;0.000268746;0.000539836;0.002809834;0.999995947
2024/05/03/12:53:20.323611;69324;1714766000;323318669;world;0.000462788;-0.00084701;-2.11E-06;0.00030174;0.000562875;0.002803452;0.999995947
2024/05/03/12:53:20.343653;69325;1714766000;343016829;world;0.000461452;-0.000872271;-1.39E-05;0.000349093;0.000522073;0.002836727;0.999995828
2024/05/03/12:53:20.373761;69326;1714766000;373237177;world;0.000458572;-0.000877026;-1.46E-05;0.000371204;0.000519351;0.002873104;0.999995708
2024/05/03/12:53:20.373791;69327;1714766000;373275679;world;0.000458198;-0.0008724;-1.10E-05;0.000395914;0.000563345;0.002866432;0.999995708
2024/05/03/12:53:20.383506;69328;1714766000;383203989;world;0.000454658;-0.000880867;-8.28E-06;0.000349478;0.00051145;0.002817316;0.999995828
2024/05/03/12:53:20.403533;69329;1714766000;403223434;world;0.000450157;-0.00087681;-8.70E-06;0.000381878;0.000586406;0.002856769;0.999995708
2024/05/03/12:53:20.413301;69330;1714766000;412920128;world;0.000454457;-0.000874657;-1.07E-05;0.000411841;0.000524429;0.002763754;0.999995947
2024/05/03/12:53:20.433645;69331;1714766000;433324420;world;0.000446049;-0.000877963;-8.69E-06;0.000348154;0.000521522;0.002848237;0.999995828
2024/05/03/12:53:20.453421;69332;1714766000;453088372;world;0.000458349;-0.000868909;-1.47E-05;0.0003367;0.000537348;0.002889778;0.999995708
2024/05/03/12:53:20.473709;69333;1714766000;473369565;world;0.000455556;-0.000868039;-5.84E-06;0.000382173;0.000546115;0.002882776;0.999995708
2024/05/03/12:53:20.483614;69334;1714766000;483196835;world;0.000460199;-0.000871632;-2.31E-05;0.000339588;0.000564291;0.002816458;0.999995828
2024/05/03/12:53:20.493437;69335;1714766000;493034307;world;0.000452629;-0.000884363;-1.11E-05;0.000300421;0.00057152;0.002852792;0.999995708
2024/05/03/12:53:20.503694;69336;1714766000;503381977;world;0.000453358;-0.000878677;-8.42E-06;0.000301766;0.000528005;0.002883994;0.999995708
2024/05/03/12:53:20.524091;69337;1714766000;523213698;world;0.000457956;-0.000885675;-1.43E-05;0.000387699;0.000586699;0.002859613;0.999995708
2024/05/03/12:53:20.553399;69338;1714766000;552991854;world;0.000459372;-0.000892287;-1.24E-05;0.000362858;0.000549204;0.002842696;0.999995828
2024/05/03/12:53:20.553475;69339;1714766000;553053179;world;0.000450054;-0.000888858;-2.51E-06;0.000386417;0.000536448;0.002847913;0.999995708
2024/05/03/12:53:20.573358;69340;1714766000;573001130;world;0.000459371;-0.000885155;-1.14E-05;0.000353991;0.000605302;0.002861459;0.999995708
2024/05/03/12:53:20.584076;69341;1714766000;583726861;world;0.000442565;-0.000903726;-2.67E-06;0.000314956;0.000529233;0.002816584;0.999995828
2024/05/03/12:53:20.613425;69342;1714766000;613021375;world;0.000452226;-0.000876619;-2.60E-05;0.000417922;0.000598451;0.002846617;0.999995708
2024/05/03/12:53:20.613460;69343;1714766000;613070628;world;0.000452897;-0.000876134;-1.22E-05;0.000401155;0.000552648;0.002803771;0.999995828
2024/05/03/12:53:20.633585;69344;1714766000;633227989;world;0.000453969;-0.000872193;-8.56E-06;0.00035446;0.000586526;0.002819552;0.999995828
2024/05/03/12:53:20.653591;69345;1714766000;652978863;world;0.000448531;-0.000926433;-2.72E-05;0.000331426;0.000547816;0.002761717;0.999996066
2024/05/03/12:53:20.663484;69346;1714766000;662858480;world;0.00046567;-0.000896404;-2.42E-05;0.000365721;0.000583231;0.002880951;0.999995589
2024/05/03/12:53:20.683748;69347;1714766000;683408504;world;0.00046399;-0.00087373;-1.58E-05;0.000382417;0.000505825;0.002824243;0.999995828
2024/05/03/12:53:20.703459;69348;1714766000;703170597;world;0.000451922;-0.000872487;1.43E-06;0.000378497;0.000542706;0.002848938;0.999995708
2024/05/03/12:53:20.713656;69349;1714766000;713081092;world;0.00045621;-0.000888556;-1.81E-05;0.000305706;0.000634092;0.002857224;0.999995708
2024/05/03/12:53:20.723645;69350;1714766000;723332819;world;0.000462232;-0.000842178;-1.97E-05;0.000381595;0.000545762;0.002875528;0.999995708
2024/05/03/12:53:20.743427;69351;1714766000;743050398;world;0.000452684;-0.000861231;-2.19E-06;0.000394188;0.000585093;0.002827246;0.999995828
2024/05/03/12:53:20.753336;69352;1714766000;753056114;world;0.000455944;-0.000849793;-1.13E-05;0.00044005;0.000608761;0.002789347;0.999995828
2024/05/03/12:53:20.783631;69353;1714766000;783327067;world;0.000456728;-0.00087487;-1.92E-05;0.00029326;0.000543664;0.002835071;0.999995828
2024/05/03/12:53:20.793869;69354;1714766000;793224368;world;0.000460028;-0.000892507;-2.33E-05;0.000351143;0.000533512;0.002871731;0.999995708
2024/05/03/12:53:20.813272;69355;1714766000;812988916;world;0.00044255;-0.000899861;-1.47E-05;0.000379756;0.000472328;0.0027918;0.999995947
2024/05/03/12:53:20.823344;69356;1714766000;822999177;world;0.000447243;-0.000866206;9.70E-06;0.000359961;0.000618114;0.002812152;0.999995828
2024/05/03/12:53:20.833306;69357;1714766000;832985957;world;0.000414768;-0.000989676;-4.37E-05;0.000147589;0.000567282;0.002632886;0.999996424
2024/05/03/12:53:20.853330;69358;1714766000;853016142;world;0.000442752;-0.000976199;-6.35E-05;0.000100254;0.000539338;0.002646421;0.999996424
2024/05/03/12:53:20.883784;69359;1714766000;883325868;world;0.000442872;-0.000893589;-3.83E-06;0.000338632;0.000521235;0.002825865;0.999995828
2024/05/03/12:53:20.883801;69360;1714766000;883370262;world;0.000448353;-0.000891954;-3.78E-06;0.000320341;0.000520862;0.00282433;0.999995828
2024/05/03/12:53:20.913594;69361;1714766000;913095980;world;0.000446218;-0.000890646;-2.59E-05;0.000305667;0.000530789;0.002860665;0.999995708
2024/05/03/12:53:20.913666;69362;1714766000;913157786;world;0.00045852;-0.000877699;-2.16E-05;0.000289449;0.000541992;0.002865336;0.999995708
2024/05/03/12:53:20.933694;69363;1714766000;933277269;world;0.000456417;-0.00087353;-1.24E-05;0.000400688;0.000485796;0.002791477;0.999995947
2024/05/03/12:53:20.953809;69364;1714766000;953377998;world;0.000460209;-0.000893671;-7.96E-06;0.000375563;0.000537952;0.002860645;0.999995708
2024/05/03/12:53:20.963989;69365;1714766000;963612423;world;0.000452033;-0.000889005;-7.39E-06;0.000300344;0.000554469;0.002828204;0.999995828
2024/05/03/12:53:20.983366;69366;1714766000;983034644;world;0.000458989;-0.000861187;-2.40E-05;0.000349574;0.000552688;0.002831789;0.999995828
2024/05/03/12:53:20.993623;69367;1714766000;993250857;world;0.000455431;-0.000862116;-2.53E-05;0.000336613;0.000585352;0.002841124;0.999995708
2024/05/03/12:53:21.023468;69368;1714766001;23131216;world;0.00046386;-0.000886621;7.57E-07;0.000326034;0.000538526;0.002830817;0.999995828
2024/05/03/12:53:21.023495;69369;1714766001;23167494;world;0.000463563;-0.000871811;-7.48E-07;0.000372395;0.000557646;0.002807826;0.999995828
2024/05/03/12:53:21.044072;69370;1714766001;43662874;world;0.000451887;-0.000873692;-3.01E-05;0.000366649;0.000546247;0.002852236;0.999995708
2024/05/03/12:53:21.054244;69371;1714766001;53898312;world;0.000447378;-0.000853838;-2.60E-05;0.000343072;0.000565897;0.0028256;0.999995828
2024/05/03/12:53:21.073366;69372;1714766001;72997915;world;0.000463119;-0.000868261;-5.88E-07;0.000363503;0.000524279;0.002814643;0.999995828
2024/05/03/12:53:21.093621;69373;1714766001;93250868;world;0.000450175;-0.000877883;-1.14E-05;0.000332747;0.000614528;0.002842645;0.999995708
2024/05/03/12:53:21.123805;69374;1714766001;123458769;world;0.000462124;-0.000864292;-1.58E-05;0.000362863;0.000555054;0.002850787;0.999995708
2024/05/03/12:53:21.123832;69375;1714766001;123492954;world;0.000454389;-0.000868665;-2.56E-05;0.000391359;0.000537686;0.002839157;0.999995828
2024/05/03/12:53:21.133506;69376;1714766001;133197634;world;0.000457267;-0.00086767;-2.14E-05;0.00038893;0.000562259;0.002818322;0.999995828
2024/05/03/12:53:21.153410;69377;1714766001;153060856;world;0.000429709;-0.000985352;-4.01E-05;0.000147444;0.000599525;0.002637114;0.999996305
2024/05/03/12:53:21.163604;69378;1714766001;163200723;world;0.000452401;-0.00091573;-1.82E-05;0.000295389;0.00052425;0.002754939;0.999996066
2024/05/03/12:53:21.193187;69379;1714766001;192962087;world;0.000459164;-0.0008581;-2.87E-05;0.000403847;0.000553192;0.002881221;0.999995589
2024/05/03/12:53:21.203617;69380;1714766001;203210350;world;0.000463986;-0.000880459;-4.56E-06;0.000386425;0.000631979;0.002843887;0.999995708
2024/05/03/12:53:21.223393;69381;1714766001;222968933;world;0.00045422;-0.000886148;-4.48E-06;0.0003782;0.000590873;0.00284006;0.999995708
2024/05/03/12:53:21.223416;69382;1714766001;223006574;world;0.000453066;-0.000885233;-1.85E-05;0.00037396;0.000579489;0.002824088;0.999995828
2024/05/03/12:53:21.243756;69383;1714766001;243407636;world;0.000459362;-0.00087096;-2.99E-05;0.000360209;0.000518318;0.002826721;0.999995828
2024/05/03/12:53:21.263748;69384;1714766001;263344025;world;0.00044712;-0.000882747;-1.78E-05;0.000305496;0.000551817;0.002780017;0.999995947
2024/05/03/12:53:21.274232;69385;1714766001;273930734;world;0.000449662;-0.000890486;-4.71E-06;0.000385347;0.000566186;0.00285889;0.999995708
2024/05/03/12:53:21.293673;69386;1714766001;293088399;world;0.000431425;-0.00096616;-5.05E-05;0.000160966;0.000567472;0.002662215;0.999996305
2024/05/03/12:53:21.303436;69387;1714766001;303089975;world;0.000459084;-0.000857238;-2.25E-05;0.000401036;0.000531459;0.002860479;0.999995708
2024/05/03/12:53:21.324381;69388;1714766001;324030584;world;0.000445698;-0.00090172;-3.51E-05;0.000330456;0.000534689;0.002728954;0.999996066
2024/05/03/12:53:21.343199;69389;1714766001;342866450;world;0.000462419;-0.000875317;1.24E-06;0.000338518;0.000565886;0.002874822;0.999995708
2024/05/03/12:53:21.353611;69390;1714766001;353290664;world;0.000428939;-0.001006676;-4.68E-05;0.000155486;0.000574791;0.00266758;0.999996305
2024/05/03/12:53:21.363719;69391;1714766001;363327637;world;0.000468961;-0.000869308;-1.28E-05;0.000371217;0.000554472;0.002846953;0.999995708
2024/05/03/12:53:21.393263;69392;1714766001;392916786;world;0.000465062;-0.00085414;-7.96E-06;0.000354396;0.000527895;0.002838958;0.999995828
2024/05/03/12:53:21.403699;69393;1714766001;403389090;world;0.000459627;-0.000879426;4.10E-06;0.000322522;0.000543191;0.002842903;0.999995828
2024/05/03/12:53:21.433255;69394;1714766001;432897318;world;0.000461951;-0.000889447;-1.76E-05;0.000368792;0.000582452;0.002853794;0.999995708
2024/05/03/12:53:21.433291;69395;1714766001;432938366;world;0.000474327;-0.000872426;-3.53E-05;0.000326612;0.000591242;0.002874125;0.999995708
2024/05/03/12:53:21.444124;69396;1714766001;443555910;world;0.000462793;-0.000861591;-9.51E-06;0.000336057;0.000566739;0.002836028;0.999995828
2024/05/03/12:53:21.463394;69397;1714766001;463013995;world;0.000443614;-0.000873031;-1.95E-06;0.000337423;0.000516219;0.002799493;0.999995947
2024/05/03/12:53:21.475033;69398;1714766001;474268625;world;0.000451875;-0.000884352;-5.17E-06;0.000316803;0.000551563;0.002876164;0.999995708
2024/05/03/12:53:21.493511;69399;1714766001;493106456;world;0.00044754;-0.000917764;-2.70E-05;0.000247217;0.000530768;0.002777082;0.999995947
2024/05/03/12:53:21.503708;69400;1714766001;503329080;world;0.000451607;-0.00087049;-2.99E-06;0.000334909;0.00056101;0.002813546;0.999995828
2024/05/03/12:53:21.533520;69401;1714766001;533255830;world;0.00045773;-0.000876812;-2.50E-06;0.000294651;0.000562405;0.002843227;0.999995828
2024/05/03/12:53:21.543830;69402;1714766001;543428263;world;0.000454612;-0.000876186;-7.40E-06;0.000368274;0.000565324;0.002827912;0.999995828
2024/05/03/12:53:21.553562;69403;1714766001;553193726;world;0.000446467;-0.000862876;-2.37E-05;0.000362868;0.000531657;0.002800244;0.999995947
2024/05/03/12:53:21.573550;69404;1714766001;573255607;world;0.000439879;-0.000859149;-1.27E-05;0.000370247;0.000538679;0.002749607;0.999996066
2024/05/03/12:53:21.603311;69405;1714766001;602883523;world;0.000445445;-0.00087063;-1.35E-06;0.000366144;0.000546982;0.002785169;0.999995947
2024/05/03/12:53:21.603337;69406;1714766001;602921044;world;0.000431814;-0.00096054;-5.24E-05;0.00019527;0.000607422;0.002670209;0.999996305
2024/05/03/12:53:21.633333;69407;1714766001;632920235;world;0.000451439;-0.00087345;-2.00E-05;0.000358154;0.00053407;0.002795421;0.999995947
2024/05/03/12:53:21.633358;69408;1714766001;632958567;world;0.000446265;-0.000876663;-1.13E-05;0.000395633;0.000543929;0.002804195;0.999995828
2024/05/03/12:53:21.653287;69409;1714766001;652934390;world;0.000420317;-0.000982873;-5.20E-05;0.000156487;0.000611729;0.002603967;0.999996424
2024/05/03/12:53:21.663326;69410;1714766001;662987864;world;0.000450161;-0.000887195;-3.30E-06;0.000370799;0.000582584;0.002813544;0.999995828
2024/05/03/12:53:21.684299;69411;1714766001;683339295;world;0.000459098;-0.000879982;-8.57E-06;0.000404409;0.000592568;0.002839322;0.999995708
2024/05/03/12:53:21.703367;69412;1714766001;703040310;world;0.000430645;-0.000863606;-3.13E-05;0.000337821;0.000532236;0.002797342;0.999995947
2024/05/03/12:53:21.713594;69413;1714766001;713289583;world;0.000448501;-0.000883855;-6.10E-06;0.000286509;0.000541302;0.002825193;0.999995828
2024/05/03/12:53:21.743253;69414;1714766001;742972960;world;0.000454981;-0.000867825;-1.76E-05;0.000400171;0.000565712;0.002800764;0.999995828
2024/05/03/12:53:21.743285;69415;1714766001;743010932;world;0.000442838;-0.000861153;-2.16E-05;0.000380665;0.000579641;0.002822556;0.999995828
2024/05/03/12:53:21.763364;69416;1714766001;763044012;world;0.000421732;-0.000980614;-6.27E-05;0.000161536;0.000594409;0.002584881;0.999996543
2024/05/03/12:53:21.773468;69417;1714766001;773178690;world;0.000450952;-0.000877563;-1.71E-05;0.00033519;0.000514037;0.002743485;0.999996066
2024/05/03/12:53:21.794281;69418;1714766001;793724745;world;0.000436321;-0.000850666;6.56E-06;0.00032872;0.000563518;0.002783754;0.999995947
2024/05/03/12:53:21.803466;69419;1714766001;803167612;world;0.000449608;-0.000862731;6.65E-06;0.000350667;0.000652133;0.002779586;0.999995947
2024/05/03/12:53:21.823843;69420;1714766001;823188550;world;0.000460697;-0.000861336;-9.93E-06;0.000253065;0.000543117;0.002805002;0.999995947
2024/05/03/12:53:21.843380;69421;1714766001;843062260;world;0.000447977;-0.000841977;6.69E-06;0.000258967;0.00058223;0.002834703;0.999995828
2024/05/03/12:53:21.853450;69422;1714766001;853153807;world;0.000437943;-0.000864176;6.81E-06;0.00028063;0.000523292;0.00275142;0.999996066
2024/05/03/12:53:21.873318;69423;1714766001;873016407;world;0.000441614;-0.000881927;4.82E-06;0.00027945;0.000568181;0.002837721;0.999995828
2024/05/03/12:53:21.884202;69424;1714766001;882917345;world;0.00044188;-0.00090648;1.53E-06;0.000187549;0.000590674;0.002903642;0.999995589
2024/05/03/12:53:21.903941;69425;1714766001;903742006;world;0.000448474;-0.000914119;1.11E-05;0.000296335;0.000553428;0.002884241;0.999995708
2024/05/03/12:53:21.913408;69426;1714766001;913122663;world;0.000446287;-0.000917846;5.08E-07;0.000200262;0.0005222;0.00287069;0.999995708
2024/05/03/12:53:21.933251;69427;1714766001;932930140;world;0.000444463;-0.000913166;1.23E-05;0.000189783;0.000526239;0.002841996;0.999995828
2024/05/03/12:53:21.943609;69428;1714766001;943267148;world;0.000436831;-0.00095601;3.84E-06;0.000190633;0.000497317;0.002898073;0.999995708
2024/05/03/12:53:21.963297;69429;1714766001;962974126;world;0.000443425;-0.000905959;4.96E-06;0.0003309;0.000562779;0.00284601;0.999995708
2024/05/03/12:53:21.983366;69430;1714766001;983047201;world;0.000446572;-0.000511976;2.62E-05;0.000450886;0.000684485;0.002675465;0.999996066
2024/05/03/12:53:21.993176;69431;1714766001;992921157;world;0.000409333;0.000596741;0.000161057;0.000259458;0.000681005;0.002768815;0.999995947
2024/05/03/12:53:22.013685;69432;1714766002;13146029;world;0.000313336;0.002691906;-1.23E-05;0.001135964;0.00014877;0.001600041;0.999998093
2024/05/03/12:53:22.023585;69433;1714766002;23279174;world;0.000326036;0.00352937;5.82E-06;0.001114874;0.000323204;0.001613248;0.999998093
2024/05/03/12:53:22.043557;69434;1714766002;43136654;world;0.000279021;0.005038528;-1.84E-05;0.000938007;0.000247675;0.002081207;0.999997377
2024/05/03/12:53:22.053195;69435;1714766002;52913077;world;0.000328291;0.006969245;0.000106799;0.000898777;0.000330972;0.002710251;0.999995947
2024/05/03/12:53:22.073618;69436;1714766002;73317988;world;0.000293143;0.009270916;0.000121852;0.000392306;0.000380731;0.002654457;0.999996305
2024/05/03/12:53:22.083261;69437;1714766002;82957092;world;0.000438849;0.011111256;0.000123014;0.00023554;0.000792302;0.003167513;0.999994636
2024/05/03/12:53:22.113671;69438;1714766002;113227353;world;3.45E-05;0.012637652;0.000338346;0.000723075;0.001662402;0.003836651;0.999991059
2024/05/03/12:53:22.113678;69439;1714766002;113262950;world;-5.10E-05;0.013590891;0.000442498;0.000730409;0.001768528;0.004267489;0.999989152
2024/05/03/12:53:22.143420;69440;1714766002;143125273;world;0.000287432;0.0160683;0.000558447;0.000865014;0.002307126;0.004106514;0.999988556
2024/05/03/12:53:22.153265;69441;1714766002;152974674;world;0.000362484;0.019550538;0.000147897;0.000885448;0.000738517;0.00277867;0.99999547
2024/05/03/12:53:22.163692;69442;1714766002;162888426;world;0.000385086;0.021709202;0.000148739;0.00044018;0.000167495;0.00287583;0.999995828
2024/05/03/12:53:22.183448;69443;1714766002;183070187;world;0.000552583;0.022931583;0.00014027;0.000304243;0.000117569;0.002700071;0.999996305
2024/05/03/12:53:22.203410;69444;1714766002;203083490;world;0.00061015;0.025082855;0.000196243;0.000358468;0.000887004;0.002585879;0.999996185
2024/05/03/12:53:22.213492;69445;1714766002;213189219;world;0.000285811;0.027434014;0.000313981;-0.000178924;0.001420796;0.001422712;0.999997973
2024/05/03/12:53:22.243495;69446;1714766002;243140453;world;0.00037166;0.029460546;0.000455291;0.000120495;0.001319748;0.00174246;0.999997616
2024/05/03/12:53:22.253767;69447;1714766002;253399186;world;0.000615178;0.030703276;0.000589881;0.000479009;0.00229183;0.003702594;0.999990463
2024/05/03/12:53:22.263379;69448;1714766002;262965031;world;0.000619913;0.032250322;0.000374482;-0.000125944;0.001530851;0.003906922;0.999991179
2024/05/03/12:53:22.273023;69449;1714766002;272781390;world;0.000613946;0.033463053;0.000189007;0.000126674;0.000839935;0.002746465;0.999995947
2024/05/03/12:53:22.293740;69450;1714766002;293431913;world;0.000660982;0.036462098;0.000255166;0.0007241;0.00051001;0.001863372;0.999997854
2024/05/03/12:53:22.313408;69451;1714766002;313104524;world;0.000636203;0.037270874;0.000342053;0.000572826;0.000807573;0.001777174;0.999997973
2024/05/03/12:53:22.323332;69452;1714766002;322957161;world;0.000672108;0.038616322;0.000397191;0.000534509;0.001233552;0.00214256;0.999996781
2024/05/03/12:53:22.353388;69453;1714766002;353104030;world;0.000451021;0.040102798;0.000466122;-0.000128655;0.001458586;0.00147872;0.999997854
2024/05/03/12:53:22.353414;69454;1714766002;353140148;world;0.000417598;0.0412338;0.000557801;-0.000231415;0.001766977;0.001372132;0.999997497
2024/05/03/12:53:22.363400;69455;1714766002;362959501;world;0.00063633;0.041885704;0.000647862;0.000326072;0.002120723;0.002977654;0.999993324
2024/05/03/12:53:22.383375;69456;1714766002;382984868;world;0.000688218;0.042235538;0.000717557;0.000495613;0.002313848;0.003354448;0.999991655
2024/05/03/12:53:22.403215;69457;1714766002;402857425;world;0.000780837;0.043355506;0.000713434;0.000576135;0.00223913;0.003885335;0.999989867
2024/05/03/12:53:22.423309;69458;1714766002;423056474;world;0.000835782;0.0438319;0.000652822;0.000443139;0.002198643;0.003788152;0.999990344
2024/05/03/12:53:22.433646;69459;1714766002;433283662;world;0.000945596;0.044737466;0.000494159;-0.000117294;0.001394473;0.003744028;0.999992013
2024/05/03/12:53:22.453770;69460;1714766002;453476311;world;0.000999689;0.045711447;0.000400598;-7.07E-05;0.001074894;0.003189098;0.999994397
2024/05/03/12:53:22.463353;69461;1714766002;463097663;world;0.000984104;0.046466459;0.000341326;-0.000473019;0.000744164;0.003289643;0.999994278
2024/05/03/12:53:22.473316;69462;1714766002;472979666;world;0.000911573;0.046997108;0.000361398;-0.000306685;0.000997653;0.003308342;0.99999404
2024/05/03/12:53:22.493395;69463;1714766002;493094749;world;0.000880366;0.04749696;0.000431491;-0.000163761;0.00130826;0.003281971;0.999993801
2024/05/03/12:53:22.513355;69464;1714766002;513079499;world;0.000908576;0.047899753;0.000503153;9.06E-05;0.001405819;0.003458189;0.999993086
2024/05/03/12:53:22.533537;69465;1714766002;533231563;world;0.0008917;0.048683174;0.000559123;4.02E-05;0.001472384;0.004092772;0.999990582
2024/05/03/12:53:22.563252;69466;1714766002;563002345;world;0.000799219;0.049740456;0.00052153;0.000454707;0.001265554;0.002763503;0.999995351
2024/05/03/12:53:22.563261;69467;1714766002;563036740;world;0.000787297;0.050148554;0.00051909;0.00055788;0.001129701;0.002484468;0.999996185
2024/05/03/12:53:22.573136;69468;1714766002;572850352;world;0.000812504;0.050715037;0.000564286;0.000505924;0.001310188;0.002723895;0.999995351
2024/05/03/12:53:22.583237;69469;1714766002;583001191;world;0.000845157;0.051246356;0.000588284;0.000464414;0.001482803;0.003111588;0.99999404
2024/05/03/12:53:22.603246;69470;1714766002;602933901;world;0.000879471;0.051748723;0.000585644;0.000497113;0.001603072;0.003222533;0.999993443
2024/05/03/12:53:22.623349;69471;1714766002;623055818;world;0.000737455;0.052137405;0.000779447;0.00051037;0.002403189;0.003617379;0.999990463
2024/05/03/12:53:22.633430;69472;1714766002;632996944;world;0.00067996;0.052423246;0.001028133;0.000482284;0.003270421;0.003987445;0.999986649
2024/05/03/12:53:22.663622;69473;1714766002;663317057;world;0.000648655;0.052558824;0.001059762;0.000610124;0.003431716;0.004259802;0.99998486
2024/05/03/12:53:22.663649;69474;1714766002;663353746;world;0.000690952;0.053303801;0.001075699;0.000465142;0.003457984;0.004103987;0.999985576
2024/05/03/12:53:22.683340;69475;1714766002;682804610;world;0.00080285;0.05431734;0.000728348;0.00048506;0.002249629;0.003509711;0.999991179
2024/05/03/12:53:22.693837;69476;1714766002;693551992;world;0.000802537;0.055286665;0.000573161;-0.000166485;0.001371705;0.002504408;0.999995947
2024/05/03/12:53:22.713226;69477;1714766002;712903257;world;0.00091019;0.056395419;0.00063557;-4.89E-05;0.001372437;0.001749574;0.999997616
2024/05/03/12:53:22.733797;69478;1714766002;733493207;world;0.000819658;0.057194397;0.000694419;-5.33E-05;0.001280567;0.001418697;0.999998212
2024/05/03/12:53:22.753550;69479;1714766002;753245509;world;0.000854773;0.057892341;0.000658237;-0.000179941;0.001287076;0.001712769;0.999997735
2024/05/03/12:53:22.763384;69480;1714766002;763103866;world;0.00089618;0.058193181;0.00067159;-0.000153876;0.001332981;0.001944273;0.999997258
2024/05/03/12:53:22.773325;69481;1714766002;773027846;world;0.001059033;0.05903735;0.00051553;0.00020677;0.000694379;0.002682648;0.999996185
2024/05/03/12:53:22.793932;69482;1714766002;793591206;world;0.00105926;0.05930648;0.000567811;0.000233953;0.000954554;0.002837796;0.99999547
2024/05/03/12:53:22.803609;69483;1714766002;803316783;world;0.001063774;0.059940524;0.000574082;0.000244324;0.001213562;0.003132628;0.999994397
2024/05/03/12:53:22.833461;69484;1714766002;832973745;world;0.001016947;0.060766276;0.000631386;0.000267875;0.001608753;0.003056839;0.99999404
2024/05/03/12:53:22.833485;69485;1714766002;833009603;world;0.000962486;0.0615182;0.000670557;3.40E-05;0.001750214;0.003324231;0.999992967
2024/05/03/12:53:22.863635;69486;1714766002;863140976;world;0.001004601;0.06229037;0.000735319;0.000325323;0.001673935;0.003723008;0.999991655
2024/05/03/12:53:22.873508;69487;1714766002;873227274;world;0.001060066;0.063103616;0.00074999;0.00028984;0.001794284;0.004114159;0.999989867
2024/05/03/12:53:22.893805;69488;1714766002;893488904;world;0.001030958;0.064025156;0.000858946;0.000545428;0.002202038;0.004148266;0.999988794
2024/05/03/12:53:22.903219;69489;1714766002;902895711;world;0.000932532;0.064769939;0.00091738;0.000397915;0.002313016;0.004032903;0.999989152
2024/05/03/12:53:22.913122;69490;1714766002;912847325;world;0.000908948;0.065153569;0.00093961;0.000297673;0.002305458;0.004035663;0.999989152
2024/05/03/12:53:22.933486;69491;1714766002;933226638;world;0.000843728;0.066141307;0.000989952;0.000763112;0.002739885;0.00344923;0.999989986
2024/05/03/12:53:22.943564;69492;1714766002;943273570;world;0.000917095;0.067185499;0.000828501;0.00070832;0.001814421;0.002863064;0.99999404
2024/05/03/12:53:22.974030;69493;1714766002;973642188;world;0.001042698;0.067959711;0.000716412;0.000263453;0.000979564;0.002698419;0.999995828
2024/05/03/12:53:22.983449;69494;1714766002;983172898;world;0.000867481;0.069172889;0.000692568;-0.000793874;0.000832944;0.002012895;0.999997377
2024/05/03/12:53:22.993341;69495;1714766002;993033187;world;0.001017651;0.070345774;0.000889278;0.000168468;0.001683677;0.002134358;0.999996305
2024/05/03/12:53:23.003366;69496;1714766003;3062538;world;0.000801835;0.071165338;0.000853796;6.65E-05;0.001384574;0.001322001;0.999998212
2024/05/03/12:53:23.033433;69497;1714766003;33133943;world;0.000992313;0.072212122;0.000832245;0.000932091;0.001675968;0.002262618;0.999995589
2024/05/03/12:53:23.043616;69498;1714766003;43329567;world;0.001028309;0.072547168;0.000852789;0.001210783;0.001680446;0.002189528;0.99999547
2024/05/03/12:53:23.073266;69499;1714766003;72982314;world;0.001011572;0.073353857;0.000911326;0.001144247;0.00184214;0.002425288;0.999994755
2024/05/03/12:53:23.073294;69500;1714766003;73027820;world;0.001047052;0.074038029;0.000893313;0.000971514;0.001943069;0.002928142;0.999993324
2024/05/03/12:53:23.083457;69501;1714766003;83180782;world;0.001062572;0.074749179;0.000903921;0.000847186;0.002098641;0.003232482;0.999992251
2024/05/03/12:53:23.103887;69502;1714766003;103589538;world;0.001074512;0.075587124;0.000895028;0.000860768;0.002166892;0.003343519;0.999991775
2024/05/03/12:53:23.123294;69503;1714766003;122986131;world;0.00108666;0.076376759;0.000947181;0.00077997;0.002354234;0.003384305;0.999991179
2024/05/03/12:53:23.133399;69504;1714766003;133142048;world;0.001143101;0.077322416;0.001014342;0.000766914;0.002337338;0.003675666;0.999990225
2024/05/03/12:53:23.173729;69505;1714766003;173245780;world;0.001124634;0.078117639;0.001066357;0.000746341;0.002227162;0.00379758;0.999990106
2024/05/03/12:53:23.173761;69506;1714766003;173283010;world;0.001088741;0.078604884;0.001026287;0.000574276;0.001901015;0.003609599;0.999991536
2024/05/03/12:53:23.183601;69507;1714766003;183188896;world;0.001172513;0.079709336;0.00096121;-0.000197828;0.001371858;0.003254901;0.999993801
2024/05/03/12:53:23.193132;69508;1714766003;192925709;world;0.00103095;0.080962613;0.001115603;0.000261041;0.002227248;0.002004328;0.99999547
2024/05/03/12:53:23.213284;69509;1714766003;212968753;world;0.00091626;0.082020253;0.000989899;0.000517427;0.001776236;0.001199291;0.999997616
2024/05/03/12:53:23.243329;69510;1714766003;242921716;world;0.000803723;0.082961023;0.000934586;0.000256592;0.001395138;0.000822776;0.999998689
2024/05/03/12:53:23.243359;69511;1714766003;242954077;world;0.000605914;0.083850287;0.000966139;-0.000358688;0.001359194;0.000381216;0.999998927
2024/05/03/12:53:23.263624;69512;1714766003;263173248;world;0.000585897;0.084339261;0.001016774;-0.000207742;0.001231557;0.000620328;0.999999046
2024/05/03/12:53:23.283767;69513;1714766003;283392087;world;0.000650783;0.085603505;0.000982391;0.000360955;0.001142531;0.001059509;0.999998808
2024/05/03/12:53:23.293103;69514;1714766003;292824293;world;0.000651043;0.086033702;0.000968515;0.000442969;0.000999846;0.001081737;0.999998808
2024/05/03/12:53:23.303309;69515;1714766003;303029934;world;0.000953108;0.086584881;0.001017037;0.001506344;0.001690985;0.001973263;0.99999547
2024/05/03/12:53:23.323529;69516;1714766003;323197947;world;0.001013376;0.087095127;0.001087891;0.001554448;0.002006837;0.002463228;0.999993801
2024/05/03/12:53:23.343770;69517;1714766003;343230968;world;0.001055423;0.087748177;0.001049074;0.001349118;0.002083797;0.00292663;0.999992609
2024/05/03/12:53:23.353410;69518;1714766003;352967295;world;0.001030992;0.088475548;0.001150101;0.001309242;0.002361395;0.003149808;0.999991417
2024/05/03/12:53:23.373962;69519;1714766003;373417743;world;0.001055007;0.08925233;0.001140793;0.001406369;0.002459822;0.003200348;0.99999094
2024/05/03/12:53:23.383304;69520;1714766003;382997304;world;0.001072261;0.089639053;0.001168495;0.001251698;0.002476085;0.003187164;0.999991059
2024/05/03/12:53:23.403188;69521;1714766003;402908093;world;0.001157038;0.09106683;0.001138975;0.000630356;0.001664408;0.003107363;0.999993563
2024/05/03/12:53:23.413624;69522;1714766003;413260712;world;0.001252184;0.091718569;0.001149922;0.000274976;0.001477938;0.002868968;0.999994755
2024/05/03/12:53:23.433220;69523;1714766003;432863772;world;0.001163713;0.092695005;0.001261485;0.000537012;0.001799504;0.002381045;0.99999547
2024/05/03/12:53:23.443399;69524;1714766003;443100010;world;0.001181204;0.093427971;0.001287889;0.000583636;0.00174418;0.00264543;0.999994874
2024/05/03/12:53:23.483567;69525;1714766003;483269736;world;0.001138782;0.094204873;0.001333372;0.00069303;0.001945947;0.002631133;0.999994397
2024/05/03/12:53:23.483590;69526;1714766003;483306214;world;0.001138993;0.095026851;0.001360222;0.000641239;0.002216599;0.002576447;0.99999404
2024/05/03/12:53:23.493510;69527;1714766003;493167316;world;0.000907634;0.096006334;0.001452762;0.000345713;0.002413676;0.001924887;0.999995232
2024/05/03/12:53:23.503313;69528;1714766003;502989277;world;0.000889485;0.096448995;0.001436659;0.000276639;0.002470572;0.002005072;0.999994874
2024/05/03/12:53:23.523924;69529;1714766003;523444641;world;0.000842908;0.097297788;0.001351091;0.000445045;0.002462739;0.001919192;0.999995112
2024/05/03/12:53:23.543275;69530;1714766003;542971128;world;0.000834466;0.098272771;0.001326999;0.000669978;0.002060635;0.001737705;0.999996185
2024/05/03/12:53:23.554123;69531;1714766003;553689173;world;0.000917992;0.099116556;0.001218126;0.001397312;0.001420512;0.001746535;0.999996543
2024/05/03/12:53:23.583534;69532;1714766003;583135732;world;0.001044093;0.099645682;0.001339851;0.001999001;0.001756086;0.002347514;0.999993682
2024/05/03/12:53:23.583555;69533;1714766003;583169125;world;0.00107501;0.100185625;0.001239687;0.001773134;0.001729726;0.003116838;0.999992132
2024/05/03/12:53:23.604464;69534;1714766003;603516437;world;0.001129507;0.10087467;0.001285908;0.00168977;0.002002759;0.003342355;0.999991059
2024/05/03/12:53:23.613292;69535;1714766003;612990421;world;0.001154611;0.101569951;0.001341062;0.001419767;0.001957823;0.003593328;0.999990702
2024/05/03/12:53:23.633228;69536;1714766003;632919105;world;0.001088989;0.101974405;0.001321772;0.001153528;0.001737832;0.003524666;0.999991655
2024/05/03/12:53:23.653469;69537;1714766003;653074391;world;0.0012592;0.102922022;0.001270649;0.00108433;0.001485485;0.002933993;0.99999404
2024/05/03/12:53:23.693475;69538;1714766003;693180326;world;0.0011179;0.10421586;0.001352871;0.000760126;0.001622574;0.001761637;0.999996901
2024/05/03/12:53:23.693500;69540;1714766003;693235500;world;0.001152359;0.105909899;0.001417827;0.000852103;0.001586788;0.00286009;0.999994278
2024/05/03/12:53:23.713540;69541;1714766003;713274085;world;0.001227636;0.106478624;0.001457829;0.000835959;0.001591667;0.003873762;0.99999094
2024/05/03/12:53:23.723304;69542;1714766003;722970948;world;0.001287431;0.107256547;0.001512466;0.001161794;0.001906677;0.004177396;0.999988794
2024/05/03/12:53:23.753487;69543;1714766003;753017197;world;0.001336979;0.108120419;0.001537755;0.001247265;0.002435717;0.004166424;0.999987602
2024/05/03/12:53:23.763555;69544;1714766003;763213140;world;0.001005054;0.108811572;0.001642953;0.001122252;0.00268676;0.004455818;0.999985814
2024/05/03/12:53:23.783421;69545;1714766003;783118028;world;0.000871563;0.109011419;0.001713389;0.001322447;0.00283568;0.004702166;0.999984026
2024/05/03/12:53:23.793369;69546;1714766003;792965396;world;0.000895746;0.110023506;0.001843247;0.001689089;0.003619457;0.004938854;0.999979854
2024/05/03/12:53:23.803362;69547;1714766003;803077010;world;0.000907576;0.110512048;0.001793202;0.001655204;0.003627209;0.004654412;0.999981284
2024/05/03/12:53:23.823328;69548;1714766003;823078099;world;0.001034301;0.111523472;0.001753301;0.001540517;0.002920965;0.004600207;0.999984026
2024/05/03/12:53:23.833593;69549;1714766003;833294571;world;0.001181026;0.112515241;0.001759318;0.001539813;0.002709339;0.004557645;0.999984741
2024/05/03/12:53:23.853802;69550;1714766003;853281185;world;0.001086873;0.113747045;0.001555085;0.001854143;0.00197358;0.003508372;0.999990225
2024/05/03/12:53:23.863514;69551;1714766003;863200185;world;0.00114901;0.114915401;0.001383959;0.001983912;0.000949512;0.00238579;0.999994755
2024/05/03/12:53:23.893447;69552;1714766003;893149442;world;0.001192404;0.115563817;0.001442385;0.001979511;0.001024515;0.001728901;0.999996066
2024/05/03/12:53:23.903262;69553;1714766003;902962032;world;0.000916233;0.116732724;0.001538948;0.001175749;0.001189034;0.001290194;0.999997854
2024/05/03/12:53:23.913411;69554;1714766003;913079839;world;0.00092447;0.117059536;0.001502723;0.001035444;0.001185633;0.001629048;0.999997497
2024/05/03/12:53:23.933761;69555;1714766003;933251890;world;0.000941776;0.117604189;0.001594101;0.000769471;0.001973821;0.002242505;0.999995232
2024/05/03/12:53:23.943831;69556;1714766003;943455267;world;0.000928719;0.118495315;0.001595004;0.00078872;0.001980301;0.002611195;0.999994397
2024/05/03/12:53:23.963207;69557;1714766003;962894632;world;0.00102484;0.119671345;0.001612765;0.001156288;0.001737174;0.002664697;0.999994278
2024/05/03/12:53:23.993429;69558;1714766003;993029996;world;0.000981527;0.120563909;0.001693929;0.001229264;0.001895112;0.002897387;0.999993324
2024/05/03/12:53:23.993457;69559;1714766003;993063359;world;0.001064558;0.121293925;0.001632442;0.001318178;0.001910072;0.00329413;0.999991894
2024/05/03/12:53:24.013853;69560;1714766004;13284223;world;0.001158195;0.121910557;0.001741314;0.002031649;0.003002996;0.003655384;0.999986768
2024/05/03/12:53:24.023511;69561;1714766004;23083749;world;0.001191994;0.12221837;0.001779994;0.002125497;0.003194931;0.0037485;0.999985695
2024/05/03/12:53:24.043919;69562;1714766004;43561853;world;0.000971196;0.122448534;0.001955612;0.001920702;0.003350619;0.004494219;0.999982476
2024/05/03/12:53:24.063552;69563;1714766004;63260496;world;0.000975262;0.123082593;0.001971863;0.002046474;0.003506605;0.004786842;0.99998033
2024/05/03/12:53:24.073538;69564;1714766004;73244130;world;0.001143523;0.124311522;0.001733741;0.001604912;0.002247449;0.00415659;0.999987602
2024/05/03/12:53:24.103439;69565;1714766004;103137862;world;0.001392389;0.125316054;0.001617581;0.001542944;0.001518975;0.003425278;0.999991775
2024/05/03/12:53:24.103464;69566;1714766004;103174701;world;0.001177152;0.126727521;0.001712937;0.001432817;0.001339209;0.002657035;0.999994636
2024/05/03/12:53:24.123725;69567;1714766004;123434197;world;0.001102991;0.127709776;0.001767499;0.001212905;0.001418816;0.002746337;0.999994516
2024/05/03/12:53:24.143813;69568;1714766004;143493747;world;0.001134459;0.128519535;0.001852585;0.00135247;0.001306669;0.002785062;0.999994397
2024/05/03/12:53:24.163617;69569;1714766004;163105182;world;0.000985669;0.12955375;0.001770088;0.001658486;0.000819462;0.001863489;0.999996543
2024/05/03/12:53:24.163646;69570;1714766004;163152481;world;0.001082532;0.130331397;0.001745248;0.002264275;0.000657974;0.00183414;0.999995589
2024/05/03/12:53:24.213485;69571;1714766004;213162569;world;0.001090214;0.130640849;0.001676764;0.00202792;0.00076448;0.002314499;0.999994993
2024/05/03/12:53:24.213513;69573;1714766004;213205921;world;0.001085047;0.132059142;0.001728924;0.001886622;0.001789299;0.002871559;0.99999249
2024/05/03/12:53:24.223703;69574;1714766004;223345708;world;0.001018977;0.132950783;0.001748293;0.001578633;0.001845557;0.002660936;0.999993563
2024/05/03/12:53:24.243713;69575;1714766004;243397349;world;0.000934818;0.133784294;0.001871914;0.001400002;0.002066638;0.003238661;0.999991655
2024/05/03/12:53:24.263320;69576;1714766004;263004723;world;0.000954466;0.134049088;0.001954501;0.00158857;0.002285272;0.003618293;0.999989629
2024/05/03/12:53:24.273726;69577;1714766004;273355486;world;0.001227252;0.13503994;0.001914639;0.002357647;0.00247603;0.004203659;0.999985337
2024/05/03/12:53:24.303529;69578;1714766004;303233593;world;0.001201758;0.135315329;0.001919919;0.002192678;0.002414271;0.004537798;0.999984384
2024/05/03/12:53:24.303556;69579;1714766004;303266936;world;0.001142059;0.136207864;0.001810865;0.002172228;0.001754219;0.004356592;0.999986649
2024/05/03/12:53:24.323373;69580;1714766004;323057424;world;0.001220724;0.13681075;0.001701899;0.002071568;0.00114845;0.003938877;0.99998951
2024/05/03/12:53:24.333729;69581;1714766004;333335878;world;0.001149157;0.137718707;0.001689357;0.00216183;0.001432443;0.002733555;0.999992967
2024/05/03/12:53:24.353413;69582;1714766004;353060772;world;0.001044635;0.138472393;0.001657798;0.003039419;0.002499332;0.001743243;0.999990821
2024/05/03/12:53:24.363339;69583;1714766004;363034807;world;0.000988841;0.1393525;0.001726967;0.002786615;0.002413;0.00252889;0.999989986
2024/05/03/12:53:24.403502;69584;1714766004;403198229;world;0.000710381;0.139579132;0.001864991;0.002707158;0.002636723;0.002674903;0.999989271
2024/05/03/12:53:24.403526;69585;1714766004;403233636;world;0.000712087;0.140132532;0.002097192;0.003250336;0.003836025;0.004152084;0.999978781
2024/05/03/12:53:24.413555;69586;1714766004;413242205;world;0.000967003;0.141063333;0.001983815;0.002853498;0.003157518;0.004311361;0.999981642
2024/05/03/12:53:24.433157;69587;1714766004;432845365;world;0.000910703;0.141518727;0.001887603;0.002829294;0.002674571;0.004386087;0.999982834
2024/05/03/12:53:24.443430;69588;1714766004;443142358;world;0.001016218;0.142431721;0.001836874;0.002587444;0.002129326;0.004687295;0.99998343
2024/05/03/12:53:24.463597;69589;1714766004;463225002;world;0.000991009;0.143526673;0.001776271;0.00285557;0.001462559;0.004614661;0.999984264
2024/05/03/12:53:24.483799;69590;1714766004;483505227;world;0.00102667;0.14460057;0.001886151;0.00209371;0.001135692;0.005061965;0.999984384
2024/05/03/12:53:24.503513;69591;1714766004;503194920;world;0.001063795;0.145580813;0.001922357;0.001636421;0.001465326;0.004908388;0.999985576
2024/05/03/12:53:24.513558;69592;1714766004;513085264;world;0.001164142;0.146521062;0.002003732;0.001711102;0.001837046;0.004757428;0.999985576
2024/05/03/12:53:24.523306;69593;1714766004;523006715;world;0.00118311;0.146979079;0.002028246;0.001743353;0.00186786;0.004779364;0.999985337
2024/05/03/12:53:24.543789;69594;1714766004;543224220;world;0.001290116;0.148551211;0.001993356;0.00156843;0.001150664;0.00430252;0.999988914
2024/05/03/12:53:24.553544;69595;1714766004;553252407;world;0.001266813;0.149091065;0.00199778;0.00164974;0.001119972;0.004041887;0.999989867
2024/05/03/12:53:24.573684;69596;1714766004;573404160;world;0.001225671;0.150157377;0.001983283;0.002390205;0.001298063;0.00306893;0.999991655
2024/05/03/12:53:24.593384;69597;1714766004;593083374;world;0.001223676;0.150914013;0.001933974;0.002965732;0.001564496;0.002643953;0.99999094
2024/05/03/12:53:24.623531;69598;1714766004;623206026;world;0.001158707;0.151345611;0.001964539;0.00269111;0.001630295;0.002557241;0.999991775
2024/05/03/12:53:24.623553;69599;1714766004;623241292;world;0.0008492;0.151264787;0.001876676;0.002417094;0.002983729;0.002618247;0.999989271
2024/05/03/12:53:24.633689;69600;1714766004;633425745;world;0.000861728;0.151310831;0.001956366;0.002236169;0.004805114;0.002837042;0.999981999
2024/05/03/12:53:24.653594;69601;1714766004;653252966;world;0.00084706;0.151586726;0.001944508;0.002216622;0.004878167;0.002729216;0.999981999
2024/05/03/12:53:24.673357;69602;1714766004;672932630;world;0.000855671;0.15236868;0.001947415;0.002476235;0.005181786;0.002851882;0.999979496
2024/05/03/12:53:24.683306;69603;1714766004;682973216;world;0.000562567;0.152777225;0.002017627;0.003729661;0.005498823;0.004183446;0.999969244
2024/05/03/12:53:24.713377;69604;1714766004;712958902;world;0.000368454;0.153321609;0.001960527;0.004527473;0.00447547;0.004346241;0.999970317
2024/05/03/12:53:24.713406;69605;1714766004;712993477;world;0.000594649;0.154403016;0.001818461;0.003868351;0.004665437;0.003704591;0.999974847
2024/05/03/12:53:24.723513;69606;1714766004;723208319;world;0.000699185;0.155473992;0.001855717;0.003372683;0.004710522;0.003610472;0.999976754
2024/05/03/12:53:24.743261;69607;1714766004;742947325;world;0.000821574;0.156588435;0.001940774;0.002843391;0.004689314;0.003491378;0.9999789
2024/05/03/12:53:24.753532;69608;1714766004;753259242;world;0.000814514;0.157084838;0.002000482;0.002822662;0.004589171;0.00348077;0.999979496
2024/05/03/12:53:24.773356;69609;1714766004;773102980;world;0.000805892;0.158068582;0.00212556;0.002949802;0.004270082;0.003457126;0.999980569
2024/05/03/12:53:24.813423;69610;1714766004;813104979;world;0.000694772;0.159055501;0.002092042;0.002844664;0.003078893;0.00372161;0.999984264
2024/05/03/12:53:24.813452;69611;1714766004;813138903;world;0.000867883;0.159943148;0.002054954;0.003147779;0.002971102;0.003748305;0.999983668
2024/05/03/12:53:24.823227;69612;1714766004;822928992;world;0.000859794;0.160742521;0.001903802;0.002742997;0.003369908;0.003220373;0.999985456
2024/05/03/12:53:24.833620;69613;1714766004;833126988;world;0.000753003;0.161256284;0.001849734;0.003411312;0.004124139;0.002705232;0.999981999
2024/05/03/12:53:24.853316;69614;1714766004;852924915;world;0.000761861;0.161942333;0.00172704;0.003607733;0.004063238;0.002851285;0.999981165
2024/05/03/12:53:24.873508;69615;1714766004;873146037;world;0.000708539;0.162607089;0.002160215;0.003556356;0.005586457;0.003587054;0.999971628
2024/05/03/12:53:24.883450;69616;1714766004;882968126;world;0.000721714;0.16335234;0.002186466;0.003651191;0.005725958;0.003836036;0.999969602
2024/05/03/12:53:24.923591;69617;1714766004;923293254;world;0.000759039;0.163778082;0.002189504;0.003612045;0.005739944;0.003805462;0.99996984
2024/05/03/12:53:24.923619;69618;1714766004;923328069;world;0.000715567;0.164681017;0.002102821;0.003259851;0.005353652;0.003939947;0.999972582
2024/05/03/12:53:24.933181;69619;1714766004;932886702;world;0.000734529;0.165548041;0.002189355;0.003327667;0.005303554;0.004390624;0.999970794
2024/05/03/12:53:24.943485;69620;1714766004;943194966;world;0.000737056;0.166162819;0.002077763;0.004284566;0.004443318;0.004194254;0.999972224
2024/05/03/12:53:24.963475;69621;1714766004;963152384;world;0.000711814;0.166855499;0.002055066;0.004399054;0.004796091;0.003805002;0.999971628
2024/05/03/12:53:24.983232;69622;1714766004;982892903;world;0.000654049;0.167703792;0.002143483;0.004008886;0.005442928;0.003725128;0.999970198
2024/05/03/12:53:24.993414;69623;1714766004;993094565;world;0.000744561;0.168682978;0.002172182;0.003852835;0.005507084;0.003670979;0.999970675
2024/05/03/12:53:25.013821;69624;1714766005;13219269;world;0.000754908;0.169150949;0.002170369;0.003761021;0.005448562;0.003568656;0.999971747
2024/05/03/12:53:25.023228;69625;1714766005;22863453;world;0.00072773;0.170017466;0.002189076;0.00340678;0.005073403;0.003158129;0.999976397
2024/05/03/12:53:25.043406;69626;1714766005;43101417;world;0.000668045;0.170937866;0.002035639;0.003159704;0.004226638;0.002922971;0.99998188
2024/05/03/12:53:25.053301;69627;1714766005;52905252;world;0.000912361;0.172050431;0.002039931;0.003253913;0.004015174;0.002982635;0.999982238
2024/05/03/12:53:25.083554;69628;1714766005;83056517;world;0.001103345;0.173185021;0.002011033;0.002951947;0.003928765;0.003443637;0.999981999
2024/05/03/12:53:25.083574;69629;1714766005;83089950;world;0.001111779;0.174086183;0.001860338;0.003503048;0.003948384;0.003227138;0.999980927
2024/05/03/12:53:25.103215;69630;1714766005;102911020;world;0.000886492;0.174655259;0.001970574;0.00338905;0.004001216;0.00309053;0.999981523
2024/05/03/12:53:25.123689;69631;1714766005;123295052;world;0.000732681;0.174970537;0.002212339;0.003359883;0.004809912;0.003186976;0.999977708
2024/05/03/12:53:25.133477;69632;1714766005;133176211;world;0.000797896;0.176145703;0.002314756;0.003285993;0.005510442;0.003890965;0.999971867
2024/05/03/12:53:25.153814;69633;1714766005;153431619;world;0.000796271;0.176955521;0.002328595;0.003213266;0.005366132;0.003746861;0.999973416
2024/05/03/12:53:25.163877;69634;1714766005;163367672;world;0.000783237;0.177355185;0.002335751;0.003163798;0.005402705;0.003734043;0.999973416
2024/05/03/12:53:25.183574;69635;1714766005;183288697;world;0.000657909;0.178081125;0.002223623;0.003456005;0.004545632;0.003818564;0.999976397
2024/05/03/12:53:25.203395;69636;1714766005;203103079;world;0.000667371;0.178925335;0.002271688;0.003463874;0.004807592;0.003906091;0.999974847
2024/05/03/12:53:25.223316;69637;1714766005;223001073;world;0.000785751;0.179876223;0.002336714;0.003845021;0.005338341;0.003809491;0.999971151
2024/05/03/12:53:25.233672;69638;1714766005;233369390;world;0.000770409;0.18067342;0.002337535;0.003802349;0.005433459;0.003794807;0.999970794
2024/05/03/12:53:25.243295;69639;1714766005;242947260;world;0.000779543;0.181504697;0.002361418;0.003544987;0.005496826;0.003460602;0.999972701
2024/05/03/12:53:25.263903;69640;1714766005;263592591;world;0.000758039;0.182346076;0.00236242;0.003455328;0.005117645;0.0032061;0.999975801
2024/05/03/12:53:25.273426;69641;1714766005;273160734;world;0.00073928;0.182689279;0.002300138;0.003901335;0.005270335;0.003322373;0.999973059
2024/05/03/12:53:25.293403;69642;1714766005;293018452;world;0.000641331;0.183548927;0.0021862;0.003925582;0.004511415;0.003272204;0.999976754
2024/05/03/12:53:25.323595;69643;1714766005;323226004;world;0.000800993;0.184480563;0.002071926;0.003603009;0.004484031;0.003014063;0.9999789
2024/05/03/12:53:25.323619;69644;1714766005;323268264;world;0.001005255;0.185416132;0.002027051;0.003627973;0.004215742;0.003108973;0.999979734
2024/05/03/12:53:25.343449;69645;1714766005;343098611;world;0.000980631;0.186407715;0.002043128;0.003388429;0.004292561;0.003157452;0.999980092
2024/05/03/12:53:25.353372;69646;1714766005;353020327;world;0.000991097;0.187449396;0.002097901;0.003254638;0.004338731;0.003142311;0.99998033
2024/05/03/12:53:25.364307;69647;1714766005;364030492;world;0.000987967;0.188408315;0.002092158;0.003591151;0.004221473;0.003096055;0.999979854
2024/05/03/12:53:25.393546;69648;1714766005;393260926;world;0.001005488;0.1888908;0.002088841;0.003630331;0.004119117;0.003144228;0.999979973
2024/05/03/12:53:25.403261;69649;1714766005;402905731;world;0.000777613;0.189915106;0.002379901;0.003735072;0.004966062;0.003209527;0.999975562
2024/05/03/12:53:25.443452;69650;1714766005;443083380;world;0.00071194;0.190224037;0.002362228;0.003825258;0.004679619;0.00333775;0.999976158
2024/05/03/12:53:25.443480;69652;1714766005;443126842;world;0.000667926;0.191514239;0.002362111;0.0046352;0.004784468;0.00346876;0.999971867
2024/05/03/12:53:25.463347;69653;1714766005;463040305;world;0.000834789;0.192387834;0.0024845;0.004279828;0.005661292;0.003328091;0.999969363
2024/05/03/12:53:25.493794;69654;1714766005;493402438;world;0.000946445;0.193320215;0.002542425;0.00400108;0.005755565;0.003216716;0.999970317
2024/05/03/12:53:25.493817;69655;1714766005;493435811;world;0.000776581;0.194244623;0.002378933;0.004208128;0.004631207;0.003515118;0.999974251
2024/05/03/12:53:25.533610;69656;1714766005;533287256;world;0.000959352;0.194818512;0.002370192;0.004656038;0.004882063;0.003322398;0.999971747
2024/05/03/12:53:25.533631;69657;1714766005;533325658;world;0.001202358;0.196354613;0.002195288;0.003354651;0.004592265;0.002620927;0.99998045
2024/05/03/12:53:25.543547;69658;1714766005;543240552;world;0.001213767;0.196596116;0.002143571;0.003031846;0.004174396;0.002500376;0.999983549
2024/05/03/12:53:25.553198;69659;1714766005;552886759;world;0.001142778;0.197415382;0.002162465;0.002431292;0.004156061;0.002682096;0.99998486
2024/05/03/12:53:25.573541;69660;1714766005;573266718;world;0.001162466;0.198356986;0.002193003;0.002502542;0.003965035;0.002748463;0.999985218
2024/05/03/12:53:25.593264;69661;1714766005;592950523;world;0.001197573;0.199369594;0.002195831;0.002748084;0.004067989;0.002706156;0.999984264
2024/05/03/12:53:25.603227;69662;1714766005;602886586;world;0.001228342;0.200357795;0.00225989;0.002667831;0.00371964;0.002597532;0.999986172
2024/05/03/12:53:25.633369;69663;1714766005;633017886;world;0.001223112;0.201260969;0.002241713;0.002612055;0.003553939;0.002298128;0.999987721
2024/05/03/12:53:25.633394;69664;1714766005;633055036;world;0.001164404;0.201788649;0.002224672;0.002346755;0.003417091;0.001946981;0.99998951
2024/05/03/12:53:25.653419;69665;1714766005;653047459;world;0.001308652;0.203243256;0.002234773;0.002093564;0.003261382;0.00113167;0.999991894
2024/05/03/12:53:25.663274;69666;1714766005;662967973;world;0.001542151;0.203760058;0.002263411;0.002530581;0.003432313;0.000359185;0.999990821
2024/05/03/12:53:25.693439;69667;1714766005;693025808;world;0.001299875;0.204863116;0.002191954;0.002259488;0.003081178;-8.29E-05;0.999992728
2024/05/03/12:53:25.703229;69668;1714766005;702930807;world;0.001223968;0.205725849;0.002165098;0.002386586;0.002863839;6.18E-05;0.999993086
2024/05/03/12:53:25.734039;69669;1714766005;733498161;world;0.001183489;0.206412524;0.002192069;0.002294476;0.003105721;0.000232903;0.99999249
2024/05/03/12:53:25.734069;69670;1714766005;733531895;world;0.001133411;0.207150072;0.00240312;0.002250679;0.003834583;0.000485469;0.999989986
2024/05/03/12:53:25.743422;69671;1714766005;743116391;world;0.00117983;0.207662538;0.002645148;0.002221202;0.004933762;0.002344989;0.999982655
2024/05/03/12:53:25.763151;69672;1714766005;762860436;world;0.001298139;0.208120495;0.00262353;0.002642086;0.004700322;0.002666686;0.99998188
2024/05/03/12:53:25.773607;69673;1714766005;773294547;world;0.001199634;0.208939791;0.002660639;0.003306126;0.004335635;0.003130537;0.999980211
2024/05/03/12:53:25.803415;69674;1714766005;803107245;world;0.001077728;0.209516719;0.002563287;0.003782342;0.004496954;0.00383966;0.999975443
2024/05/03/12:53:25.803427;69675;1714766005;803139526;world;0.001064736;0.210020542;0.002521086;0.004432836;0.004692113;0.003815197;0.999971867
2024/05/03/12:53:25.853503;69676;1714766005;853134323;world;0.001245338;0.21085903;0.00243892;0.004329353;0.004809254;0.003692813;0.999972224
2024/05/03/12:53:25.853523;69678;1714766005;853179177;world;0.001158852;0.212916389;0.002578121;0.004452753;0.003629191;0.003724474;0.999976635
2024/05/03/12:53:25.873262;69679;1714766005;872920327;world;0.001250114;0.214390248;0.002682658;0.00436169;0.003409109;0.004621399;0.999974012
2024/05/03/12:53:25.883285;69680;1714766005;882948504;world;0.001181569;0.215126336;0.002644584;0.00386823;0.00281995;0.004761806;0.999977231
2024/05/03/12:53:25.903568;69681;1714766005;903286468;world;0.001414492;0.216428161;0.00262799;0.003227207;0.002912455;0.004953314;0.999978304
2024/05/03/12:53:25.943455;69682;1714766005;943162771;world;0.001421584;0.217546567;0.002708798;0.002748509;0.002976867;0.004338367;0.999982357
2024/05/03/12:53:25.943486;69683;1714766005;943203728;world;0.001442019;0.217922881;0.00269913;0.002807162;0.003128605;0.004270008;0.999982119
2024/05/03/12:53:25.953203;69684;1714766005;952928423;world;0.00159061;0.218871549;0.002758278;0.002659382;0.003223728;0.003545402;0.99998498
2024/05/03/12:53:25.963625;69685;1714766005;963358642;world;0.001436111;0.21914649;0.002946325;0.002752419;0.003811108;0.003836875;0.999981642
2024/05/03/12:53:25.983274;69686;1714766005;982961365;world;0.0014566;0.219779909;0.003122902;0.003226088;0.004583193;0.004512207;0.999974132
2024/05/03/12:53:26.003587;69687;1714766006;3269589;world;0.00138936;0.220600709;0.003158018;0.003423156;0.004645287;0.004684746;0.999972463
2024/05/03/12:53:26.013552;69688;1714766006;13173968;world;0.001392938;0.221026853;0.003162341;0.003648415;0.004756772;0.004879387;0.999970198
2024/05/03/12:53:26.043704;69689;1714766006;43337996;world;0.001375394;0.222250924;0.003028206;0.004231201;0.004798238;0.005533516;0.999964237
2024/05/03/12:53:26.043712;69690;1714766006;43377600;world;0.001252584;0.223145485;0.002851935;0.004889156;0.004274091;0.005893169;0.999961615
2024/05/03/12:53:26.063310;69691;1714766006;62886088;world;0.001427029;0.224134177;0.002885553;0.004793291;0.004479823;0.006189607;0.99995935
2024/05/03/12:53:26.073854;69692;1714766006;73182530;world;0.001402346;0.224556476;0.002893642;0.004649034;0.004492417;0.006226309;0.999959707
2024/05/03/12:53:26.093396;69693;1714766006;92994657;world;0.001328322;0.225300044;0.002947393;0.004544292;0.004446174;0.00620307;0.999960542
2024/05/03/12:53:26.105186;69694;1714766006;103708765;world;0.001329799;0.22625114;0.002974356;0.004942707;0.004492743;0.006202567;0.999958515
2024/05/03/12:53:26.113545;69695;1714766006;113047984;world;0.00107104;0.226925552;0.003023581;0.004723324;0.003427604;0.005936308;0.999965429
2024/05/03/12:53:26.153311;69696;1714766006;152954172;world;0.001304371;0.228296056;0.002908912;0.003926978;0.002893088;0.005387193;0.999973655
2024/05/03/12:53:26.153339;69697;1714766006;152999247;world;0.00143449;0.229548335;0.002920276;0.003328068;0.002690234;0.004764579;0.999979496
2024/05/03/12:53:26.163932;69698;1714766006;163628702;world;0.001504507;0.230073988;0.002909476;0.002794792;0.002344478;0.004683351;0.999982357
2024/05/03/12:53:26.183424;69699;1714766006;183111299;world;0.001620412;0.231198445;0.003093995;0.002164548;0.002366239;0.004655699;0.999984026
2024/05/03/12:53:26.203654;69700;1714766006;202902313;world;0.001557431;0.231965557;0.003076899;0.002194053;0.002470593;0.004812535;0.999982953
2024/05/03/12:53:26.213144;69701;1714766006;212829548;world;0.001337962;0.232403353;0.003295655;0.002441255;0.003391809;0.005312266;0.999977231
2024/05/03/12:53:26.233318;69702;1714766006;233041535;world;0.001440119;0.233094215;0.003396301;0.002372117;0.003867889;0.005542014;0.99997437
2024/05/03/12:53:26.244971;69703;1714766006;244379467;world;0.00148719;0.233934373;0.003461059;0.002320467;0.003700518;0.005746251;0.999974012
2024/05/03/12:53:26.253547;69704;1714766006;253217884;world;0.001480905;0.234417513;0.003469751;0.002703492;0.003804279;0.00602773;0.999970913
2024/05/03/12:53:26.273243;69705;1714766006;272914171;world;0.001513629;0.235309184;0.00347755;0.002651417;0.003634607;0.006236152;0.999970436
2024/05/03/12:53:26.293546;69706;1714766006;293235651;world;0.001541905;0.236139745;0.003423533;0.002233206;0.003113981;0.005930472;0.999975085
2024/05/03/12:53:26.314160;69707;1714766006;313137514;world;0.001553821;0.237025544;0.00338645;0.002165625;0.002740273;0.005545239;0.999978542
2024/05/03/12:53:26.323281;69708;1714766006;323013765;world;0.001524743;0.238108784;0.003199827;0.002244039;0.002041105;0.004940484;0.999983191
2024/05/03/12:53:26.353785;69709;1714766006;353233298;world;0.001751274;0.23907508;0.003080313;0.00244087;0.001471246;0.004152687;0.999987364
2024/05/03/12:53:26.353798;69710;1714766006;353267412;world;0.001705918;0.240379944;0.003221933;0.003054994;0.002230418;0.002746691;0.999989152
2024/05/03/12:53:26.363526;69711;1714766006;363209397;world;0.001758594;0.240918815;0.003150832;0.003974053;0.002059744;0.002401848;0.999987125
2024/05/03/12:53:26.383663;69712;1714766006;383328698;world;0.001660585;0.241738677;0.003123572;0.003366796;0.001900009;0.002707426;0.999988914
2024/05/03/12:53:26.403603;69713;1714766006;403258784;world;0.001562648;0.242616415;0.003184612;0.002704105;0.00164679;0.003449738;0.999989033
2024/05/03/12:53:26.413305;69714;1714766006;413040292;world;0.001503348;0.243211061;0.003200192;0.002315188;0.001815736;0.004233118;0.999986768
2024/05/03/12:53:26.443377;69715;1714766006;443073980;world;0.001673479;0.243537828;0.003366797;0.002773668;0.00276977;0.005585365;0.999976754
2024/05/03/12:53:26.453470;69716;1714766006;452940171;world;0.001572188;0.24392733;0.003387442;0.002966477;0.002648557;0.006381058;0.999971747
2024/05/03/12:53:26.463631;69717;1714766006;462954752;world;0.001587639;0.244429648;0.003379515;0.004021075;0.00362496;0.007222298;0.99995935
2024/05/03/12:53:26.483383;69718;1714766006;482935424;world;0.001550361;0.2453852;0.003547921;0.003635967;0.004448735;0.00698734;0.999959111
2024/05/03/12:53:26.493693;69719;1714766006;493155290;world;0.001461245;0.246314779;0.003681684;0.00296351;0.004249623;0.006888648;0.999962926
2024/05/03/12:53:26.513655;69720;1714766006;513314427;world;0.001472294;0.246802986;0.003702742;0.002805384;0.004192585;0.006786075;0.999964237
2024/05/03/12:53:26.523152;69721;1714766006;522860968;world;0.001458034;0.247538507;0.003606585;0.002932388;0.003556247;0.005964865;0.999971628
2024/05/03/12:53:26.553354;69722;1714766006;552986615;world;0.001469068;0.248500943;0.00355562;0.002700161;0.002845225;0.00602695;0.999974132
