time;.header.seq;.header.stamp.secs;.header.stamp.nsecs;.header.frame_id;.pose.position.x;.pose.position.y;.pose.position.z;.pose.orientation.x;.pose.orientation.y;.pose.orientation.z;.pose.orientation.w
2024/05/03/12:49:08.743379;53288;1714765748;743068352;world;2.29E-05;2.04E-05;1.65E-05;5.09E-05;1.05E-05;-9.85E-05;1
2024/05/03/12:49:08.753204;53289;1714765748;752933395;world;2.78E-05;2.70E-06;3.14E-05;-2.19E-06;-9.93E-06;-3.60E-05;1
2024/05/03/12:49:08.773248;53290;1714765748;773009049;world;2.91E-05;1.01E-05;2.21E-05;-6.14E-05;-3.62E-06;-1.10E-05;1
2024/05/03/12:49:08.803363;53291;1714765748;802965497;world;2.31E-05;2.52E-05;1.02E-05;5.56E-06;-2.18E-05;-6.32E-05;1
2024/05/03/12:49:08.803401;53292;1714765748;803002857;world;7.34E-06;3.37E-05;1.72E-05;3.14E-05;3.21E-05;-0.000159255;1
2024/05/03/12:49:08.823634;53293;1714765748;823249180;world;1.70E-05;2.18E-05;2.69E-05;5.45E-05;-4.88E-06;-8.12E-05;1
2024/05/03/12:49:08.833428;53294;1714765748;833141616;world;3.06E-05;-2.95E-06;3.24E-05;-1.89E-05;2.59E-05;-4.15E-05;1
2024/05/03/12:49:08.854107;53295;1714765748;853041230;world;4.57E-05;2.12E-05;1.57E-05;-7.86E-05;8.37E-06;1.48E-05;1
2024/05/03/12:49:08.873632;53296;1714765748;873382472;world;3.43E-05;1.54E-05;1.18E-05;3.55E-05;-1.37E-06;1.17E-05;1
2024/05/03/12:49:08.883365;53297;1714765748;882986326;world;3.59E-05;3.43E-06;3.08E-05;-6.39E-05;3.55E-05;1.71E-05;1
2024/05/03/12:49:08.903370;53298;1714765748;903072870;world;2.23E-05;1.32E-05;2.23E-05;2.42E-05;4.22E-05;5.53E-06;1
2024/05/03/12:49:08.913453;53299;1714765748;913107992;world;3.54E-05;1.29E-05;1.73E-05;-9.89E-05;-1.81E-05;-1.13E-05;1
2024/05/03/12:49:08.933452;53300;1714765748;933087147;world;3.72E-05;6.82E-06;1.90E-05;4.09E-05;-6.65E-06;-1.28E-05;1
2024/05/03/12:49:08.943891;53301;1714765748;943680923;world;2.17E-05;2.18E-05;2.33E-05;3.73E-05;-3.42E-05;-7.35E-05;1
2024/05/03/12:49:08.973456;53302;1714765748;973153836;world;3.28E-05;1.84E-05;3.01E-05;3.17E-05;-2.95E-05;-5.75E-06;1
2024/05/03/12:49:08.973475;53303;1714765748;973190635;world;3.24E-05;1.39E-05;1.50E-05;-1.79E-05;1.25E-05;-2.26E-05;1
2024/05/03/12:49:08.994034;53304;1714765748;993133901;world;3.08E-05;-8.80E-06;9.41E-06;-1.57E-05;-7.69E-06;-4.05E-05;1
2024/05/03/12:49:09.003417;53305;1714765749;3131142;world;4.51E-05;-4.32E-05;3.14E-05;-8.65E-05;1.54E-05;0.00011062;1
2024/05/03/12:49:09.023213;53306;1714765749;22900564;world;3.22E-05;3.07E-06;2.42E-05;-1.67E-05;2.68E-05;-4.21E-05;1
2024/05/03/12:49:09.043356;53307;1714765749;43083058;world;3.98E-05;1.03E-05;3.32E-05;-9.66E-05;-4.72E-05;5.33E-05;1
2024/05/03/12:49:09.053377;53308;1714765749;53165909;world;2.87E-05;6.74E-06;1.90E-05;-1.15E-05;-5.21E-05;-7.07E-05;1
2024/05/03/12:49:09.083881;53309;1714765749;83520602;world;1.56E-05;2.29E-05;1.96E-05;4.74E-06;5.60E-06;-9.40E-05;1
2024/05/03/12:49:09.083907;53310;1714765749;83558363;world;3.23E-05;1.53E-05;2.91E-05;-7.60E-05;1.48E-05;7.28E-06;1
2024/05/03/12:49:09.103525;53311;1714765749;103313678;world;4.78E-05;1.04E-07;4.17E-05;-0.000118581;-3.75E-05;-1.97E-05;1
2024/05/03/12:49:09.113545;53312;1714765749;113337610;world;7.70E-06;2.96E-05;1.14E-05;7.29E-06;-2.49E-05;-0.000174249;1
2024/05/03/12:49:09.133401;53313;1714765749;133012955;world;4.46E-05;-2.90E-06;2.81E-05;-8.33E-05;5.76E-06;-5.05E-06;1
2024/05/03/12:49:09.153416;53314;1714765749;153099139;world;4.86E-05;2.71E-05;2.34E-05;-8.59E-05;-1.40E-05;5.46E-05;1
2024/05/03/12:49:09.163907;53315;1714765749;163347841;world;5.01E-05;3.82E-07;1.63E-05;-4.33E-05;-1.53E-05;2.21E-05;1
2024/05/03/12:49:09.183609;53316;1714765749;183144903;world;2.55E-05;9.94E-06;1.51E-05;-7.09E-05;3.02E-05;2.00E-06;1
2024/05/03/12:49:09.193191;53317;1714765749;193007583;world;3.28E-05;9.68E-06;2.71E-05;-0.000100485;1.63E-05;3.66E-05;1
2024/05/03/12:49:09.213357;53318;1714765749;213132189;world;2.69E-05;1.03E-05;3.54E-05;-4.96E-05;1.99E-05;-3.61E-05;1
2024/05/03/12:49:09.223734;53319;1714765749;223095457;world;1.45E-05;2.79E-05;3.72E-05;-5.56E-05;2.41E-05;-1.07E-05;1
2024/05/03/12:49:09.243561;53320;1714765749;243146926;world;5.05E-05;1.70E-05;3.40E-05;-6.29E-05;5.72E-06;-3.77E-05;1
2024/05/03/12:49:09.253574;53321;1714765749;253257069;world;3.76E-05;1.95E-05;3.00E-05;-0.000104338;-7.33E-06;1.66E-05;1
2024/05/03/12:49:09.283511;53322;1714765749;283125533;world;2.65E-05;1.01E-05;4.08E-05;-4.11E-05;2.93E-05;1.45E-05;1
2024/05/03/12:49:09.293276;53323;1714765749;292923771;world;4.39E-05;2.52E-05;3.74E-05;-3.04E-05;-1.04E-05;-2.86E-05;1
2024/05/03/12:49:09.313337;53324;1714765749;313130430;world;4.26E-05;3.71E-05;2.68E-05;2.33E-05;-1.74E-05;-1.92E-05;1
2024/05/03/12:49:09.323339;53325;1714765749;323123555;world;4.95E-05;2.67E-05;2.59E-05;-8.31E-05;1.31E-06;-4.09E-05;1
2024/05/03/12:49:09.333249;53326;1714765749;332843235;world;4.30E-05;2.04E-06;2.76E-05;-7.67E-05;-3.27E-05;3.08E-05;1
2024/05/03/12:49:09.353322;53327;1714765749;353080673;world;4.36E-05;1.51E-06;3.38E-05;-2.86E-05;7.41E-07;3.64E-05;1
2024/05/03/12:49:09.363302;53328;1714765749;363035514;world;5.06E-05;3.79E-05;3.27E-05;-5.49E-05;-2.18E-05;3.56E-05;1
2024/05/03/12:49:09.383811;53329;1714765749;383420940;world;4.31E-05;1.60E-05;1.65E-05;1.71E-06;-4.50E-05;3.64E-05;1
2024/05/03/12:49:09.393197;53330;1714765749;392902194;world;4.36E-05;1.59E-05;3.32E-05;-8.11E-05;-2.36E-05;8.89E-05;1
2024/05/03/12:49:09.423259;53331;1714765749;423003082;world;3.71E-05;1.83E-05;3.42E-05;-2.01E-05;-7.29E-05;2.94E-05;1
2024/05/03/12:49:09.433173;53332;1714765749;432926686;world;3.58E-05;2.56E-05;3.16E-05;-8.46E-05;-8.14E-05;-5.17E-06;1
2024/05/03/12:49:09.444085;53333;1714765749;443797213;world;3.77E-05;3.16E-05;2.22E-05;-6.43E-05;-5.22E-05;2.29E-05;1
2024/05/03/12:49:09.463558;53334;1714765749;463247917;world;4.20E-05;2.96E-05;3.50E-05;-4.54E-05;8.29E-06;2.63E-05;1
2024/05/03/12:49:09.483624;53335;1714765749;483230131;world;5.87E-05;2.76E-05;3.49E-05;-0.000125315;-4.60E-05;-1.24E-05;1
2024/05/03/12:49:09.493608;53336;1714765749;493007025;world;4.90E-05;2.06E-05;3.42E-05;-0.00011242;-4.06E-05;-8.00E-06;1
2024/05/03/12:49:09.523292;53337;1714765749;522956139;world;5.97E-05;2.56E-06;3.09E-05;-8.37E-05;-5.59E-05;0.000110612;1
2024/05/03/12:49:09.523319;53338;1714765749;522992036;world;2.29E-05;5.35E-05;4.49E-05;4.11E-06;-7.09E-05;-0.00012603;1
2024/05/03/12:49:09.543550;53339;1714765749;543117403;world;5.61E-05;0.00042179;5.90E-05;-3.84E-05;-5.81E-05;0.000137013;1
2024/05/03/12:49:09.553271;53340;1714765749;552966026;world;0.00013129;0.00132367;0.000136245;-5.34E-06;0.00017768;0.000687895;0.999999762
2024/05/03/12:49:09.573492;53341;1714765749;573302969;world;0.000201073;0.002004344;0.000153436;-8.55E-06;0.000395738;0.000897222;0.999999523
2024/05/03/12:49:09.593372;53342;1714765749;593053733;world;0.0002518;0.004376546;0.000388541;0.000937658;0.00206677;0.001545588;0.999996305
2024/05/03/12:49:09.633500;53343;1714765749;633076584;world;0.000199024;0.006345777;0.000267883;0.000783037;0.001233479;0.001215826;0.999998212
2024/05/03/12:49:09.643454;53344;1714765749;643166509;world;0.00028138;0.00748625;0.000180436;0.00041089;0.000604496;0.001064407;0.999999166
2024/05/03/12:49:09.643479;53346;1714765749;643203328;world;0.000132158;0.011976114;0.000198643;0.000567666;-0.00064398;-0.000445968;0.999999523
2024/05/03/12:49:09.663410;53347;1714765749;663079769;world;0.000260435;0.013844039;0.000317559;-3.35E-05;-0.000530104;0.000663599;0.999999642
2024/05/03/12:49:09.693264;53348;1714765749;693019467;world;0.00025475;0.01485643;0.000329826;1.22E-05;-0.000257798;0.000918803;0.999999523
2024/05/03/12:49:09.693295;53349;1714765749;693050445;world;0.000381794;0.017735532;0.000524096;0.001215568;0.00184325;0.002197956;0.999995232
2024/05/03/12:49:09.733543;53350;1714765749;733246427;world;0.000332266;0.019608865;0.000648661;0.001802182;0.002109488;0.002654778;0.999992609
2024/05/03/12:49:09.733568;53351;1714765749;733288986;world;0.000397313;0.02065368;0.00067017;0.001763781;0.00201441;0.002648714;0.999992967
2024/05/03/12:49:09.743601;53352;1714765749;743285858;world;0.000421088;0.022742905;0.000567988;0.001302265;0.001051736;0.002386721;0.999995828
2024/05/03/12:49:09.753395;53353;1714765749;753192859;world;0.000352139;0.024976291;0.000742868;0.00155471;0.001482155;0.002250913;0.999995232
2024/05/03/12:49:09.773511;53354;1714765749;773168467;world;6.70E-05;0.027333945;0.000584797;0.000389897;0.000482036;0.001775182;0.999998212
2024/05/03/12:49:09.793388;53355;1714765749;793031763;world;0.000100981;0.029101392;0.000596792;0.000673442;0.000889112;0.002436843;0.999996424
2024/05/03/12:49:09.803361;53356;1714765749;803081544;world;0.000117779;0.029940523;0.000616048;0.001069538;0.001051682;0.002646054;0.999995351
2024/05/03/12:49:09.823527;53357;1714765749;823209271;world;0.000335783;0.032392498;0.000715554;0.001741816;0.001332505;0.003120648;0.999992728
2024/05/03/12:49:09.833283;53358;1714765749;833024807;world;0.000391966;0.033180222;0.000720174;0.001613126;0.001292933;0.003247354;0.999992609
2024/05/03/12:49:09.853615;53359;1714765749;853286429;world;0.000420332;0.03481723;0.000772009;0.001631915;0.001357689;0.003193148;0.999992728
2024/05/03/12:49:09.873189;53360;1714765749;872904636;world;0.000292524;0.036338918;0.000907864;0.001511913;0.00173352;0.002735615;0.999993682
2024/05/03/12:49:09.883251;53361;1714765749;882934439;world;0.000266666;0.037497286;0.000809724;0.001843405;0.001607288;0.002995907;0.999992609
2024/05/03/12:49:09.903592;53362;1714765749;903235815;world;0.000303052;0.03880205;0.000580799;0.001443029;0.001117062;0.002910477;0.999994159
2024/05/03/12:49:09.923379;53363;1714765749;923009505;world;0.000159584;0.040043965;0.000605345;0.001189725;0.000803581;0.002642147;0.99999547
2024/05/03/12:49:09.933264;53364;1714765749;932895868;world;0.000185063;0.040987138;0.000678465;0.001157103;0.000962409;0.002768757;0.999995112
2024/05/03/12:49:09.954083;53365;1714765749;953218387;world;0.000216914;0.041968122;0.000725638;0.001271301;0.001198008;0.002907337;0.999994278
2024/05/03/12:49:09.963813;53366;1714765749;963434455;world;0.000227261;0.042420536;0.000728444;0.001380061;0.001233622;0.002938716;0.99999404
2024/05/03/12:49:09.983499;53367;1714765749;983161839;world;0.00046798;0.043815009;0.000680994;0.001143815;0.00047208;0.002812211;0.999995351
2024/05/03/12:49:10.003622;53368;1714765750;3188230;world;0.000363799;0.044450644;0.000513125;0.001043693;-0.00038352;0.001921913;0.999997616
2024/05/03/12:49:10.003653;53369;1714765750;3223606;world;0.000151139;0.045402754;0.000367742;0.000849956;-0.000947794;0.000917723;0.999998808
2024/05/03/12:49:10.033484;53370;1714765750;33129930;world;0.00014033;0.046019431;0.000411465;0.000824522;-0.000911641;0.000987207;0.999998808
2024/05/03/12:49:10.043713;53371;1714765750;43062431;world;8.61E-05;0.046738565;0.000476489;0.00062774;-0.000810876;0.000622487;0.999999285
2024/05/03/12:49:10.053304;53372;1714765750;52832487;world;0.000246315;0.047256865;0.000545846;0.00053368;-0.000455353;0.001048316;0.999999285
2024/05/03/12:49:10.073562;53373;1714765750;73058392;world;0.000262683;0.047524646;0.000520802;0.000539553;-0.000562864;0.001254916;0.999998927
2024/05/03/12:49:10.083796;53374;1714765750;83319578;world;0.00028844;0.04802794;0.000592111;0.000563568;-0.000368234;0.001378765;0.999998808
2024/05/03/12:49:10.103371;53375;1714765750;103075254;world;0.000540845;0.048220292;0.000788539;0.001314653;0.00104555;0.002983103;0.999994159
2024/05/03/12:49:10.124176;53376;1714765750;123293206;world;0.000439771;0.048668437;0.000913218;0.001801826;0.001780341;0.003388307;0.999991059
2024/05/03/12:49:10.133817;53377;1714765750;133405230;world;0.000416959;0.049469795;0.000934241;0.001433091;0.001905684;0.002879603;0.999993086
2024/05/03/12:49:10.153310;53378;1714765750;152982974;world;0.000420092;0.050193954;0.000934445;0.001144903;0.00181254;0.00274386;0.99999392
2024/05/03/12:49:10.163382;53379;1714765750;162998726;world;0.000435252;0.050780743;0.000969855;0.001038813;0.001808273;0.002517784;0.999994636
2024/05/03/12:49:10.183298;53380;1714765750;182980548;world;0.000434763;0.051389713;0.000988275;0.001061747;0.001806641;0.002412767;0.999994874
2024/05/03/12:49:10.204369;53381;1714765750;203400477;world;0.000436362;0.051680613;0.001008712;0.001121974;0.001930945;0.002478203;0.999994516
2024/05/03/12:49:10.213332;53382;1714765750;212934172;world;0.00041135;0.052051485;0.000866052;0.00161938;0.001575544;0.003307607;0.999992013
2024/05/03/12:49:10.233830;53383;1714765750;233312332;world;0.000241803;0.052878268;0.000795649;0.001260963;0.000744508;0.002781032;0.999995112
2024/05/03/12:49:10.243538;53384;1714765750;243218913;world;0.000225171;0.053610243;0.000732953;0.001418054;0.00081761;0.002845296;0.999994636
2024/05/03/12:49:10.253425;53385;1714765750;253156693;world;0.000303052;0.054274082;0.000750341;0.001576649;0.001042323;0.002903537;0.99999404
2024/05/03/12:49:10.273472;53386;1714765750;273157348;world;0.000330951;0.055190649;0.00062528;0.001111166;0.000184196;0.002322057;0.999996662
2024/05/03/12:49:10.293567;53387;1714765750;293299557;world;0.00019118;0.056311939;0.000538382;0.000789699;-0.000519887;0.000917866;0.999999166
2024/05/03/12:49:10.303512;53388;1714765750;303194958;world;0.000184416;0.057000875;0.000610024;0.00079373;-0.000420557;0.000987514;0.999999166
2024/05/03/12:49:10.323443;53389;1714765750;323112776;world;0.000206117;0.057355262;0.00065516;0.000853126;-0.000432004;0.000918767;0.999999166
2024/05/03/12:49:10.363247;53390;1714765750;362955027;world;0.000243474;0.058187574;0.000675736;0.000506384;-0.000467612;0.000864969;0.999999404
2024/05/03/12:49:10.363272;53392;1714765750;363000552;world;0.000318061;0.059754241;0.000708466;0.000332134;-0.000199325;0.001349792;0.999999046
2024/05/03/12:49:10.383882;53393;1714765750;383328899;world;0.000271086;0.060474209;0.000606175;0.000547954;-0.000442355;0.00155538;0.999998569
2024/05/03/12:49:10.413641;53394;1714765750;413038347;world;0.000554275;0.060905345;0.000852409;0.001260133;0.001324343;0.003306446;0.999992847
2024/05/03/12:49:10.423260;53395;1714765750;422964844;world;0.000426616;0.061802931;0.00097497;0.001496638;0.001732768;0.002993029;0.999992967
2024/05/03/12:49:10.433240;53396;1714765750;432922612;world;0.000436807;0.062682472;0.001065088;0.001599733;0.001978429;0.00297535;0.999992371
2024/05/03/12:49:10.444710;53397;1714765750;444379095;world;0.00043553;0.063142687;0.00105658;0.001603426;0.00194909;0.002912021;0.999992609
2024/05/03/12:49:10.463657;53398;1714765750;463347145;world;0.000493855;0.064049438;0.001080594;0.001634762;0.002214487;0.002974486;0.999991775
2024/05/03/12:49:10.473257;53399;1714765750;472968239;world;0.000416197;0.06479001;0.001028968;0.001812413;0.00171004;0.003314585;0.999991417
2024/05/03/12:49:10.493268;53400;1714765750;492949881;world;0.000356363;0.066209242;0.000645813;0.000507802;-0.00060636;0.001579129;0.99999845
2024/05/03/12:49:10.513328;53401;1714765750;513040280;world;0.000364227;0.067258082;0.000599787;0.000850386;-0.000612637;0.001156704;0.999998808
2024/05/03/12:49:10.523270;53402;1714765750;522986128;world;0.000297545;0.068150118;0.000591899;0.000865865;-0.000935281;0.001053517;0.999998689
2024/05/03/12:49:10.543605;53403;1714765750;543226953;world;0.00035608;0.068977609;0.000759927;0.0006821;-0.000510429;0.001432051;0.999998689
2024/05/03/12:49:10.553438;53404;1714765750;553088821;world;0.000508457;0.069305412;0.000926778;0.001248086;0.000609268;0.003239046;0.999993801
2024/05/03/12:49:10.573695;53405;1714765750;573315524;world;0.000423603;0.070342846;0.000948579;0.000967;0.000464177;0.002913051;0.999995232
2024/05/03/12:49:10.583647;53406;1714765750;583387160;world;0.000410244;0.070854783;0.000918954;0.000665003;0.000142646;0.002791047;0.999995947
2024/05/03/12:49:10.613649;53407;1714765750;613341332;world;0.000339553;0.0718555;0.000878835;0.000217726;-9.46E-05;0.00234167;0.999997258
2024/05/03/12:49:10.623501;53408;1714765750;623185297;world;0.00032628;0.072629638;0.000858424;0.000400236;0.000375883;0.002755978;0.999996066
2024/05/03/12:49:10.653638;53409;1714765750;653272601;world;0.000383385;0.073386297;0.00091702;0.000834447;0.00077756;0.00323702;0.999994159
2024/05/03/12:49:10.653667;53410;1714765750;653307637;world;0.000393152;0.074226163;0.000981431;0.001140647;0.00093443;0.003214239;0.999993801
2024/05/03/12:49:10.663419;53411;1714765750;663109021;world;0.0002717;0.075221956;0.00095039;0.000969771;0.000653799;0.002982977;0.999994874
2024/05/03/12:49:10.683413;53412;1714765750;683099465;world;0.00024754;0.076129466;0.000970625;0.001005722;0.00066276;0.002860578;0.999995232
2024/05/03/12:49:10.693365;53413;1714765750;693063406;world;0.000480276;0.076349095;0.001050047;0.001668779;0.00142074;0.00328624;0.999992251
2024/05/03/12:49:10.713155;53414;1714765750;712866628;world;0.000426475;0.077605091;0.000991284;0.001274075;0.000415166;0.003201513;0.99999404
2024/05/03/12:49:10.734030;53415;1714765750;733326332;world;0.000261249;0.078855999;0.000848936;0.000790327;-0.000490048;0.001669828;0.999998212
2024/05/03/12:49:10.743693;53416;1714765750;743376562;world;0.000280196;0.079385228;0.000814886;0.000837486;-0.000577776;0.001271681;0.999998689
2024/05/03/12:49:10.753609;53417;1714765750;753318851;world;0.000274099;0.080304109;0.000864876;0.000804685;-0.000576718;0.001236518;0.999998808
2024/05/03/12:49:10.773530;53418;1714765750;772912784;world;0.000631277;0.080647066;0.001051259;0.001142186;0.000467681;0.003108907;0.999994397
2024/05/03/12:49:10.793580;53419;1714765750;793237355;world;0.000543585;0.081483938;0.001146492;0.001867397;0.001242517;0.003278935;0.999992132
2024/05/03/12:49:10.803775;53420;1714765750;803492950;world;0.000453701;0.082347393;0.001165876;0.001847277;0.001349331;0.003307687;0.999991894
2024/05/03/12:49:10.823331;53421;1714765750;823028740;world;0.000471268;0.08280924;0.001181805;0.001662787;0.001383719;0.003226848;0.99999249
2024/05/03/12:49:10.843566;53422;1714765750;843271261;world;0.000517021;0.083720356;0.001214171;0.001473455;0.001445817;0.003066111;0.999993205
2024/05/03/12:49:10.853883;53423;1714765750;853386674;world;0.000553102;0.0845384;0.001247293;0.001245405;0.001709524;0.003098476;0.999992967
2024/05/03/12:49:10.863235;53424;1714765750;862915548;world;0.00033946;0.085596062;0.001041113;0.000520252;0.000197048;0.002590991;0.999996543
2024/05/03/12:49:10.883341;53425;1714765750;883021007;world;0.000438549;0.086253159;0.001156435;0.00083343;0.000732062;0.0031938;0.999994278
2024/05/03/12:49:10.893380;53426;1714765750;893003601;world;0.000493078;0.086940959;0.001216613;0.001621746;0.001525742;0.003477368;0.999991536
2024/05/03/12:49:10.923601;53427;1714765750;923304524;world;0.00049999;0.087353766;0.001226782;0.001748053;0.001562451;0.003548289;0.99999094
2024/05/03/12:49:10.933346;53428;1714765750;933031801;world;0.000483345;0.088227667;0.001272174;0.001811071;0.001580342;0.003301742;0.999991655
2024/05/03/12:49:10.973917;53429;1714765750;973612473;world;0.00050243;0.089502573;0.001152211;0.0015937;0.000757301;0.003302198;0.999992967
2024/05/03/12:49:10.973926;53431;1714765750;973655844;world;0.000429271;0.091171816;0.00111927;0.001033546;-0.00012889;0.002023472;0.999997497
2024/05/03/12:49:10.993459;53432;1714765750;993144760;world;0.000417091;0.091929495;0.001133412;0.000774928;-0.000328199;0.003046239;0.999994993
2024/05/03/12:49:11.013214;53433;1714765751;12914283;world;0.000444612;0.092817098;0.001108022;0.00041602;-1.32E-05;0.003250481;0.999994636
2024/05/03/12:49:11.023620;53434;1714765751;23360235;world;0.000598611;0.093407124;0.001203532;0.001138179;0.000972562;0.003890992;0.999991357
2024/05/03/12:49:11.063533;53435;1714765751;63231319;world;0.000474902;0.094202861;0.00131652;0.00170517;0.001781363;0.003861258;0.99998951
2024/05/03/12:49:11.063541;53436;1714765751;63266184;world;0.000457248;0.094885796;0.001259766;0.001799821;0.001872524;0.00340961;0.999990821
2024/05/03/12:49:11.073196;53437;1714765751;72900485;world;0.000483282;0.0953141;0.001242299;0.001738232;0.001857529;0.003243696;0.999991536
2024/05/03/12:49:11.083458;53438;1714765751;83168283;world;0.000525074;0.096250631;0.001282025;0.001380594;0.001656939;0.00319878;0.999992609
2024/05/03/12:49:11.103422;53439;1714765751;103158850;world;0.00055651;0.097195998;0.001351799;0.001362779;0.001628946;0.002976937;0.999993324
2024/05/03/12:49:11.123257;53440;1714765751;122942197;world;0.000565853;0.097886451;0.001301877;0.001417748;0.001065752;0.00347234;0.999992371
2024/05/03/12:49:11.133214;53441;1714765751;132904343;world;0.000544574;0.098761879;0.00125699;0.001297601;0.000862766;0.00342099;0.999992967
2024/05/03/12:49:11.163532;53442;1714765751;163230242;world;0.000520857;0.09955059;0.001324014;0.001538081;0.001102839;0.003343467;0.999992609
2024/05/03/12:49:11.163556;53443;1714765751;163275186;world;0.000566697;0.100402296;0.001369337;0.001888491;0.001283391;0.003654945;0.999990702
2024/05/03/12:49:11.183806;53444;1714765751;183242439;world;0.000700818;0.101269685;0.001287293;0.001665895;0.000992745;0.003661813;0.999991417
2024/05/03/12:49:11.193295;53445;1714765751;192971946;world;0.000549132;0.102464244;0.00114098;0.000905077;-3.80E-05;0.001800611;0.999997973
2024/05/03/12:49:11.233483;53446;1714765751;233176711;world;0.000406008;0.103517488;0.001157874;0.000533918;-0.000118304;0.001119268;0.999999285
2024/05/03/12:49:11.233509;53447;1714765751;233215023;world;0.000458075;0.103921808;0.001130247;0.000500961;5.33E-05;0.001705609;0.99999845
2024/05/03/12:49:11.244025;53448;1714765751;243699213;world;0.000530804;0.104809321;0.001163503;0.000674865;0.000113709;0.002726757;0.999996066
2024/05/03/12:49:11.283603;53449;1714765751;283292962;world;0.00056419;0.105549939;0.00115747;0.00067051;0.000162195;0.003211104;0.999994636
2024/05/03/12:49:11.283611;53450;1714765751;283329721;world;0.000712721;0.106186941;0.001267462;0.00093068;0.001195672;0.003949463;0.999991059
2024/05/03/12:49:11.293298;53451;1714765751;292961184;world;0.000651136;0.106940806;0.001388316;0.001296546;0.001723587;0.004022964;0.999989629
2024/05/03/12:49:11.303362;53452;1714765751;303080025;world;0.000640413;0.10773132;0.001425388;0.001424063;0.00170359;0.004024843;0.99998951
2024/05/03/12:49:11.334672;53453;1714765751;334023289;world;0.000660563;0.108546779;0.001420411;0.00145839;0.001652116;0.003938468;0.999989867
2024/05/03/12:49:11.334697;53454;1714765751;334064697;world;0.000608768;0.109378792;0.001418439;0.001659666;0.001645674;0.003784731;0.999990106
2024/05/03/12:49:11.363751;53455;1714765751;363482668;world;0.000660096;0.110252947;0.001474369;0.001781157;0.001708766;0.003777249;0.999989867
2024/05/03/12:49:11.363776;53456;1714765751;363545275;world;0.000678076;0.11067012;0.001478715;0.00190407;0.001898841;0.003781522;0.999989271
2024/05/03/12:49:11.384242;53457;1714765751;383727588;world;0.000698;0.111391991;0.001458668;0.00223215;0.001929073;0.003954171;0.999987841
2024/05/03/12:49:11.393963;53458;1714765751;393708990;world;0.000826122;0.1123318;0.001396503;0.001803681;0.001377474;0.003826343;0.999990106
2024/05/03/12:49:11.433320;53459;1714765751;433042896;world;0.000525666;0.113781713;0.00113443;0.000624132;-0.000646889;0.001763248;0.999998093
2024/05/03/12:49:11.433351;53460;1714765751;433080617;world;0.000512622;0.114720449;0.001178301;0.00067503;-0.000278839;0.001715283;0.999998331
2024/05/03/12:49:11.443445;53461;1714765751;443197336;world;0.000519823;0.115102381;0.001199981;0.000539606;-0.000269408;0.001855689;0.999998093
2024/05/03/12:49:11.473680;53462;1714765751;473252188;world;0.000559936;0.115979344;0.00123408;0.000402457;0.000164706;0.001773964;0.999998331
2024/05/03/12:49:11.473713;53463;1714765751;473293135;world;0.000644123;0.116737753;0.001279517;0.000262966;0.000214489;0.002400053;0.999997139
2024/05/03/12:49:11.493616;53464;1714765751;493088064;world;0.000711307;0.117495954;0.001276719;0.000206666;0.000420382;0.003009187;0.999995351
2024/05/03/12:49:11.503373;53465;1714765751;503120723;world;0.000768345;0.118384875;0.001289733;0.00061848;0.00061773;0.002859321;0.999995589
2024/05/03/12:49:11.523595;53466;1714765751;523216675;world;0.000768308;0.119199723;0.001333775;0.000712792;0.000767423;0.002883145;0.999995351
2024/05/03/12:49:11.543741;53467;1714765751;543319331;world;0.000804767;0.120013125;0.001362824;0.000944815;0.000796397;0.00301731;0.999994755
2024/05/03/12:49:11.573594;53468;1714765751;573105636;world;0.000945129;0.120580018;0.001534119;0.001404061;0.001774318;0.003653941;0.999990821
2024/05/03/12:49:11.573629;53469;1714765751;573322061;world;0.000887111;0.120974064;0.001603403;0.001464378;0.002104715;0.003776981;0.999989629
2024/05/03/12:49:11.583252;53470;1714765751;582976575;world;0.000882922;0.121832594;0.001646949;0.001564801;0.002354218;0.003870635;0.999988556
2024/05/03/12:49:11.603137;53471;1714765751;602905344;world;0.000929764;0.122702703;0.001679272;0.001585188;0.002259537;0.003987821;0.999988317
2024/05/03/12:49:11.613299;53472;1714765751;613021609;world;0.000944741;0.123508006;0.001723548;0.001653243;0.002385675;0.003934458;0.999988079
2024/05/03/12:49:11.633314;53473;1714765751;632930972;world;0.000917096;0.1243186;0.001724121;0.001740702;0.002248109;0.00381811;0.999988675
2024/05/03/12:49:11.643283;53474;1714765751;642923604;world;0.000843303;0.12545155;0.001464698;0.000567459;0.000737865;0.003086917;0.999994874
2024/05/03/12:49:11.673590;53475;1714765751;673323229;world;0.000686717;0.12671712;0.001346537;0.000465867;0.000281536;0.001992628;0.999997854
2024/05/03/12:49:11.683438;53476;1714765751;683119768;world;0.000673402;0.12748462;0.001408676;0.000379503;0.000402672;0.002264864;0.999997258
2024/05/03/12:49:11.703684;53477;1714765751;703413933;world;0.001040762;0.127893522;0.001539263;0.000412487;0.001123587;0.003596947;0.999992847
2024/05/03/12:49:11.713482;53478;1714765751;713186694;world;0.000989377;0.128665119;0.001620381;0.001076533;0.002399558;0.003922022;0.999988914
2024/05/03/12:49:11.723534;53479;1714765751;723117600;world;0.000906561;0.129080579;0.001695944;0.001382169;0.002527208;0.004078418;0.999987602
2024/05/03/12:49:11.743436;53480;1714765751;743110862;world;0.00084687;0.129973844;0.001711213;0.001453879;0.00223073;0.003880261;0.999988914
2024/05/03/12:49:11.773306;53481;1714765751;773013629;world;0.00075594;0.1309302;0.001604863;0.000749177;0.001041886;0.003445662;0.999993324
2024/05/03/12:49:11.773334;53482;1714765751;773048915;world;0.000706512;0.131883398;0.001619323;0.000710586;0.001142579;0.002920674;0.999994874
2024/05/03/12:49:11.793611;53483;1714765751;793160237;world;0.00069567;0.132567197;0.001667039;0.000973725;0.001260316;0.003210774;0.999993563
2024/05/03/12:49:11.803348;53484;1714765751;803158621;world;0.000738908;0.132952869;0.001703996;0.000997648;0.001378145;0.003389226;0.999992847
2024/05/03/12:49:11.813853;53485;1714765751;813415988;world;0.00078892;0.133740216;0.001674151;0.001188195;0.001474388;0.003462627;0.999992251
2024/05/03/12:49:11.843907;53486;1714765751;843473789;world;0.00080245;0.134535402;0.0016986;0.001013417;0.001679961;0.003341789;0.99999249
2024/05/03/12:49:11.853325;53487;1714765751;853018083;world;0.000951584;0.135283619;0.00176331;0.001328173;0.001970005;0.003666168;0.999990463
2024/05/03/12:49:11.883204;53488;1714765751;882871626;world;0.001005471;0.136165291;0.00174173;0.001096389;0.001739368;0.00377841;0.999990821
2024/05/03/12:49:11.883231;53489;1714765751;882906902;world;0.000939665;0.137389287;0.001606968;0.000449227;0.000937301;0.002962857;0.999995112
2024/05/03/12:49:11.893425;53490;1714765751;893144235;world;0.000905152;0.138403028;0.001622813;0.000448197;0.000906033;0.002260898;0.99999702
2024/05/03/12:49:11.923217;53491;1714765751;922942004;world;0.000926783;0.139253438;0.001644345;0.000239325;0.001068237;0.002665131;0.999995828
2024/05/03/12:49:11.933508;53492;1714765751;933148538;world;0.001175828;0.139706165;0.001734952;0.000573849;0.00153632;0.003750539;0.999991655
2024/05/03/12:49:11.953239;53493;1714765751;952937565;world;0.001109568;0.140569031;0.001944768;0.001043875;0.002893621;0.003708522;0.999988437
2024/05/03/12:49:11.963659;53494;1714765751;963413104;world;0.000969455;0.141307399;0.001922831;0.001220775;0.002380472;0.003931354;0.999988675
2024/05/03/12:49:11.993210;53495;1714765751;992891976;world;0.000975419;0.14171122;0.001928863;0.001383264;0.002383023;0.003968791;0.999988317
2024/05/03/12:49:11.993240;53496;1714765751;992925459;world;0.000973128;0.142512545;0.001999823;0.001320184;0.002597179;0.003858888;0.999988317
2024/05/03/12:49:12.003465;53497;1714765752;3167380;world;0.000931257;0.143342838;0.002051792;0.001006631;0.002371702;0.003750085;0.999989629
2024/05/03/12:49:12.023477;53498;1714765752;23176530;world;0.000973534;0.14415656;0.002061767;0.001126923;0.002396607;0.003891558;0.999988914
2024/05/03/12:49:12.044080;53499;1714765752;43589996;world;0.000884982;0.145056471;0.002051742;0.001257894;0.002095061;0.003852223;0.999989629
2024/05/03/12:49:12.053426;53500;1714765752;53048449;world;0.000873569;0.145492509;0.002020003;0.001321201;0.001885225;0.003802398;0.999990106
2024/05/03/12:49:12.103517;53501;1714765752;103188334;world;0.000832548;0.146235585;0.002050092;0.001614164;0.001728099;0.003726808;0.999990344
2024/05/03/12:49:12.103542;53503;1714765752;103247104;world;0.000990683;0.147990867;0.001990277;0.001627727;0.00190987;0.003792441;0.999989748
2024/05/03/12:49:12.113336;53504;1714765752;112966786;world;0.000843892;0.14911373;0.001792141;0.000564898;0.000378422;0.003279669;0.999994397
2024/05/03/12:49:12.133774;53505;1714765752;133394922;world;0.000770731;0.150225073;0.001809272;0.000536787;0.000618199;0.002432448;0.999996781
2024/05/03/12:49:12.153608;53506;1714765752;153324773;world;0.000783534;0.150997758;0.001835161;0.000530613;0.00091348;0.002732944;0.999995708
2024/05/03/12:49:12.163474;53507;1714765752;163173046;world;0.000945289;0.151596159;0.001859845;0.0007139;0.001121811;0.003661617;0.99999249
2024/05/03/12:49:12.184187;53508;1714765752;183323241;world;0.001049511;0.152237833;0.002055101;0.00170194;0.002620319;0.004034313;0.999987006
2024/05/03/12:49:12.203665;53509;1714765752;203373237;world;0.000912154;0.153026253;0.001988879;0.001920186;0.002365294;0.004134598;0.999986887
2024/05/03/12:49:12.213275;53510;1714765752;212966502;world;0.00095094;0.153849497;0.002047095;0.001889419;0.001907138;0.004053918;0.999988198
2024/05/03/12:49:12.224192;53511;1714765752;223313970;world;0.000957705;0.154220819;0.00208962;0.001945317;0.001987822;0.004006631;0.999988079
2024/05/03/12:49:12.253626;53512;1714765752;253320443;world;0.000900652;0.15501827;0.002159004;0.002010479;0.002003071;0.00386099;0.999988556
2024/05/03/12:49:12.263342;53513;1714765752;263048770;world;0.000910562;0.155815214;0.002210617;0.002095028;0.002026055;0.004035694;0.999987602
2024/05/03/12:49:12.294042;53514;1714765752;293741777;world;0.000994628;0.156638727;0.002220458;0.002349369;0.002263298;0.004213307;0.999985814
2024/05/03/12:49:12.294072;53515;1714765752;293794907;world;0.000922512;0.157446772;0.002204845;0.002312059;0.00181834;0.00412258;0.999987245
2024/05/03/12:49:12.303513;53516;1714765752;303177649;world;0.00084584;0.158393756;0.002130372;0.002225801;0.001813747;0.004048308;0.999987721
2024/05/03/12:49:12.324008;53517;1714765752;323679079;world;0.000866842;0.158823088;0.002145261;0.002252108;0.002034174;0.004056022;0.999987245
2024/05/03/12:49:12.334052;53518;1714765752;332886222;world;0.001036959;0.159706429;0.002120605;0.002082922;0.00176958;0.004119818;0.999987841
2024/05/03/12:49:12.353527;53519;1714765752;352941771;world;0.000953032;0.160832509;0.001930847;0.000929043;0.000282579;0.003557822;0.999993205
2024/05/03/12:49:12.363592;53520;1714765752;363359158;world;0.000785846;0.161897138;0.001919875;0.000997084;0.000269547;0.002649229;0.999995947
2024/05/03/12:49:12.393393;53521;1714765752;392987702;world;0.000785291;0.162725404;0.001973219;0.000914652;0.000414611;0.002820692;0.999995589
2024/05/03/12:49:12.393418;53522;1714765752;393021435;world;0.000803151;0.163537875;0.002023361;0.000921466;0.000603758;0.002984531;0.999994993
2024/05/03/12:49:12.413486;53523;1714765752;413171110;world;0.000860522;0.164266601;0.002077116;0.000870501;0.000779146;0.003204485;0.999994159
2024/05/03/12:49:12.433291;53524;1714765752;432983431;world;0.001088051;0.164736509;0.002257914;0.001863566;0.001943864;0.004515169;0.999986172
2024/05/03/12:49:12.453392;53525;1714765752;453113058;world;0.001010653;0.165111721;0.002325058;0.002093718;0.002279138;0.004487422;0.999985218
2024/05/03/12:49:12.463314;53526;1714765752;463020010;world;0.00086819;0.165982455;0.002315703;0.001999059;0.001689382;0.004365286;0.999987125
2024/05/03/12:49:12.483639;53527;1714765752;483310386;world;0.000879951;0.166775912;0.002354238;0.00233454;0.001635638;0.004379421;0.99998641
2024/05/03/12:49:12.493674;53528;1714765752;493357742;world;0.000849754;0.167624012;0.002348232;0.002670948;0.001770682;0.004133254;0.99998641
2024/05/03/12:49:12.503218;53529;1714765752;502925099;world;0.000885833;0.168447226;0.002362893;0.002754762;0.001807197;0.004140755;0.999986053
2024/05/03/12:49:12.523602;53530;1714765752;523289806;world;0.000860238;0.16932489;0.002374542;0.002617217;0.001987481;0.004400404;0.99998498
2024/05/03/12:49:12.543748;53531;1714765752;543439088;world;0.000862546;0.170203;0.002358834;0.00249111;0.002053793;0.004562784;0.999984384
2024/05/03/12:49:12.563528;53532;1714765752;563291274;world;0.000881877;0.171106786;0.002283274;0.001628205;0.001038427;0.004371027;0.999988556
2024/05/03/12:49:12.573829;53533;1714765752;573432817;world;0.000794686;0.17239733;0.002252772;0.001022015;0.000427291;0.002888811;0.999995232
2024/05/03/12:49:12.593581;53534;1714765752;593300921;world;0.000769768;0.172821596;0.002260362;0.000979606;0.000424876;0.002904604;0.999995232
2024/05/03/12:49:12.603963;53535;1714765752;603147401;world;0.000748165;0.173618257;0.002153306;0.00100123;-0.000216618;0.003181825;0.999994397
2024/05/03/12:49:12.613681;53536;1714765752;613286980;world;0.00083451;0.174188256;0.002241771;0.00131069;0.00030745;0.00402705;0.999991059
2024/05/03/12:49:12.633275;53537;1714765752;633057205;world;0.000653721;0.175234258;0.002255975;0.001474069;0.000355382;0.003297262;0.999993443
2024/05/03/12:49:12.643576;53538;1714765752;643314067;world;0.000688426;0.176021218;0.002268404;0.00168181;0.000535238;0.003551741;0.999992132
2024/05/03/12:49:12.663576;53539;1714765752;663281579;world;0.000705728;0.176757529;0.002348004;0.001662278;0.000656395;0.003620979;0.999991894
2024/05/03/12:49:12.683419;53540;1714765752;683061024;world;0.000728335;0.177556083;0.002408676;0.001616892;0.000834598;0.003785386;0.999991179
2024/05/03/12:49:12.693626;53541;1714765752;693293486;world;0.00078832;0.178332984;0.002471007;0.00182537;0.000855533;0.004380703;0.999988437
2024/05/03/12:49:12.713570;53542;1714765752;713185867;world;0.00091354;0.179022506;0.002613884;0.002609885;0.001859682;0.004664255;0.999984026
2024/05/03/12:49:12.723604;53543;1714765752;723326188;world;0.000904173;0.179430798;0.002640466;0.002752277;0.00198467;0.004644271;0.99998343
2024/05/03/12:49:12.743180;53544;1714765752;742919910;world;0.000844598;0.180347592;0.002525663;0.002649687;0.001322124;0.004570271;0.999985218
2024/05/03/12:49:12.763648;53545;1714765752;763365456;world;0.000873741;0.181238815;0.002518411;0.002556968;0.001446389;0.004645512;0.99998498
2024/05/03/12:49:12.773453;53546;1714765752;772965264;world;0.00081541;0.182109803;0.002535782;0.002531373;0.001573902;0.004526909;0.999985337
2024/05/03/12:49:12.793447;53547;1714765752;793179910;world;0.000756955;0.183079064;0.002388198;0.001814863;0.000496078;0.004047602;0.999990106
2024/05/03/12:49:12.803334;53548;1714765752;803025858;world;0.000686189;0.184101522;0.002354142;0.001458646;0.000199469;0.003372045;0.999993205
2024/05/03/12:49:12.823611;53549;1714765752;823275197;world;0.000662299;0.184544191;0.002381582;0.001527033;8.97E-05;0.003424339;0.999992967
2024/05/03/12:49:12.833405;53550;1714765752;833103974;world;0.000857599;0.185187981;0.002444238;0.001943527;0.000847173;0.004627883;0.999987125
2024/05/03/12:49:12.853281;53551;1714765752;853029849;world;0.000891054;0.185873553;0.002613969;0.002726248;0.001841704;0.004909497;0.999982595
2024/05/03/12:49:12.863494;53552;1714765752;863253645;world;0.00085653;0.186723977;0.002690158;0.00281469;0.001924319;0.004867899;0.999982357
2024/05/03/12:49:12.883648;53553;1714765752;883336853;world;0.000841044;0.187669098;0.002806967;0.002745927;0.002240365;0.004561129;0.999983311
2024/05/03/12:49:12.893227;53554;1714765752;892921483;world;0.000795664;0.188453794;0.002686113;0.003138679;0.001913371;0.004667767;0.999982357
2024/05/03/12:49:12.913276;53555;1714765752;912969306;world;0.000666723;0.189373806;0.002539845;0.002315343;0.000588315;0.004348035;0.999987721
2024/05/03/12:49:12.933029;53556;1714765752;932848113;world;0.000693597;0.190145567;0.002624767;0.002434421;0.001007535;0.004455602;0.999986649
2024/05/03/12:49:12.943610;53557;1714765752;943362631;world;0.000695199;0.19054164;0.002691799;0.002957132;0.001444919;0.004635482;0.999983907
2024/05/03/12:49:12.974019;53558;1714765752;973664818;world;0.000741776;0.191398442;0.002731445;0.002941692;0.001711935;0.004479229;0.999984264
2024/05/03/12:49:12.974044;53559;1714765752;973703531;world;0.000739142;0.192278549;0.002759419;0.002909695;0.001609638;0.004606294;0.999983907
2024/05/03/12:49:13.003489;53560;1714765753;3162217;world;0.000725498;0.193127185;0.002787716;0.003018366;0.001772315;0.004487552;0.999983788
2024/05/03/12:49:13.003520;53561;1714765753;3198244;world;0.000793017;0.193940997;0.002754287;0.003020206;0.001678301;0.004672531;0.999983191
2024/05/03/12:49:13.024053;53562;1714765753;23229566;world;0.000778638;0.194870055;0.002600903;0.002163298;0.000475718;0.004571521;0.999987125
2024/05/03/12:49:13.043667;53563;1714765753;43228190;world;0.000585362;0.196041897;0.002467041;0.001858904;4.26E-05;0.003870162;0.999990821
2024/05/03/12:49:13.053406;53564;1714765753;53153323;world;0.000588307;0.196488172;0.00249601;0.001891832;4.75E-05;0.004109691;0.999989748
2024/05/03/12:49:13.073531;53565;1714765753;73273071;world;0.000602473;0.197220147;0.002564167;0.002005782;0.000103435;0.004431548;0.999988198
2024/05/03/12:49:13.083260;53566;1714765753;82939704;world;0.000749204;0.197914526;0.002727432;0.002934581;0.001310245;0.004825565;0.999983191
2024/05/03/12:49:13.103822;53567;1714765753;103413325;world;0.000746818;0.198712274;0.002814167;0.003142499;0.00171817;0.004835185;0.99998188
2024/05/03/12:49:13.113568;53568;1714765753;113311651;world;0.000760009;0.1995022;0.00289621;0.00330499;0.00192962;0.004874216;0.999980807
2024/05/03/12:49:13.133213;53569;1714765753;132933756;world;0.000796204;0.200256079;0.002940635;0.003387054;0.002214921;0.005040758;0.999979138
2024/05/03/12:49:13.153466;53570;1714765753;153215508;world;0.000790229;0.201036245;0.002960234;0.003577074;0.002421249;0.004945204;0.999978423
2024/05/03/12:49:13.174000;53571;1714765753;173334324;world;0.000745237;0.201880828;0.002868186;0.003522623;0.001916388;0.004862389;0.999980211
2024/05/03/12:49:13.183296;53572;1714765753;183055709;world;0.000859691;0.202712968;0.002811759;0.003440461;0.001960763;0.004779281;0.999980807
2024/05/03/12:49:13.203349;53573;1714765753;203063216;world;0.000788156;0.203684717;0.002890384;0.003622164;0.001985061;0.004841934;0.999979734
2024/05/03/12:49:13.213435;53574;1714765753;213131340;world;0.000717591;0.204567567;0.002889181;0.003608937;0.001704464;0.004842804;0.99998033
2024/05/03/12:49:13.223386;53575;1714765753;223024808;world;0.0007606;0.204923287;0.002870206;0.003661043;0.001591779;0.005133852;0.9999789
2024/05/03/12:49:13.243593;53576;1714765753;243299716;world;0.00079203;0.205822781;0.002761981;0.002949825;0.000805907;0.004939355;0.999983191
2024/05/03/12:49:13.263655;53577;1714765753;263359915;world;0.000649478;0.207048744;0.002691592;0.001888684;-0.000122097;0.004032549;0.999990106
2024/05/03/12:49:13.273562;53578;1714765753;273268379;world;0.000616692;0.207890302;0.002686826;0.002003951;0.000115056;0.003962688;0.999990106
2024/05/03/12:49:13.293369;53579;1714765753;293055883;world;0.000597827;0.208607197;0.002652239;0.002086558;-5.04E-05;0.00415462;0.999989271
2024/05/03/12:49:13.333521;53580;1714765753;333238684;world;0.000719294;0.209153831;0.002708082;0.002251773;0.00043748;0.004610125;0.999986768
2024/05/03/12:49:13.333546;53582;1714765753;333284619;world;0.000690548;0.210393235;0.002991056;0.003455709;0.001902395;0.004570707;0.999981761
2024/05/03/12:49:13.353263;53583;1714765753;352952051;world;0.000673149;0.211149305;0.002971245;0.003483281;0.001668802;0.004587122;0.999981999
2024/05/03/12:49:13.393224;53584;1714765753;392880353;world;0.000693539;0.211984962;0.003077771;0.003418865;0.001507598;0.004694206;0.999981999
2024/05/03/12:49:13.393256;53585;1714765753;392914226;world;0.000723528;0.212804705;0.003146783;0.003635629;0.001526817;0.004989801;0.999979854
2024/05/03/12:49:13.403562;53586;1714765753;403237609;world;0.000758087;0.213650078;0.003133759;0.003586135;0.001749046;0.005164485;0.999978781
2024/05/03/12:49:13.413644;53587;1714765753;413321002;world;0.00072128;0.214550734;0.002997099;0.003300766;0.0012927;0.005285009;0.999979734
2024/05/03/12:49:13.433482;53588;1714765753;433214596;world;0.000719033;0.215471238;0.00291733;0.002865926;0.001013577;0.005238236;0.999981642
2024/05/03/12:49:13.453337;53589;1714765753;453025746;world;0.000740957;0.216377944;0.002954581;0.002873456;0.000964498;0.005108234;0.999982357
2024/05/03/12:49:13.463292;53590;1714765753;463005204;world;0.000767458;0.216789365;0.002894632;0.002611204;0.000588487;0.00506379;0.999983668
2024/05/03/12:49:13.483913;53591;1714765753;482852482;world;0.000725746;0.21788162;0.002794381;0.002118188;2.91E-05;0.004294141;0.999988556
2024/05/03/12:49:13.493840;53592;1714765753;493585006;world;0.000717292;0.218764305;0.002814206;0.002158868;0.000193503;0.004061108;0.99998939
2024/05/03/12:49:13.523377;53593;1714765753;523108739;world;0.00077305;0.219508648;0.002852375;0.002145626;0.000229417;0.004616962;0.999987006
2024/05/03/12:49:13.523398;53594;1714765753;523143143;world;0.000712594;0.220332295;0.002869061;0.002229029;-0.000143658;0.004551171;0.999987125
2024/05/03/12:49:13.543421;53595;1714765753;543164737;world;0.000668272;0.221156195;0.002901061;0.002236609;-0.000201445;0.004377061;0.99998796
2024/05/03/12:49:13.553547;53596;1714765753;553282805;world;0.000666618;0.221889615;0.0029223;0.002298154;-0.000249047;0.004453549;0.999987483
2024/05/03/12:49:13.573699;53597;1714765753;573226093;world;0.000653733;0.222315922;0.002955929;0.002415653;-0.000309073;0.004449466;0.999987125
2024/05/03/12:49:13.583574;53598;1714765753;583302424;world;0.000562528;0.223079965;0.003078064;0.002886328;0.000172985;0.004690448;0.99998486
2024/05/03/12:49:13.603619;53599;1714765753;603322262;world;0.00067761;0.223895013;0.003132462;0.003368351;0.000891318;0.004936821;0.999981761
2024/05/03/12:49:13.613452;53600;1714765753;613196423;world;0.000696611;0.224867195;0.003199238;0.003268762;0.001361848;0.004790426;0.999982238
2024/05/03/12:49:13.633262;53601;1714765753;632998256;world;0.000666581;0.225646138;0.00313338;0.003560221;0.001338634;0.005316484;0.999978662
2024/05/03/12:49:13.643195;53602;1714765753;642946907;world;0.000679219;0.226430088;0.003156035;0.003288341;0.001383298;0.005497006;0.999978542
2024/05/03/12:49:13.663461;53603;1714765753;663189626;world;0.000618244;0.227358505;0.003051185;0.002552836;0.00062605;0.005431698;0.99998188
2024/05/03/12:49:13.683460;53604;1714765753;683252095;world;0.000570564;0.228503376;0.002960407;0.001885452;-0.000198511;0.00440379;0.999988556
2024/05/03/12:49:13.693639;53605;1714765753;693293820;world;0.000597822;0.2288948;0.002977395;0.001987973;-0.0002878;0.004689548;0.999987006
2024/05/03/12:49:13.724144;53606;1714765753;723815137;world;0.000594165;0.229704171;0.002965385;0.00233671;-4.22E-05;0.004872343;0.999985456
2024/05/03/12:49:13.733568;53607;1714765753;733322252;world;0.000714403;0.230308101;0.003080548;0.003308027;0.001042765;0.005473759;0.999979019
2024/05/03/12:49:13.743516;53608;1714765753;743257005;world;0.000663888;0.231168777;0.003128099;0.003810583;0.001445469;0.005336237;0.999977469
2024/05/03/12:49:13.763244;53609;1714765753;762952589;world;0.000701852;0.231982529;0.003186391;0.004063685;0.00137699;0.005277765;0.999976873
2024/05/03/12:49:13.773424;53610;1714765753;773170736;world;0.00069686;0.232730851;0.003223572;0.004004003;0.001273184;0.005317635;0.999977112
2024/05/03/12:49:13.793336;53611;1714765753;793057487;world;0.000634436;0.233601093;0.003172319;0.003454374;0.000621715;0.00525423;0.999980092
2024/05/03/12:49:13.813877;53612;1714765753;813404850;world;0.000599045;0.234420925;0.003207701;0.002859628;0.000186326;0.005029524;0.999983311
2024/05/03/12:49:13.823340;53613;1714765753;823081952;world;0.000613868;0.234820634;0.003251251;0.002986403;8.43E-05;0.005105011;0.999982595
2024/05/03/12:49:13.833465;53614;1714765753;833200530;world;0.000529179;0.235708818;0.003145369;0.002816757;-0.000131447;0.005169037;0.999982715
2024/05/03/12:49:13.853491;53615;1714765753;853176309;world;0.000491785;0.236644477;0.003096107;0.002791103;-1.24E-05;0.005254371;0.999982357
2024/05/03/12:49:13.873669;53616;1714765753;873122112;world;0.000491165;0.237505749;0.003107477;0.002929666;0.000212053;0.005473737;0.999980688
2024/05/03/12:49:13.893932;53617;1714765753;893277426;world;0.00063363;0.238311797;0.003291546;0.003211082;0.001004729;0.005267799;0.99998045
2024/05/03/12:49:13.893961;53618;1714765753;893312141;world;0.000647556;0.239057526;0.003300119;0.003396742;0.000900034;0.005415202;0.999979138
2024/05/03/12:49:13.923642;53619;1714765753;923359820;world;0.000496306;0.240090385;0.003072567;0.002425181;-0.000197899;0.005009443;0.999984503
2024/05/03/12:49:13.933433;53620;1714765753;933123324;world;0.00053226;0.241058275;0.003048851;0.001856647;-0.000582099;0.004893038;0.999986172
2024/05/03/12:49:13.943269;53621;1714765753;942917978;world;0.000729498;0.241644248;0.003128863;0.002725294;0.000177768;0.005782223;0.999979615
2024/05/03/12:49:13.963218;53622;1714765753;962931266;world;0.000721255;0.242019594;0.003189286;0.003110938;0.000535774;0.005941702;0.99997735
2024/05/03/12:49:13.973983;53623;1714765753;973662982;world;0.000642596;0.242826238;0.003242838;0.003561413;0.0010517;0.006020094;0.999974966
2024/05/03/12:49:13.993654;53624;1714765753;993382670;world;0.000626901;0.243705958;0.003247517;0.003563391;0.001117153;0.005899413;0.999975681
2024/05/03/12:49:14.033290;53625;1714765754;33017334;world;0.000632878;0.244519413;0.003224192;0.003623001;0.000862431;0.00566086;0.999977112
2024/05/03/12:49:14.043683;53626;1714765754;43410558;world;0.000607612;0.245332137;0.003321932;0.003526146;0.00077844;0.005568685;0.999977946
2024/05/03/12:49:14.043714;53627;1714765754;43447256;world;0.000600878;0.246150181;0.00336189;0.003499996;0.00091656;0.005626088;0.999977708
2024/05/03/12:49:14.063416;53628;1714765754;63188075;world;0.000643466;0.247033313;0.003370002;0.003546471;0.000904722;0.005640571;0.999977469
2024/05/03/12:49:14.073281;53629;1714765754;72981515;world;0.00061731;0.247436315;0.003364214;0.003545337;0.000747664;0.005649132;0.999977469
2024/05/03/12:49:14.093765;53630;1714765754;93400762;world;0.000538729;0.24829261;0.003334895;0.003664935;0.001013185;0.005565955;0.99997735
2024/05/03/12:49:14.103275;53631;1714765754;103042919;world;0.000537897;0.2491429;0.003373604;0.003444417;0.000986887;0.00551174;0.999978423
2024/05/03/12:49:14.143619;53632;1714765754;143260736;world;0.000626473;0.249948412;0.003353738;0.00325048;0.000782867;0.005566821;0.9999789
2024/05/03/12:49:14.143644;53633;1714765754;143294510;world;0.000496715;0.251243293;0.003108624;0.002255858;-0.00064515;0.004774136;0.999985933
2024/05/03/12:49:14.153388;53634;1714765754;153130949;world;0.000457523;0.252119064;0.003132204;0.002428677;-0.000417534;0.00473191;0.999985814
2024/05/03/12:49:14.163615;53635;1714765754;163356538;world;0.000470646;0.25282374;0.003193391;0.002404889;-0.000352263;0.004955763;0.999984741
2024/05/03/12:49:14.183462;53636;1714765754;183196913;world;0.000474649;0.253204167;0.003198121;0.002465429;-0.00028988;0.004984384;0.999984503
2024/05/03/12:49:14.193484;53637;1714765754;193093994;world;0.000692613;0.253833354;0.003371198;0.003454455;0.000937753;0.005904355;0.999976158
2024/05/03/12:49:14.213294;53638;1714765754;213000755;world;0.000663159;0.254680037;0.003447631;0.003910042;0.001567449;0.005985302;0.999973297
2024/05/03/12:49:14.233201;53639;1714765754;232903107;world;0.000624228;0.255578607;0.003552494;0.003853445;0.001406886;0.005816191;0.999974728
2024/05/03/12:49:14.243948;53640;1714765754;243292552;world;0.000634856;0.256492525;0.003549032;0.003752043;0.00150329;0.005567645;0.999976397
2024/05/03/12:49:14.263496;53641;1714765754;263198310;world;0.00061499;0.257350028;0.003532206;0.003534478;0.00146886;0.005482213;0.999977708
2024/05/03/12:49:14.273530;53642;1714765754;273252930;world;0.000593031;0.258140445;0.003370709;0.00305327;0.000396107;0.00548794;0.999980211
2024/05/03/12:49:14.304159;53643;1714765754;303807649;world;0.000654217;0.258939743;0.003376638;0.003341189;0.000917613;0.005360191;0.999979615
2024/05/03/12:49:14.304166;53644;1714765754;303835341;world;0.000638245;0.25934732;0.003433755;0.003369965;0.001279173;0.005254842;0.999979734
2024/05/03/12:49:14.343694;53645;1714765754;343349718;world;0.000553392;0.260177106;0.003443986;0.003293385;0.001185808;0.005128075;0.999980807
2024/05/03/12:49:14.343721;53646;1714765754;343386136;world;0.000645408;0.261063457;0.003460199;0.003120416;0.000456442;0.005461118;0.999980092
2024/05/03/12:49:14.353140;53647;1714765754;352910713;world;0.000549648;0.262372345;0.003329459;0.002120069;-0.000424203;0.004626554;0.999987006
2024/05/03/12:49:14.363249;53648;1714765754;362999718;world;0.000542215;0.263250202;0.003366481;0.002211351;-0.000362425;0.004690069;0.999986529
2024/05/03/12:49:14.383449;53649;1714765754;383144642;world;0.00058442;0.264005989;0.003422104;0.002366532;-0.000408846;0.005091192;0.999984145
2024/05/03/12:49:14.404071;53650;1714765754;403203927;world;0.000604682;0.264787495;0.003394156;0.002650396;-0.000271339;0.005232215;0.999982834
2024/05/03/12:49:14.413267;53651;1714765754;413013678;world;0.000597436;0.265533537;0.003426905;0.002847366;-0.00027634;0.005253192;0.999982119
2024/05/03/12:49:14.443313;53652;1714765754;443016304;world;0.000695914;0.266152889;0.003466671;0.003470607;0.000333938;0.005371573;0.999979496
2024/05/03/12:49:14.443333;53653;1714765754;443052832;world;0.000651948;0.266958356;0.003522888;0.004056844;0.001201419;0.005509837;0.99997592
2024/05/03/12:49:14.463277;53654;1714765754;462979587;world;0.000669634;0.267460614;0.003519116;0.004153187;0.001617188;0.005559379;0.999974608
2024/05/03/12:49:14.483201;53655;1714765754;482980052;world;0.000666006;0.268731743;0.003614871;0.00392911;0.001689536;0.005496598;0.999975801
2024/05/03/12:49:14.493306;53656;1714765754;492992683;world;0.000659591;0.269149542;0.003626831;0.003816907;0.001702065;0.005467534;0.999976397
2024/05/03/12:49:14.503397;53657;1714765754;503025541;world;0.000638413;0.270014852;0.003614035;0.003500109;0.001482802;0.005293694;0.999978781
2024/05/03/12:49:14.553800;53658;1714765754;553467944;world;0.000622008;0.270943016;0.00355461;0.003560073;0.001236145;0.00535791;0.999978542
2024/05/03/12:49:14.553828;53660;1714765754;553513920;world;0.000566095;0.272639424;0.003436524;0.003064571;0.000352461;0.005302683;0.999981165
2024/05/03/12:49:14.573626;53661;1714765754;573164260;world;0.000428604;0.273764521;0.003426041;0.002368106;-0.00049359;0.00461987;0.99998641
2024/05/03/12:49:14.593514;53662;1714765754;593209606;world;0.000586974;0.274433374;0.003522624;0.002691435;-0.000157256;0.005344904;0.999982119
2024/05/03/12:49:14.613786;53663;1714765754;613130162;world;0.000681819;0.274766922;0.003656209;0.003230335;0.000711875;0.005541029;0.999979258
2024/05/03/12:49:14.613803;53664;1714765754;613164015;world;0.000588791;0.275582999;0.003718386;0.00352946;0.000867271;0.005568109;0.999977946
2024/05/03/12:49:14.633543;53665;1714765754;633285147;world;0.00062106;0.276332557;0.003717405;0.00343951;0.000824807;0.005528381;0.999978542
2024/05/03/12:49:14.643579;53666;1714765754;643264565;world;0.000563188;0.277187586;0.003627197;0.003252216;0.000378822;0.005079017;0.999981761
2024/05/03/12:49:14.663500;53667;1714765754;663204817;world;0.000598898;0.278074443;0.003602925;0.003380052;0.000647169;0.005103024;0.999981046
2024/05/03/12:49:14.683587;53668;1714765754;683328863;world;0.000664923;0.278906375;0.003602396;0.003544765;0.000891496;0.005398035;0.999978781
2024/05/03/12:49:14.693603;53669;1714765754;693297581;world;0.000641961;0.279304683;0.003624814;0.003404784;0.00093677;0.00544646;0.999979019
2024/05/03/12:49:14.713347;53670;1714765754;713068635;world;0.000622157;0.280234873;0.003712496;0.003278248;0.000913617;0.005492498;0.999979138
2024/05/03/12:49:14.743595;53671;1714765754;743270875;world;0.00072979;0.281060219;0.003770144;0.003581589;0.001434195;0.005643779;0.999976635
2024/05/03/12:49:14.743619;53672;1714765754;743305920;world;0.000742367;0.28197524;0.003772255;0.003664874;0.001573337;0.005548635;0.999976635
2024/05/03/12:49:14.763470;53673;1714765754;763177243;world;0.000711059;0.282907903;0.003751825;0.003539085;0.001423719;0.005482997;0.999977708
2024/05/03/12:49:14.773320;53674;1714765754;772990911;world;0.000705594;0.283742577;0.00379143;0.003695181;0.001421662;0.005321474;0.999978065
2024/05/03/12:49:14.793229;53675;1714765754;793033966;world;0.000701535;0.284478366;0.003614293;0.002930348;0.000179176;0.005360223;0.999981403
2024/05/03/12:49:14.813169;53676;1714765754;812882216;world;0.000700971;0.285419405;0.003540938;0.002425585;-0.000368906;0.004784562;0.999985576
2024/05/03/12:49:14.823638;53677;1714765754;823385050;world;0.000800781;0.285722315;0.003575299;0.002772943;-0.000117793;0.005004465;0.999983668
2024/05/03/12:49:14.853251;53678;1714765754;853002187;world;0.000762027;0.28645429;0.00373339;0.003558358;0.001018176;0.004979169;0.999980807
2024/05/03/12:49:14.853340;53679;1714765754;853036071;world;0.000663877;0.287309766;0.0038819;0.004221427;0.001517389;0.005217458;0.999976397
2024/05/03/12:49:14.863645;53680;1714765754;863368800;world;0.000701498;0.28810358;0.003911442;0.004216706;0.001632728;0.005307727;0.999975681
2024/05/03/12:49:14.883643;53681;1714765754;883352073;world;0.000682348;0.289023668;0.003856915;0.003664347;0.001169976;0.005377633;0.999978185
2024/05/03/12:49:14.893440;53682;1714765754;893064562;world;0.000645269;0.289978981;0.003809083;0.002785414;0.000478348;0.00528063;0.999982119
2024/05/03/12:49:14.913266;53683;1714765754;912965340;world;0.000686163;0.290797174;0.003808169;0.002945228;0.000738014;0.005599294;0.999979734
2024/05/03/12:49:14.933461;53684;1714765754;933148658;world;0.000626225;0.291570574;0.003864706;0.0032315;0.001093015;0.005574449;0.999978662
2024/05/03/12:49:14.953723;53685;1714765754;953383841;world;0.000624131;0.292444706;0.00382655;0.003459791;0.001055792;0.005499739;0.999978423
2024/05/03/12:49:14.963626;53686;1714765754;963328724;world;0.000602013;0.293301404;0.0038951;0.003539157;0.001408994;0.005384604;0.999978304
2024/05/03/12:49:14.973354;53687;1714765754;973047785;world;0.000559671;0.29379645;0.00394867;0.0035656;0.001417796;0.005319615;0.999978542
2024/05/03/12:49:14.993469;53688;1714765754;993022868;world;0.000626195;0.29463616;0.00386679;0.003583426;0.001127995;0.005366248;0.999978542
2024/05/03/12:49:15.013448;53689;1714765755;13149673;world;0.000600671;0.295588553;0.003757108;0.002748664;2.57E-05;0.005020693;0.999983668
2024/05/03/12:49:15.023281;53690;1714765755;22959926;world;0.000504978;0.296621799;0.003826115;0.002785131;-1.02E-05;0.004414072;0.99998641
2024/05/03/12:49:15.073166;53691;1714765755;72873368;world;0.000539022;0.297382832;0.003862809;0.00279697;5.88E-05;0.004576014;0.999985695
2024/05/03/12:49:15.073191;53693;1714765755;72916860;world;0.000847887;0.298690289;0.004048122;0.003684088;0.001000908;0.005000518;0.999980211
2024/05/03/12:49:15.093307;53694;1714765755;92989369;world;0.000749718;0.299528271;0.004101656;0.003867927;0.001574303;0.005162345;0.999977946
2024/05/03/12:49:15.103547;53695;1714765755;103250756;world;0.000707657;0.299986839;0.00409809;0.003944309;0.001682792;0.005377998;0.999976397
2024/05/03/12:49:15.123312;53696;1714765755;122984010;world;0.000675159;0.300852984;0.004031588;0.004055446;0.001515491;0.005642836;0.999974728
2024/05/03/12:49:15.133769;53697;1714765755;133480087;world;0.000694392;0.301717788;0.004079652;0.003949004;0.001517004;0.005621191;0.999975324
2024/05/03/12:49:15.153330;53698;1714765755;152975936;world;0.000700977;0.302571476;0.004144182;0.003702838;0.001579354;0.005645028;0.999976039
2024/05/03/12:49:15.163615;53699;1714765755;163260686;world;0.000714682;0.303403616;0.00408521;0.003360535;0.00098749;0.005811464;0.999976993
2024/05/03/12:49:15.183559;53700;1714765755;183178426;world;0.000695495;0.30429548;0.004067701;0.003243082;0.000918195;0.005783048;0.999977589
2024/05/03/12:49:15.193576;53701;1714765755;193269904;world;0.000656325;0.304706573;0.004095448;0.003351338;0.001058939;0.005672317;0.999977708
2024/05/03/12:49:15.223641;53702;1714765755;223319456;world;0.000608524;0.305591434;0.004070782;0.003459967;0.001423183;0.00585046;0.99997592
2024/05/03/12:49:15.223671;53703;1714765755;223362116;world;0.000682645;0.306483746;0.003941261;0.00296135;0.000350762;0.005574468;0.999980092
2024/05/03/12:49:15.253323;53704;1714765755;252950637;world;0.000551721;0.307488143;0.003944121;0.002730617;-4.53E-05;0.004809254;0.999984741
2024/05/03/12:49:15.253354;53705;1714765755;253106489;world;0.000586975;0.30823195;0.003969247;0.002720249;1.46E-05;0.004946267;0.999984145
2024/05/03/12:49:15.273683;53706;1714765755;273372821;world;0.000584334;0.308998853;0.003975489;0.002780974;0.00013348;0.005058523;0.999983311
2024/05/03/12:49:15.283365;53707;1714765755;283144140;world;0.000599865;0.309443325;0.004007411;0.002819417;0.000138959;0.005220348;0.999982476
2024/05/03/12:49:15.303702;53708;1714765755;303460476;world;0.000778887;0.310573459;0.004172513;0.003643367;0.001370846;0.005807813;0.999975562
2024/05/03/12:49:15.323415;53709;1714765755;323171109;world;0.000757016;0.310984761;0.004286567;0.003857126;0.001933264;0.005757964;0.999974132
2024/05/03/12:49:15.333576;53710;1714765755;333253872;world;0.000738573;0.311786652;0.004434626;0.004267431;0.002581036;0.005938563;0.999969959
2024/05/03/12:49:15.353439;53711;1714765755;353185126;world;0.000708545;0.312658519;0.00435123;0.004331569;0.002031491;0.005916045;0.999971032
2024/05/03/12:49:15.363289;53712;1714765755;362977546;world;0.000735732;0.31359309;0.004287308;0.003674828;0.001075554;0.005813784;0.999975801
2024/05/03/12:49:15.383356;53713;1714765755;383096262;world;0.000687122;0.314454228;0.004341671;0.003390431;0.001015819;0.005711259;0.999977469
2024/05/03/12:49:15.393381;53714;1714765755;393011709;world;0.000659509;0.315354049;0.00434674;0.00359109;0.001410482;0.005956884;0.999974847
2024/05/03/12:49:15.413236;53715;1714765755;413002658;world;0.000706478;0.315774977;0.004323655;0.003661188;0.00168646;0.006174508;0.99997282
2024/05/03/12:49:15.433381;53716;1714765755;433084434;world;0.000796964;0.316955;0.004284497;0.003763199;0.001678028;0.006138948;0.999972701
2024/05/03/12:49:15.473299;53717;1714765755;473018127;world;0.000854267;0.317365885;0.004191407;0.003462457;0.001131108;0.006100578;0.999974847
2024/05/03/12:49:15.483542;53718;1714765755;483234249;world;0.000739593;0.318534881;0.004119558;0.00259779;0.000191568;0.004968434;0.999984264
2024/05/03/12:49:15.483567;53719;1714765755;483268553;world;0.000642724;0.319240242;0.004176621;0.002839288;0.000455669;0.005230483;0.999982238
2024/05/03/12:49:15.493532;53720;1714765755;493231992;world;0.00065203;0.319993228;0.004257355;0.003219278;0.000706664;0.005429567;0.999979854
2024/05/03/12:49:15.504347;53721;1714765755;503360269;world;0.000721345;0.32090053;0.004234685;0.003542809;0.000934578;0.005448737;0.999978423
