time;.header.seq;.header.stamp.secs;.header.stamp.nsecs;.header.frame_id;.pose.position.x;.pose.position.y;.pose.position.z;.pose.orientation.x;.pose.orientation.y;.pose.orientation.z;.pose.orientation.w
2024/05/03/13:29:16.673747;205398;1714768156;673324335;world;2.03E-05;1.18E-05;-1.06E-05;-4.74E-05;-5.08E-06;2.13E-05;-1
2024/05/03/13:29:16.693476;205399;1714768156;693177337;world;-8.88E-06;2.23E-05;-1.65E-05;3.31E-05;-3.76E-05;-6.35E-06;-1
2024/05/03/13:29:16.703532;205400;1714768156;702964613;world;2.46E-05;3.76E-05;1.18E-05;-0.000178518;-2.31E-05;2.82E-05;-1
2024/05/03/13:29:16.724046;205401;1714768156;723489991;world;8.90E-06;6.26E-06;-1.65E-05;-2.62E-05;1.89E-05;4.04E-05;-1
2024/05/03/13:29:16.743809;205402;1714768156;743466066;world;2.36E-05;1.56E-05;-5.67E-06;-2.97E-05;-5.72E-06;-6.35E-06;-1
2024/05/03/13:29:16.753283;205403;1714768156;752968671;world;2.67E-06;2.98E-05;1.31E-05;-7.09E-05;-2.87E-05;2.08E-05;-1
2024/05/03/13:29:16.773248;205404;1714768156;772918708;world;1.06E-05;3.02E-05;1.19E-05;-8.76E-05;-3.17E-05;1.73E-05;-1
2024/05/03/13:29:16.783664;205405;1714768156;783364915;world;2.63E-05;2.93E-05;7.94E-06;-0.000147049;-4.01E-05;2.66E-05;-1
2024/05/03/13:29:16.803315;205406;1714768156;803085748;world;-2.28E-05;1.04E-05;-1.48E-05;2.57E-05;2.93E-05;2.08E-05;-1
2024/05/03/13:29:16.813348;205407;1714768156;813042904;world;-1.13E-06;2.17E-05;-3.08E-06;2.20E-05;2.07E-06;2.97E-05;-1
2024/05/03/13:29:16.833552;205408;1714768156;833155308;world;2.99E-05;3.33E-05;1.58E-05;-0.000165586;-2.92E-05;4.23E-05;-1
2024/05/03/13:29:16.853256;205409;1714768156;852920304;world;-6.33E-07;1.73E-05;-1.17E-05;2.58E-05;-1.05E-05;3.90E-06;-1
2024/05/03/13:29:16.893200;205410;1714768156;892874156;world;1.21E-06;2.90E-05;6.02E-06;-5.99E-05;-6.72E-06;5.71E-05;-1
2024/05/03/13:29:16.893209;205412;1714768156;892920602;world;-9.57E-06;3.51E-05;-1.95E-05;-2.62E-05;1.47E-05;2.70E-05;-1
2024/05/03/13:29:16.903374;205413;1714768156;903052940;world;-1.70E-06;4.33E-05;-4.72E-06;-9.31E-05;3.03E-05;7.35E-05;-1
2024/05/03/13:29:16.923334;205414;1714768156;923012262;world;5.07E-06;2.87E-05;-2.94E-06;-7.51E-05;-1.67E-05;5.81E-06;-1
2024/05/03/13:29:16.953290;205415;1714768156;952956604;world;-9.63E-06;1.60E-05;3.92E-06;3.92E-05;2.47E-05;4.47E-05;-1
2024/05/03/13:29:16.953321;205416;1714768156;952994173;world;-5.26E-06;3.98E-05;1.40E-05;-0.000110166;-7.95E-05;1.92E-05;-1
2024/05/03/13:29:16.993723;205417;1714768156;993324849;world;-6.67E-06;9.08E-06;-8.15E-06;2.15E-05;-2.57E-05;2.13E-05;-1
2024/05/03/13:29:16.993755;205418;1714768156;993370934;world;-1.52E-05;2.43E-05;7.80E-06;2.77E-05;3.11E-05;-1.50E-07;-1
2024/05/03/13:29:17.003433;205419;1714768157;3047223;world;-1.74E-06;1.90E-05;1.24E-05;-0.000143833;-4.28E-05;6.73E-05;-1
2024/05/03/13:29:17.013218;205420;1714768157;12902278;world;1.42E-05;3.28E-05;9.84E-06;-0.000155773;-6.09E-05;2.80E-05;-1
2024/05/03/13:29:17.033309;205421;1714768157;32961516;world;-4.91E-06;3.50E-05;7.53E-06;-5.82E-05;-5.51E-05;2.58E-05;-1
2024/05/03/13:29:17.053389;205422;1714768157;53100173;world;1.43E-05;3.25E-05;1.02E-05;-0.0001146;-5.08E-05;2.85E-05;-1
2024/05/03/13:29:17.063126;205423;1714768157;62857840;world;-2.81E-06;1.91E-05;-7.51E-06;2.28E-06;6.17E-07;3.37E-05;-1
2024/05/03/13:29:17.103151;205424;1714768157;102910595;world;-2.19E-05;2.13E-05;-1.51E-06;1.61E-05;-2.42E-05;7.95E-06;-1
2024/05/03/13:29:17.103158;205425;1714768157;102947674;world;2.57E-05;3.41E-05;1.71E-05;-0.000133568;-1.49E-05;4.18E-05;-1
2024/05/03/13:29:17.113350;205426;1714768157;113026134;world;9.77E-06;2.29E-05;1.31E-05;-3.49E-05;-2.87E-05;6.76E-06;-1
2024/05/03/13:29:17.123541;205427;1714768157;123160025;world;1.17E-05;2.84E-05;2.20E-05;-0.000125273;-4.68E-05;5.42E-05;-1
2024/05/03/13:29:17.143864;205428;1714768157;143442947;world;-1.39E-05;1.63E-05;4.80E-06;-1.24E-05;1.18E-05;6.37E-05;-1
2024/05/03/13:29:17.163399;205429;1714768157;162996949;world;1.18E-05;3.70E-05;7.76E-06;-0.000167962;-0.000111075;3.21E-05;-1
2024/05/03/13:29:17.173901;205430;1714768157;173421361;world;-1.87E-06;2.18E-05;3.85E-07;3.02E-05;4.00E-06;2.71E-06;-1
2024/05/03/13:29:17.193660;205431;1714768157;193345907;world;5.88E-06;2.94E-05;4.87E-06;4.16E-05;-1.21E-05;1.80E-05;-1
2024/05/03/13:29:17.203562;205432;1714768157;202947612;world;-2.28E-06;3.32E-05;7.52E-06;-6.48E-05;-7.69E-05;3.11E-05;-1
2024/05/03/13:29:17.223751;205433;1714768157;223032162;world;3.24E-06;3.56E-05;9.57E-06;-9.75E-05;-2.96E-05;2.13E-05;-1
2024/05/03/13:29:17.234040;205434;1714768157;233269130;world;1.30E-06;2.15E-05;-9.93E-07;2.46E-05;1.52E-05;3.13E-05;-1
2024/05/03/13:29:17.253802;205435;1714768157;253506305;world;7.47E-06;1.86E-05;1.39E-05;-0.000121587;-4.25E-05;3.87E-05;-1
2024/05/03/13:29:17.314316;205436;1714768157;313216193;world;7.94E-06;2.24E-05;5.84E-06;-2.30E-05;-3.54E-06;3.16E-05;-1
2024/05/03/13:29:17.314362;205439;1714768157;313262529;world;-2.16E-06;2.62E-05;6.82E-07;-2.41E-05;1.14E-05;8.67E-06;-1
2024/05/03/13:29:17.333724;205440;1714768157;333329621;world;5.30E-06;1.94E-05;3.69E-06;-4.12E-05;1.69E-05;9.15E-06;-1
2024/05/03/13:29:17.343561;205441;1714768157;343194657;world;1.41E-05;3.63E-05;1.16E-05;-0.000154476;-3.88E-05;4.49E-05;-1
2024/05/03/13:29:17.363821;205442;1714768157;363509683;world;5.18E-06;2.11E-05;-4.81E-06;7.14E-06;2.22E-05;2.27E-05;-1
2024/05/03/13:29:17.393417;205443;1714768157;393065242;world;1.07E-05;2.13E-05;1.52E-06;-3.64E-05;2.23E-05;4.25E-05;-1
2024/05/03/13:29:17.393444;205444;1714768157;393100557;world;1.12E-05;2.03E-05;-3.65E-06;-2.30E-05;-5.78E-06;-2.06E-06;-1
2024/05/03/13:29:17.403798;205445;1714768157;403329268;world;-2.71E-06;1.12E-05;-1.40E-05;-2.28E-05;-2.99E-06;3.13E-05;-1
2024/05/03/13:29:17.423503;205446;1714768157;423190266;world;-1.82E-05;2.28E-05;-1.43E-05;1.81E-05;5.74E-06;4.90E-05;-1
2024/05/03/13:29:17.443553;205447;1714768157;443199748;world;-3.76E-07;8.08E-06;-1.63E-06;-1.27E-05;4.53E-05;5.30E-05;-1
2024/05/03/13:29:17.463736;205448;1714768157;463492593;world;1.04E-06;9.76E-06;-3.25E-06;-9.00E-06;2.07E-05;2.56E-05;-1
2024/05/03/13:29:17.473432;205449;1714768157;473132954;world;9.29E-06;1.49E-05;-4.03E-06;-1.02E-05;-2.44E-06;5.64E-07;-1
2024/05/03/13:29:17.493235;205450;1714768157;493003855;world;-3.87E-06;1.15E-05;-6.77E-06;-1.88E-05;-1.16E-05;7.48E-06;-1
2024/05/03/13:29:17.503558;205451;1714768157;503183174;world;1.06E-05;1.63E-05;-8.61E-06;-1.44E-05;-3.07E-05;3.19E-06;-1
2024/05/03/13:29:17.513336;205452;1714768157;513057067;world;-8.06E-06;1.68E-05;-1.23E-05;2.89E-05;7.64E-06;1.37E-05;-1
2024/05/03/13:29:17.533496;205453;1714768157;533115233;world;1.08E-05;1.29E-05;4.03E-06;2.05E-05;1.17E-05;6.85E-05;-1
2024/05/03/13:29:17.553370;205454;1714768157;553004848;world;4.38E-06;3.99E-05;9.19E-06;-0.00010677;-5.94E-05;2.37E-05;-1
2024/05/03/13:29:17.563434;205455;1714768157;563021014;world;2.34E-06;2.83E-05;-5.17E-06;2.50E-07;1.52E-05;1.61E-05;-1
2024/05/03/13:29:17.603846;205456;1714768157;602928531;world;4.58E-06;2.18E-05;8.80E-06;7.18E-07;1.67E-05;1.80E-05;-1
2024/05/03/13:29:17.603877;205457;1714768157;602975368;world;1.07E-05;2.12E-05;4.48E-06;-1.26E-05;3.24E-06;2.82E-05;-1
2024/05/03/13:29:17.614657;205458;1714768157;613242996;world;-1.13E-05;2.12E-05;-4.35E-07;1.76E-05;2.80E-06;1.46E-05;-1
2024/05/03/13:29:17.623791;205459;1714768157;623267435;world;9.87E-07;3.24E-05;5.06E-06;-0.000121697;-3.24E-05;5.80E-05;-1
2024/05/03/13:29:17.643454;205460;1714768157;643031241;world;7.82E-08;2.39E-05;-6.81E-06;4.23E-05;1.30E-05;3.39E-05;-1
2024/05/03/13:29:17.663316;205461;1714768157;662947966;world;7.97E-06;3.75E-05;2.12E-05;-0.000111419;-3.77E-05;3.49E-05;-1
2024/05/03/13:29:17.673550;205462;1714768157;673247845;world;4.74E-06;3.11E-05;8.73E-06;1.84E-05;-2.46E-05;8.91E-06;-1
2024/05/03/13:29:17.703965;205463;1714768157;703310312;world;-9.24E-07;3.67E-05;1.20E-05;-8.55E-05;-7.38E-05;6.53E-06;-1
2024/05/03/13:29:17.703993;205464;1714768157;703345066;world;5.86E-06;2.66E-05;-1.07E-05;2.43E-05;-4.81E-05;1.70E-05;-1
2024/05/03/13:29:17.723449;205465;1714768157;723020236;world;-6.08E-06;2.61E-05;-3.51E-06;4.39E-06;-1.61E-05;-1.71E-05;-1
2024/05/03/13:29:17.733788;205466;1714768157;733476704;world;-1.84E-05;2.73E-05;-3.21E-06;3.73E-05;-7.58E-06;4.73E-05;-1
2024/05/03/13:29:17.753525;205467;1714768157;753106876;world;-2.15E-05;1.77E-05;1.86E-06;3.38E-05;4.83E-05;4.23E-05;-1
2024/05/03/13:29:17.773089;205468;1714768157;772899377;world;-3.02E-06;2.87E-05;-1.53E-05;-2.64E-06;-9.86E-06;-4.68E-06;-1
2024/05/03/13:29:17.803702;205469;1714768157;803340113;world;5.77E-07;3.50E-05;-4.50E-06;1.37E-05;1.81E-05;3.75E-05;-1
2024/05/03/13:29:17.803856;205470;1714768157;803388432;world;-1.28E-05;3.13E-05;-8.66E-07;3.02E-05;1.05E-05;2.44E-05;-1
2024/05/03/13:29:17.813134;205471;1714768157;812908107;world;-3.46E-06;2.76E-05;6.12E-07;-1.94E-05;1.24E-05;2.77E-05;-1
2024/05/03/13:29:17.833688;205472;1714768157;833334158;world;-1.49E-05;2.22E-05;4.87E-06;9.54E-06;5.62E-05;5.42E-05;-1
2024/05/03/13:29:17.844028;205473;1714768157;843778531;world;-4.41E-06;2.25E-05;-8.47E-06;2.38E-05;-1.29E-05;5.21E-05;-1
2024/05/03/13:29:17.873338;205474;1714768157;873039242;world;-1.45E-05;2.81E-05;-1.50E-05;-1.31E-05;3.84E-05;2.63E-05;-1
2024/05/03/13:29:17.873372;205475;1714768157;873078274;world;-2.50E-05;3.27E-05;-1.31E-05;5.98E-05;6.83E-06;1.53E-05;-1
2024/05/03/13:29:17.903579;205476;1714768157;903218906;world;-2.28E-05;4.36E-05;3.87E-06;-8.67E-05;-1.68E-05;7.14E-05;-1
2024/05/03/13:29:17.914152;205477;1714768157;913402345;world;-1.25E-05;3.15E-05;-6.73E-07;-7.46E-05;-7.43E-06;7.85E-05;-1
2024/05/03/13:29:17.923347;205478;1714768157;923077220;world;-7.34E-06;3.29E-05;7.51E-06;-5.17E-05;2.07E-05;6.90E-05;-1
2024/05/03/13:29:17.933430;205479;1714768157;933165097;world;-1.31E-05;2.64E-05;-6.84E-06;-4.49E-05;2.91E-05;8.19E-06;-1
2024/05/03/13:29:17.953583;205480;1714768157;952947481;world;9.95E-06;4.18E-05;1.21E-05;-0.000177518;-1.46E-05;3.39E-05;-1
2024/05/03/13:29:17.983410;205481;1714768157;983011678;world;-3.39E-07;2.06E-05;-1.48E-05;-9.31E-05;2.20E-05;1.77E-05;-1
2024/05/03/13:29:17.993439;205482;1714768157;993183994;world;-2.18E-06;2.24E-05;-1.68E-05;-7.16E-05;4.49E-05;6.02E-05;-1
2024/05/03/13:29:18.013302;205483;1714768158;13011656;world;2.64E-06;3.97E-05;1.20E-05;-0.000128286;4.12E-05;4.35E-05;-1
2024/05/03/13:29:18.013304;205484;1714768158;13047412;world;-1.60E-06;4.25E-05;7.42E-06;-0.000161816;2.33E-05;6.45E-05;-1
2024/05/03/13:29:18.033344;205485;1714768158;32973094;world;-8.50E-06;2.05E-05;-1.91E-05;-2.75E-05;6.52E-05;3.66E-05;-1
2024/05/03/13:29:18.043871;205486;1714768158;43485416;world;1.96E-06;2.89E-05;-1.54E-05;-6.96E-05;1.96E-05;9.62E-06;-1
2024/05/03/13:29:18.073362;205487;1714768158;73042293;world;-2.08E-05;2.91E-05;-1.13E-05;-4.96E-05;4.66E-05;3.99E-05;-1
2024/05/03/13:29:18.083162;205488;1714768158;82869228;world;-3.03E-05;1.60E-05;-1.35E-05;-3.53E-05;7.07E-05;2.44E-05;-1
2024/05/03/13:29:18.123349;205489;1714768158;123053920;world;2.09E-05;2.04E-05;-1.05E-05;-4.97E-06;5.74E-05;3.37E-05;-1
2024/05/03/13:29:18.123374;205491;1714768158;123097641;world;-3.67E-06;1.36E-05;-2.11E-05;-7.36E-07;5.19E-05;2.77E-05;-1
2024/05/03/13:29:18.143654;205492;1714768158;143316516;world;-1.31E-05;2.28E-05;-2.35E-05;3.42E-05;8.79E-05;8.67E-06;-1
2024/05/03/13:29:18.163551;205493;1714768158;163226339;world;1.84E-05;2.14E-05;-2.10E-05;-7.87E-06;6.79E-05;-0.000128182;-1
2024/05/03/13:29:18.183571;205494;1714768158;183232730;world;3.97E-05;1.57E-05;-1.22E-05;1.10E-05;8.37E-05;-0.000965268;-0.999999523
2024/05/03/13:29:18.214163;205495;1714768158;213204344;world;2.51E-05;3.43E-05;-8.71E-06;-2.97E-05;0.000124012;-0.002397928;-0.999997139
2024/05/03/13:29:18.214194;205496;1714768158;213246462;world;3.87E-05;2.90E-05;-2.17E-05;-5.82E-05;0.000112381;-0.003973393;-0.999992132
2024/05/03/13:29:18.223441;205497;1714768158;223155740;world;2.29E-05;4.67E-05;-1.77E-05;2.56E-05;9.21E-05;-0.004879843;-0.999988079
2024/05/03/13:29:18.233211;205498;1714768158;232914499;world;-4.66E-05;3.68E-05;-3.40E-05;0.000221038;0.000133626;-0.006928272;-0.999976039
2024/05/03/13:29:18.253404;205499;1714768158;253107926;world;-6.42E-05;2.51E-05;-4.65E-05;0.000292285;0.000200291;-0.009146893;-0.999958158
2024/05/03/13:29:18.263941;205500;1714768158;262884819;world;-2.35E-05;2.48E-05;-5.35E-05;0.000193888;0.000309556;-0.011609385;-0.999932528
2024/05/03/13:29:18.283470;205501;1714768158;283219814;world;-2.46E-05;6.03E-05;-6.18E-05;2.38E-05;0.000434971;-0.014141947;-0.999899983
2024/05/03/13:29:18.313832;205502;1714768158;313513865;world;-4.21E-05;7.40E-05;-6.15E-05;-5.19E-05;0.000376864;-0.016642453;-0.999861479
2024/05/03/13:29:18.313862;205503;1714768158;313549471;world;-0.000162147;4.88E-05;-0.000108412;0.000203711;0.000262273;-0.019147033;-0.999816597
2024/05/03/13:29:18.323602;205504;1714768158;323320114;world;-0.000201903;5.03E-05;-0.000116877;0.000170735;0.000372601;-0.020370593;-0.999792397
2024/05/03/13:29:18.343679;205505;1714768158;343316869;world;-0.000258625;1.20E-05;-0.000135336;0.000362192;0.000433288;-0.022896906;-0.99973768
2024/05/03/13:29:18.363614;205506;1714768158;363282546;world;-0.000307474;-6.36E-06;-0.000134215;0.000505063;0.000485642;-0.025347995;-0.999678493
2024/05/03/13:29:18.383281;205507;1714768158;383022416;world;-0.000290971;4.36E-06;-0.000130233;0.000420142;0.00032544;-0.027847989;-0.999612033
2024/05/03/13:29:18.393373;205508;1714768158;393123558;world;-0.000266921;5.02E-05;-0.00011724;0.000407706;0.000460782;-0.030374343;-0.999538422
2024/05/03/13:29:18.413539;205509;1714768158;413138775;world;-0.000250239;7.25E-05;-0.000135115;0.000293873;0.000419055;-0.0328837;-0.999459088
2024/05/03/13:29:18.423428;205510;1714768158;423125416;world;-0.00020694;8.78E-05;-0.00016192;0.000310388;0.000257943;-0.035372093;-0.999374211
2024/05/03/13:29:18.443342;205511;1714768158;442953781;world;-0.00036164;2.81E-05;-0.000180551;0.000814701;0.000554865;-0.037602767;-0.999292374
2024/05/03/13:29:18.453199;205512;1714768158;452978832;world;-0.00033151;3.45E-05;-0.000174206;0.000695263;0.00052556;-0.038835537;-0.999245286
2024/05/03/13:29:18.473191;205513;1714768158;472930433;world;-0.000374123;1.76E-05;-0.000187467;0.000666742;0.000532028;-0.04099723;-0.999158978
2024/05/03/13:29:18.483937;205514;1714768158;483639194;world;-0.000314862;3.71E-05;-0.000160169;0.000587942;0.00039819;-0.043261271;-0.999063551
2024/05/03/13:29:18.513345;205515;1714768158;513043130;world;-0.000279628;1.91E-05;-0.00017819;0.000676608;0.000531385;-0.046349373;-0.998924911
2024/05/03/13:29:18.523819;205516;1714768158;523224581;world;-0.000260413;1.95E-05;-0.000168118;0.000582948;0.000550435;-0.047367774;-0.998877227
2024/05/03/13:29:18.533306;205517;1714768158;532971949;world;-0.000298973;1.99E-05;-0.000135081;0.000656629;0.000751802;-0.04933558;-0.99878186
2024/05/03/13:29:18.553371;205518;1714768158;553076332;world;-0.000287153;5.95E-05;-0.000180103;0.000378176;0.000549137;-0.051294647;-0.998683393
2024/05/03/13:29:18.563547;205519;1714768158;563281281;world;-0.000278853;4.22E-05;-0.000167798;0.00031633;0.000564708;-0.053089179;-0.998589575
2024/05/03/13:29:18.593467;205520;1714768158;593163985;world;-0.000242975;4.59E-05;-0.000153132;0.000245323;0.000583865;-0.054917134;-0.99849081
2024/05/03/13:29:18.593478;205521;1714768158;593202476;world;-0.000225335;6.08E-05;-0.000144975;0.000182235;0.000614594;-0.055785101;-0.99844259
2024/05/03/13:29:18.623705;205522;1714768158;623361645;world;-0.000343785;-6.12E-06;-0.000187804;0.000512002;0.000732197;-0.057501066;-0.998345017
2024/05/03/13:29:18.623730;205523;1714768158;623396389;world;-0.00037992;-1.26E-05;-0.000189672;0.000533581;0.000721823;-0.059131686;-0.998249829
2024/05/03/13:29:18.644320;205524;1714768158;643887504;world;-0.000472862;-6.77E-05;-0.000196653;0.000947752;0.001000034;-0.060714424;-0.998154223
2024/05/03/13:29:18.653651;205525;1714768158;653311839;world;-0.000512984;-5.60E-05;-0.000200841;0.000917858;0.000986506;-0.062338121;-0.998054147
2024/05/03/13:29:18.673448;205526;1714768158;673168625;world;-0.000552185;-9.87E-05;-0.000194717;0.001022602;0.001111701;-0.063988492;-0.997949541
2024/05/03/13:29:18.693288;205527;1714768158;692973234;world;-0.000546206;-7.14E-05;-0.000159865;0.000958897;0.00108946;-0.065683976;-0.997839451
2024/05/03/13:29:18.713535;205528;1714768158;713161080;world;-0.000528011;-7.94E-05;-0.000158482;0.000975754;0.001118717;-0.06650421;-0.997785091
2024/05/03/13:29:18.734051;205529;1714768158;732942627;world;-0.000514973;-6.20E-05;-0.000161433;0.000924825;0.001095425;-0.06807977;-0.997678936
2024/05/03/13:29:18.734076;205530;1714768158;732980647;world;-0.000530757;-6.68E-05;-0.000180025;0.000779689;0.001020559;-0.06956134;-0.997576892
2024/05/03/13:29:18.753591;205531;1714768158;753310212;world;-0.000517663;-6.06E-05;-0.000173023;0.000801403;0.001003392;-0.070972122;-0.997477472
2024/05/03/13:29:18.763140;205532;1714768158;762878225;world;-0.000441503;-3.64E-05;-0.00016927;0.000667778;0.000909267;-0.072437927;-0.99737227
2024/05/03/13:29:18.793390;205533;1714768158;793112678;world;-0.00032736;-2.16E-06;-0.000126465;0.000501774;0.000877286;-0.073883571;-0.997266412
2024/05/03/13:29:18.803679;205534;1714768158;803393562;world;-0.00035369;-4.20E-07;-0.000147649;0.000671113;0.000902227;-0.075296372;-0.997160554
2024/05/03/13:29:18.833266;205535;1714768158;832947627;world;-0.000237662;5.42E-05;-0.000149857;0.000422205;0.000644738;-0.076886639;-0.997039616
2024/05/03/13:29:18.833289;205536;1714768158;832981270;world;-0.00026172;3.22E-05;-0.000149844;0.000498091;0.000819674;-0.078282975;-0.996930778
2024/05/03/13:29:18.843451;205537;1714768158;843083429;world;-0.000253718;2.43E-05;-0.000150755;0.000490275;0.000822727;-0.078971088;-0.996876478
2024/05/03/13:29:18.863425;205538;1714768158;863110974;world;-0.000285491;2.26E-05;-0.000149917;0.000755397;0.000722439;-0.080440812;-0.996758878
2024/05/03/13:29:18.873650;205539;1714768158;873337988;world;-0.000318009;3.09E-05;-0.000126676;0.000906954;0.000892708;-0.081782922;-0.996649444
2024/05/03/13:29:18.893630;205540;1714768158;893032205;world;-0.000433072;-1.85E-05;-0.000140179;0.001205093;0.001015592;-0.083166748;-0.996534467
2024/05/03/13:29:18.923557;205541;1714768158;923103829;world;-0.000426266;-3.22E-05;-0.000128344;0.001176378;0.001063343;-0.084487192;-0.996423304
2024/05/03/13:29:18.933203;205542;1714768158;932889832;world;-0.000441313;-2.72E-05;-0.000139317;0.001152351;0.000985354;-0.085959166;-0.996297538
2024/05/03/13:29:18.943370;205543;1714768158;943072931;world;-0.000553232;-7.86E-05;-0.000164382;0.001425532;0.001130694;-0.087293036;-0.996181011
2024/05/03/13:29:18.953273;205544;1714768158;952962718;world;-0.000557736;-7.91E-05;-0.000168815;0.001477453;0.001176626;-0.087966219;-0.996121705
2024/05/03/13:29:18.973565;205545;1714768158;973278200;world;-0.000546992;-7.75E-05;-0.00019491;0.001392741;0.001191532;-0.08938311;-0.995995641
2024/05/03/13:29:19.003783;205546;1714768159;3353125;world;-0.000570498;-5.13E-05;-0.000194997;0.001417706;0.001168085;-0.090658925;-0.995880365
2024/05/03/13:29:19.003805;205547;1714768159;3388030;world;-0.000570625;-7.03E-05;-0.00018162;0.001471442;0.001252771;-0.091889754;-0.995767355
2024/05/03/13:29:19.033547;205548;1714768159;33173589;world;-0.000556372;-7.50E-05;-0.000189667;0.001448159;0.00123031;-0.093197405;-0.995645821
2024/05/03/13:29:19.033578;205549;1714768159;33216909;world;-0.000574343;-6.83E-05;-0.000212324;0.001507571;0.001327806;-0.094439559;-0.995528638
2024/05/03/13:29:19.053179;205550;1714768159;52879037;world;-0.000562437;-7.03E-05;-0.000215014;0.001438397;0.001302545;-0.095664136;-0.995411813
2024/05/03/13:29:19.063387;205551;1714768159;63085654;world;-0.000571579;-8.34E-05;-0.000222984;0.001452849;0.001478285;-0.096942753;-0.995287776
2024/05/03/13:29:19.083980;205552;1714768159;83684711;world;-0.000595177;-9.89E-05;-0.000215114;0.001696319;0.001638423;-0.09821292;-0.995162606
2024/05/03/13:29:19.103619;205553;1714768159;103293699;world;-0.000558548;-7.48E-05;-0.000202356;0.001509533;0.001588602;-0.099533454;-0.995031834
2024/05/03/13:29:19.143560;205554;1714768159;143301633;world;-0.000578634;-7.07E-05;-0.000207304;0.001560714;0.001657433;-0.100865468;-0.994897544
2024/05/03/13:29:19.143583;205556;1714768159;143344733;world;-0.000552393;-5.53E-05;-0.000164176;0.001555532;0.001569643;-0.102912419;-0.994688034
2024/05/03/13:29:19.163235;205557;1714768159;162921757;world;-0.000618117;-6.19E-05;-0.000169833;0.001564871;0.001585883;-0.104265936;-0.994547009
2024/05/03/13:29:19.173229;205558;1714768159;172935859;world;-0.000647122;-4.18E-05;-0.000197046;0.001583121;0.001667343;-0.105663069;-0.994399369
2024/05/03/13:29:19.193473;205559;1714768159;193148361;world;-0.00067793;-5.66E-05;-0.000198524;0.001681823;0.001696368;-0.106998421;-0.994256318
2024/05/03/13:29:19.203923;205560;1714768159;203285550;world;-0.000643495;-4.96E-05;-0.00019862;0.00149445;0.001612995;-0.107651524;-0.994186282
2024/05/03/13:29:19.243679;205561;1714768159;243118514;world;-0.000646982;-6.81E-05;-0.000196372;0.001576949;0.001718243;-0.108995542;-0.994039536
2024/05/03/13:29:19.243701;205562;1714768159;243152507;world;-0.000623453;-4.84E-05;-0.000207326;0.001500287;0.001527393;-0.110341057;-0.993891478
2024/05/03/13:29:19.253215;205563;1714768159;252900690;world;-0.000634339;-9.32E-05;-0.000239243;0.001488159;0.001495112;-0.111716591;-0.993737936
2024/05/03/13:29:19.263587;205564;1714768159;263261210;world;-0.000660688;-0.000140306;-0.000266431;0.001557266;0.001526751;-0.11301063;-0.993591368
2024/05/03/13:29:19.283494;205565;1714768159;283164922;world;-0.000729019;-0.000189582;-0.000277588;0.001714527;0.00162754;-0.114266567;-0.993447363
2024/05/03/13:29:19.303911;205566;1714768159;303461091;world;-0.000731658;-0.000204379;-0.000282225;0.001836776;0.001690552;-0.115578026;-0.993295252
2024/05/03/13:29:19.313322;205567;1714768159;312914367;world;-0.000736209;-0.000193471;-0.000302913;0.001996764;0.001644268;-0.1170073;-0.993127704
2024/05/03/13:29:19.343317;205568;1714768159;342991637;world;-0.000753248;-0.000194389;-0.000289112;0.001982446;0.001756256;-0.117694259;-0.993046343
2024/05/03/13:29:19.353675;205569;1714768159;353385320;world;-0.000741787;-0.000159826;-0.000255281;0.001814821;0.001718698;-0.118981183;-0.992893398
2024/05/03/13:29:19.363638;205570;1714768159;362990085;world;-0.000800669;-0.000155432;-0.000244873;0.00200496;0.001930374;-0.120218553;-0.992743611
2024/05/03/13:29:19.373708;205571;1714768159;373347840;world;-0.000801159;-0.000136795;-0.000245578;0.001827241;0.001853577;-0.121529564;-0.992584407
2024/05/03/13:29:19.393962;205572;1714768159;393510863;world;-0.000738297;-0.000128756;-0.000202905;0.001759736;0.001634876;-0.122939192;-0.992411375
2024/05/03/13:29:19.413477;205573;1714768159;413216711;world;-0.000735369;-0.000121238;-0.000186741;0.001690997;0.001648795;-0.124318406;-0.992239594
2024/05/03/13:29:19.453457;205574;1714768159;453172242;world;-0.000698067;-9.54E-05;-0.000192583;0.001458752;0.001581836;-0.125688866;-0.992067456
2024/05/03/13:29:19.453465;205576;1714768159;453216404;world;-0.000709437;-0.000114702;-0.000210019;0.001588821;0.001670876;-0.12774384;-0.991804481
2024/05/03/13:29:19.473293;205577;1714768159;472979057;world;-0.000810023;-0.000183495;-0.000256412;0.001858951;0.001930676;-0.129009455;-0.991639793
2024/05/03/13:29:19.483452;205578;1714768159;483177989;world;-0.000797272;-0.000195801;-0.000242931;0.001766733;0.001957724;-0.130330458;-0.991467118
2024/05/03/13:29:19.503981;205579;1714768159;503546841;world;-0.000778481;-0.00020583;-0.000257058;0.001711446;0.001881116;-0.131596208;-0.991300166
2024/05/03/13:29:19.513384;205580;1714768159;513093880;world;-0.000702903;-0.000157826;-0.00024716;0.001342876;0.001594689;-0.132999718;-0.991113961
2024/05/03/13:29:19.533666;205581;1714768159;533371564;world;-0.000742637;-0.000219902;-0.000255434;0.001534106;0.001754962;-0.134300321;-0.990937948
2024/05/03/13:29:19.553312;205582;1714768159;552988227;world;-0.000612758;-0.000159714;-0.000203492;0.001128056;0.001314248;-0.135749966;-0.990741611
2024/05/03/13:29:19.563475;205583;1714768159;563112194;world;-0.000630971;-0.000179513;-0.000233351;0.001225508;0.001400819;-0.137068614;-0.990559876
2024/05/03/13:29:19.583761;205584;1714768159;583448623;world;-0.000626247;-0.000165991;-0.000217729;0.001177787;0.001352879;-0.137762576;-0.990463734
2024/05/03/13:29:19.593829;205585;1714768159;593553965;world;-0.00058217;-0.000108495;-0.000210602;0.000944335;0.001248869;-0.139154986;-0.990269423
2024/05/03/13:29:19.613221;205586;1714768159;612918052;world;-0.0005695;-9.24E-05;-0.000208869;0.000969437;0.001252972;-0.141023144;-0.990005076
2024/05/03/13:29:19.633392;205587;1714768159;633067849;world;-0.00054916;-6.75E-05;-0.000201334;0.001048002;0.001253899;-0.141726181;-0.989904583
2024/05/03/13:29:19.653484;205588;1714768159;653161103;world;-0.000604074;-9.73E-05;-0.000224219;0.001251554;0.001227959;-0.143115327;-0.989704549
2024/05/03/13:29:19.663700;205589;1714768159;663387054;world;-0.000636086;-0.000101595;-0.000224385;0.001378183;0.001198879;-0.144495651;-0.989503741
2024/05/03/13:29:19.673513;205590;1714768159;672905632;world;-0.000625622;-8.96E-05;-0.000232423;0.001390254;0.001118568;-0.145782307;-0.989315152
2024/05/03/13:29:19.693180;205591;1714768159;692894913;world;-0.000652447;-0.000139669;-0.000249329;0.001431714;0.001171269;-0.147156924;-0.989111483
2024/05/03/13:29:19.713660;205592;1714768159;713333851;world;-0.000649132;-0.000122949;-0.000247007;0.001427262;0.001075047;-0.148536697;-0.988905311
2024/05/03/13:29:19.713667;205593;1714768159;713390686;world;-0.000673555;-0.000140922;-0.000231846;0.001434334;0.001082753;-0.149149641;-0.988812983
2024/05/03/13:29:19.753168;205594;1714768159;752860469;world;-0.000650987;-0.000163362;-0.000235736;0.001352397;0.001068044;-0.150419891;-0.988620698
2024/05/03/13:29:19.763288;205595;1714768159;762996651;world;-0.000612255;-0.000151873;-0.000247269;0.001326694;0.000986401;-0.151777774;-0.988413274
2024/05/03/13:29:19.763295;205596;1714768159;763026285;world;-0.000606228;-0.000198495;-0.000242987;0.001417513;0.001058113;-0.153118327;-0.988206327
2024/05/03/13:29:19.784445;205597;1714768159;784159077;world;-0.000565145;-0.000138858;-0.000246116;0.00126001;0.000858062;-0.154437318;-0.988001406
2024/05/03/13:29:19.803594;205598;1714768159;803251529;world;-0.000550207;-0.000117612;-0.000242522;0.001160753;0.000864291;-0.155690953;-0.98780477
2024/05/03/13:29:19.823730;205599;1714768159;823108491;world;-0.000511646;-0.000109396;-0.000235371;0.000964621;0.00082012;-0.156935573;-0.987608016
2024/05/03/13:29:19.853381;205600;1714768159;853069416;world;-0.00050975;-0.000119444;-0.00022363;0.000975743;0.000921381;-0.157521531;-0.987514734
2024/05/03/13:29:19.853393;205601;1714768159;853102998;world;-0.000476874;-6.67E-05;-0.000200665;0.000890117;0.000827498;-0.158787772;-0.987312078
2024/05/03/13:29:19.863518;205602;1714768159;863237911;world;-0.000461038;-2.47E-05;-0.000178024;0.000848894;0.000848199;-0.160128921;-0.987095356
2024/05/03/13:29:19.873375;205603;1714768159;873043459;world;-0.000463158;2.13E-05;-0.000138805;0.000856754;0.000956142;-0.161464736;-0.98687762
2024/05/03/13:29:19.893728;205604;1714768159;893320180;world;-0.000432599;3.79E-05;-0.000123278;0.000802958;0.000945927;-0.162751511;-0.986666381
2024/05/03/13:29:19.903179;205605;1714768159;902884683;world;-0.000444457;3.70E-05;-0.000111946;0.000811434;0.001028644;-0.16407308;-0.986447334
2024/05/03/13:29:19.923286;205606;1714768159;922980390;world;-0.000414498;5.38E-05;-0.000109925;0.000743761;0.001006822;-0.165373415;-0.986230314
2024/05/03/13:29:19.953249;205607;1714768159;952957324;world;-0.00040926;4.81E-05;-0.000119856;0.000685439;0.000967225;-0.166021973;-0.986121356
2024/05/03/13:29:19.953272;205608;1714768159;952991858;world;-0.000417694;1.61E-05;-0.00013582;0.000753876;0.000949095;-0.167351738;-0.985896528
2024/05/03/13:29:19.973249;205609;1714768159;972941448;world;-0.000404134;1.96E-05;-0.000121932;0.000710154;0.000920349;-0.168669164;-0.985672116
2024/05/03/13:29:19.983400;205610;1714768159;983123469;world;-0.00040783;-3.57E-05;-0.000100404;0.000861268;0.000955323;-0.169986203;-0.985445619
2024/05/03/13:29:20.003539;205611;1714768160;3234876;world;-0.000448648;-3.47E-05;-0.000111171;0.000893976;0.000977203;-0.171306655;-0.985216856
2024/05/03/13:29:20.023706;205612;1714768160;23401514;world;-0.00044797;-9.04E-05;-0.00013431;0.001020576;0.001004929;-0.172564879;-0.984997153
2024/05/03/13:29:20.033287;205613;1714768160;32974163;world;-0.000537746;-0.000198483;-9.67E-05;0.001071185;0.001142305;-0.173787385;-0.98478204
2024/05/03/13:29:20.053318;205614;1714768160;52950803;world;-0.000556059;-0.000210985;-0.000105595;0.001088602;0.001133811;-0.175087243;-0.984551728
2024/05/03/13:29:20.063619;205615;1714768160;63334625;world;-0.000548881;-0.000175673;-0.000176311;0.000979279;0.001267958;-0.176415294;-0.984314561
2024/05/03/13:29:20.083462;205616;1714768160;83207505;world;-0.000536166;-0.000201273;-0.000158497;0.001126651;0.001509124;-0.177694872;-0.984083831
2024/05/03/13:29:20.093325;205617;1714768160;93032447;world;-0.000490442;-0.000175626;-0.00016546;0.000958114;0.00133825;-0.178389981;-0.983958483
2024/05/03/13:29:20.123787;205618;1714768160;123469311;world;-0.000493173;-0.000149429;-0.000244341;0.001069765;0.001318683;-0.180361927;-0.983598828
2024/05/03/13:29:20.123816;205619;1714768160;123517189;world;-0.000477932;-0.00014987;-0.000240294;0.001180077;0.001335963;-0.181031674;-0.983475685
2024/05/03/13:29:20.173235;205620;1714768160;172933893;world;-0.00044984;-0.000133405;-0.00025375;0.001037675;0.001408268;-0.18216759;-0.983265996
2024/05/03/13:29:20.173259;205622;1714768160;172980649;world;-0.000496998;-0.000112471;-0.000227668;0.00103215;0.001386432;-0.18484807;-0.982765615
2024/05/03/13:29:20.193611;205623;1714768160;193311301;world;-0.000474207;-0.000124129;-0.000204001;0.001008929;0.001672231;-0.186231345;-0.982503951
2024/05/03/13:29:20.203567;205624;1714768160;203251827;world;-0.000530552;-0.000244333;-0.000179784;0.001249007;0.001525653;-0.18752712;-0.982257426
2024/05/03/13:29:20.233285;205625;1714768160;232995403;world;-0.000554416;-0.000244312;-0.000175898;0.00141501;0.001582857;-0.188853458;-0.982002974
2024/05/03/13:29:20.263181;205626;1714768160;262866563;world;-0.000591431;-0.000277798;-0.000177778;0.001479983;0.001724977;-0.190031856;-0.981775284
2024/05/03/13:29:20.263216;205628;1714768160;262911726;world;-0.00055873;-0.000200767;-0.000196807;0.001460245;0.001827513;-0.192002773;-0.981391668
2024/05/03/13:29:20.283447;205629;1714768160;283067011;world;-0.000560924;-0.000182349;-0.000234065;0.001260028;0.001641511;-0.193372548;-0.981123269
2024/05/03/13:29:20.293456;205630;1714768160;293147055;world;-0.000552993;-0.000207316;-0.000194094;0.001336277;0.001637684;-0.194097921;-0.980979979
2024/05/03/13:29:20.314170;205631;1714768160;313877170;world;-0.000489898;-0.000197092;-0.000181504;0.001358719;0.001710278;-0.196044952;-0.980592489
2024/05/03/13:29:20.333740;205632;1714768160;333407516;world;-0.000495769;-0.000179577;-0.000212033;0.00119104;0.001511403;-0.19674097;-0.98045361
2024/05/03/13:29:20.353605;205633;1714768160;353309516;world;-0.000500042;-0.000211294;-0.000168835;0.001422301;0.00157188;-0.198053986;-0.980188847
2024/05/03/13:29:20.363310;205634;1714768160;362983391;world;-0.000487093;-0.00019813;-0.000194183;0.00139681;0.001397422;-0.199390039;-0.979918242
2024/05/03/13:29:20.373306;205635;1714768160;372992864;world;-0.000499193;-0.000224029;-0.000191723;0.001335068;0.001509205;-0.200566947;-0.979677916
2024/05/03/13:29:20.393283;205636;1714768160;393007572;world;-0.000538237;-0.000243516;-0.000210764;0.001462587;0.001594829;-0.201851547;-0.979413748
2024/05/03/13:29:20.403192;205637;1714768160;402906050;world;-0.000521012;-0.000258539;-0.000191546;0.001501715;0.001586939;-0.203165963;-0.979141891
2024/05/03/13:29:20.433519;205638;1714768160;433140021;world;-0.000489973;-0.00025133;-0.000180494;0.001600479;0.001646824;-0.204455242;-0.978873253
2024/05/03/13:29:20.443287;205639;1714768160;443027014;world;-0.000535991;-0.000263863;-0.000216319;0.001650582;0.001694217;-0.205671072;-0.978618383
2024/05/03/13:29:20.463398;205640;1714768160;463096880;world;-0.000531439;-0.00026625;-0.000223846;0.00157694;0.001715956;-0.206990749;-0.978340089
2024/05/03/13:29:20.473605;205641;1714768160;473310450;world;-0.000559255;-0.000276347;-0.000219269;0.001613163;0.001803844;-0.208242968;-0.978074193
2024/05/03/13:29:20.483500;205642;1714768160;483054153;world;-0.000553414;-0.000263775;-0.00022374;0.001599452;0.001770536;-0.208931386;-0.977927446
2024/05/03/13:29:20.503382;205643;1714768160;503092837;world;-0.000543758;-0.000276435;-0.000226493;0.001538709;0.00177813;-0.210220233;-0.977651298
2024/05/03/13:29:20.513384;205644;1714768160;513111857;world;-0.000550143;-0.000287708;-0.000283477;0.001709395;0.001609963;-0.211581007;-0.977357686
2024/05/03/13:29:20.533420;205645;1714768160;533152837;world;-0.00056918;-0.000274316;-0.000265095;0.001643707;0.00163373;-0.212859318;-0.977080107
2024/05/03/13:29:20.573507;205646;1714768160;573205958;world;-0.000569955;-0.000250068;-0.000242961;0.001739515;0.001639657;-0.214207202;-0.976785302
2024/05/03/13:29:20.573535;205647;1714768160;573239560;world;-0.000581052;-0.000255072;-0.000268736;0.001881121;0.001576945;-0.215472236;-0.976506889
2024/05/03/13:29:20.583441;205648;1714768160;583116569;world;-0.000587307;-0.000264011;-0.000265913;0.001810083;0.001602274;-0.216706142;-0.9762339
2024/05/03/13:29:20.603360;205649;1714768160;603032416;world;-0.000585128;-0.000264849;-0.00025904;0.00177115;0.001593819;-0.217906609;-0.975966752
2024/05/03/13:29:20.613745;205650;1714768160;613425263;world;-0.000571933;-0.000265468;-0.00025834;0.001768927;0.001570747;-0.218550667;-0.975822806
2024/05/03/13:29:20.633618;205651;1714768160;633142789;world;-0.000562932;-0.000261743;-0.000282749;0.001805572;0.001692123;-0.219811767;-0.975539207
2024/05/03/13:29:20.643353;205652;1714768160;643053639;world;-0.00056091;-0.000288683;-0.000298018;0.001756395;0.001651208;-0.221088856;-0.975250661
2024/05/03/13:29:20.673238;205653;1714768160;672946049;world;-0.000548329;-0.000280249;-0.000299161;0.00169299;0.001543121;-0.222349435;-0.97496438
2024/05/03/13:29:20.683152;205654;1714768160;682831353;world;-0.000540487;-0.00029547;-0.000300975;0.001662879;0.001458045;-0.223595113;-0.974679589
2024/05/03/13:29:20.693289;205655;1714768160;692959025;world;-0.000514433;-0.000291867;-0.000306179;0.001626744;0.00137185;-0.224837467;-0.974394023
2024/05/03/13:29:20.703873;205656;1714768160;703569567;world;-0.000516511;-0.000225076;-0.000295999;0.001653317;0.001285543;-0.226291284;-0.974057436
2024/05/03/13:29:20.724709;205657;1714768160;723461852;world;-0.000530373;-0.000240099;-0.000300319;0.001752869;0.001329414;-0.226936117;-0.973907173
2024/05/03/13:29:20.743753;205658;1714768160;743389913;world;-0.000546925;-0.000254672;-0.000296492;0.001805105;0.001393254;-0.228238091;-0.973602653
2024/05/03/13:29:20.763226;205659;1714768160;762957065;world;-0.000563126;-0.000276852;-0.000274781;0.001948556;0.001427099;-0.229407877;-0.973327458
2024/05/03/13:29:20.763247;205660;1714768160;762990216;world;-0.000565134;-0.000260687;-0.000272691;0.002076222;0.001520005;-0.230732962;-0.973013699
2024/05/03/13:29:20.783612;205661;1714768160;783300589;world;-0.000595089;-0.000264313;-0.000279408;0.00204801;0.001573502;-0.232028157;-0.972705662
2024/05/03/13:29:20.803295;205662;1714768160;802985791;world;-0.000576876;-0.000273737;-0.000283912;0.002023614;0.001627438;-0.233301654;-0.972401023
2024/05/03/13:29:20.813499;205663;1714768160;813213327;world;-0.000577208;-0.000272587;-0.000285882;0.002027995;0.001615883;-0.233952805;-0.972244501
2024/05/03/13:29:20.843296;205664;1714768160;842992659;world;-0.000554416;-0.000253974;-0.00030382;0.002025104;0.001566435;-0.235269517;-0.971926808
2024/05/03/13:29:20.843322;205665;1714768160;843036651;world;-0.000556268;-0.000238847;-0.000304737;0.001981294;0.001434413;-0.236651838;-0.971591473
2024/05/03/13:29:20.873259;205666;1714768160;872950219;world;-0.000540614;-0.000243109;-0.000282376;0.002041046;0.00146694;-0.237981334;-0.971266568
2024/05/03/13:29:20.873283;205667;1714768160;872984011;world;-0.00054742;-0.000262904;-0.000282702;0.002075233;0.001495556;-0.239343226;-0.970931709
2024/05/03/13:29:20.893337;205668;1714768160;893028103;world;-0.000562407;-0.000258341;-0.00029402;0.002091218;0.001505643;-0.240701318;-0.970595777
2024/05/03/13:29:20.903302;205669;1714768160;902996030;world;-0.000540681;-0.000220764;-0.000296826;0.001992129;0.001443861;-0.241951317;-0.970285237
2024/05/03/13:29:20.923609;205670;1714768160;923249967;world;-0.000519276;-0.000208085;-0.000313189;0.001862704;0.001353474;-0.243210495;-0.969970882
2024/05/03/13:29:20.943225;205671;1714768160;942933951;world;-0.000502855;-0.000207849;-0.000286027;0.001907698;0.001436843;-0.244438976;-0.969661772
2024/05/03/13:29:20.983687;205672;1714768160;983363818;world;-0.000510518;-0.000188742;-0.000291302;0.001891717;0.001320945;-0.245100349;-0.969494998
2024/05/03/13:29:20.983696;205674;1714768160;983416135;world;-0.00054374;-0.000173722;-0.00025146;0.002026455;0.001401195;-0.247674212;-0.968840301
2024/05/03/13:29:21.003689;205675;1714768161;3362675;world;-0.000552718;-0.000183515;-0.000242241;0.00205513;0.001360826;-0.248889893;-0.968528688
2024/05/03/13:29:21.013608;205676;1714768161;13322002;world;-0.000554834;-0.000192293;-0.000263493;0.002165239;0.001475556;-0.250219494;-0.968185604
2024/05/03/13:29:21.043572;205677;1714768161;43274152;world;-0.00053915;-0.000230409;-0.000240992;0.002215008;0.001515039;-0.251556069;-0.967839003
2024/05/03/13:29:21.053210;205678;1714768161;52914074;world;-0.000517353;-0.000243818;-0.000239009;0.002260159;0.001494949;-0.252846301;-0.967502654
2024/05/03/13:29:21.073159;205679;1714768161;72864607;world;-0.00052052;-0.000248284;-0.000258049;0.002352509;0.001529968;-0.253538638;-0.967321157
2024/05/03/13:29:21.083384;205680;1714768161;83072366;world;-0.000509348;-0.000264685;-0.000263815;0.002385341;0.001464912;-0.25479123;-0.96699208
2024/05/03/13:29:21.093271;205681;1714768161;92990984;world;-0.000473276;-0.000273361;-0.00026072;0.002361193;0.001373164;-0.256100923;-0.966646194
2024/05/03/13:29:21.113411;205682;1714768161;113102351;world;-0.000447493;-0.000270696;-0.000262812;0.00224992;0.001276701;-0.257350534;-0.966314733
2024/05/03/13:29:21.123650;205683;1714768161;123356488;world;-0.000417016;-0.000251918;-0.000222418;0.002212154;0.001159522;-0.258714467;-0.965950608
2024/05/03/13:29:21.153293;205684;1714768161;152939737;world;-0.000432882;-0.000251556;-0.000247596;0.002204404;0.001154215;-0.259986192;-0.965609193
2024/05/03/13:29:21.173292;205685;1714768161;172911880;world;-0.000438489;-0.000216873;-0.000244515;0.002106766;0.001208953;-0.261153668;-0.965294182
2024/05/03/13:29:21.173302;205686;1714768161;172945853;world;-0.000431553;-0.000218242;-0.000234313;0.002173455;0.001217834;-0.262387484;-0.964959383
2024/05/03/13:29:21.193430;205687;1714768161;193127019;world;-0.00041797;-0.00019443;-0.000214014;0.002070224;0.001268358;-0.263692617;-0.964603722
2024/05/03/13:29:21.203207;205688;1714768161;202882194;world;-0.000409845;-0.000162542;-0.00020576;0.002027556;0.001268054;-0.264286935;-0.96444118
2024/05/03/13:29:21.223606;205689;1714768161;223356833;world;-0.000446886;-0.000167206;-0.000241618;0.00212196;0.001308147;-0.265607834;-0.96407795
2024/05/03/13:29:21.233688;205690;1714768161;233404638;world;-0.000442799;-0.000164888;-0.000237589;0.002139012;0.001283144;-0.266886234;-0.963724852
2024/05/03/13:29:21.253449;205691;1714768161;253145513;world;-0.000411935;-0.00016042;-0.000251907;0.00209057;0.001198012;-0.268219173;-0.963354886
2024/05/03/13:29:21.273647;205692;1714768161;273275756;world;-0.000400096;-0.000137057;-0.000221738;0.001990277;0.001181566;-0.270163178;-0.962811768
2024/05/03/13:29:21.283230;205693;1714768161;282980699;world;-0.000416517;-0.000129759;-0.000217354;0.002058982;0.001222687;-0.270806789;-0.962630749
2024/05/03/13:29:21.303516;205694;1714768161;303227202;world;-0.000375196;-0.00012601;-0.00019832;0.0019964;0.001117084;-0.272078544;-0.962272346
2024/05/03/13:29:21.313626;205695;1714768161;313348707;world;-0.000371568;-0.000117854;-0.000196757;0.001969566;0.001106125;-0.272733778;-0.962086916
2024/05/03/13:29:21.333913;205696;1714768161;333601256;world;-0.000360206;-0.000141562;-0.000188928;0.001998927;0.001106634;-0.273962557;-0.961737692
2024/05/03/13:29:21.353306;205697;1714768161;352963172;world;-0.000368752;-0.000152357;-0.000201451;0.002045564;0.001093156;-0.275206417;-0.961382449
2024/05/03/13:29:21.384473;205698;1714768161;384145982;world;-0.000347238;-0.000124566;-0.000162882;0.001987381;0.001087162;-0.276979655;-0.960873127
2024/05/03/13:29:21.384506;205699;1714768161;384189292;world;-0.000344373;-0.000121141;-0.000173471;0.001995385;0.001045936;-0.277635306;-0.960683882
2024/05/03/13:29:21.393463;205700;1714768161;393158529;world;-0.000337485;-0.000126295;-0.00015019;0.002071521;0.001171415;-0.278843164;-0.960333705
2024/05/03/13:29:21.413128;205701;1714768161;412867445;world;-0.000313483;-9.32E-05;-0.000121094;0.002165944;0.001129459;-0.280162007;-0.959949613
2024/05/03/13:29:21.423439;205702;1714768161;423126535;world;-0.000340398;-0.000141334;-0.000157508;0.002279784;0.001200872;-0.281457633;-0.959570229
2024/05/03/13:29:21.433205;205703;1714768161;432950911;world;-0.000325885;-0.000127582;-0.000151041;0.002272316;0.001210079;-0.282104582;-0.959380269
2024/05/03/13:29:21.454023;205704;1714768161;453657228;world;-0.000357509;-0.000148369;-0.000150462;0.002275951;0.001303866;-0.28397584;-0.958827913
2024/05/03/13:29:21.493520;205705;1714768161;493111828;world;-0.000387792;-0.000171869;-0.000177005;0.002244925;0.001293634;-0.284653932;-0.958626866
2024/05/03/13:29:21.493550;205706;1714768161;493141293;world;-0.000400845;-0.000208619;-0.000188485;0.002240922;0.001361551;-0.285897851;-0.958256602
2024/05/03/13:29:21.504079;205707;1714768161;503764139;world;-0.000422608;-0.000156986;-0.000195686;0.002160402;0.001419598;-0.287922204;-0.957650304
2024/05/03/13:29:21.513214;205708;1714768161;513036613;world;-0.000428122;-0.000159214;-0.000207517;0.002117411;0.001412169;-0.288570255;-0.957455337
2024/05/03/13:29:21.533267;205709;1714768161;533027688;world;-0.000452187;-0.000148947;-0.000197429;0.002181761;0.00147734;-0.2898072;-0.957081437
2024/05/03/13:29:21.563447;205710;1714768161;563137591;world;-0.000464495;-0.000118906;-0.000219214;0.002116094;0.001420932;-0.291146219;-0.956675172
2024/05/03/13:29:21.563476;205711;1714768161;563170923;world;-0.000453468;-0.000118228;-0.000240995;0.002099178;0.001389756;-0.292440683;-0.956280351
2024/05/03/13:29:21.603441;205712;1714768161;603139301;world;-0.00047392;-0.000109518;-0.000229512;0.002138274;0.001402739;-0.293046027;-0.95609498
2024/05/03/13:29:21.603462;205713;1714768161;603183372;world;-0.000463244;-9.27E-05;-0.000231325;0.002079198;0.00132747;-0.294264942;-0.955720782
2024/05/03/13:29:21.613234;205714;1714768161;612972870;world;-0.000446059;-8.16E-05;-0.000254296;0.002033653;0.001268792;-0.295498133;-0.955340385
2024/05/03/13:29:21.623348;205715;1714768161;623055289;world;-0.000464823;-8.84E-05;-0.000230369;0.002104359;0.001299066;-0.296665162;-0.954978347
2024/05/03/13:29:21.643446;205716;1714768161;643217290;world;-0.000425097;-8.56E-05;-0.000224018;0.002270433;0.001295739;-0.297997504;-0.954563081
2024/05/03/13:29:21.663335;205717;1714768161;663036871;world;-0.000408113;-0.000109243;-0.000211421;0.002307692;0.001300314;-0.299304575;-0.954154015
2024/05/03/13:29:21.703575;205718;1714768161;703190982;world;-0.000421531;-0.00013556;-0.000230989;0.00244469;0.001207298;-0.300672144;-0.953723669
2024/05/03/13:29:21.703596;205720;1714768161;703242597;world;-0.000452176;-0.000125955;-0.000212986;0.002554985;0.001291258;-0.302637428;-0.953101456
2024/05/03/13:29:21.723770;205721;1714768161;723345680;world;-0.000459611;-0.000137776;-0.000197502;0.00250198;0.001382519;-0.303859025;-0.952712715
2024/05/03/13:29:21.733157;205722;1714768161;732866462;world;-0.000447869;-0.000150413;-0.000201555;0.002650656;0.001324756;-0.305173308;-0.952292204
2024/05/03/13:29:21.763284;205723;1714768161;762903408;world;-0.000435747;-0.000152712;-0.000212932;0.002593356;0.00130525;-0.306348085;-0.951915205
2024/05/03/13:29:21.763309;205724;1714768161;762945947;world;-0.000439659;-0.000145611;-0.000196337;0.002558413;0.001364832;-0.30761236;-0.95150739
2024/05/03/13:29:21.803817;205725;1714768161;803540230;world;-0.000452641;-0.0001231;-0.000201384;0.002473898;0.001366948;-0.308864176;-0.951101959
2024/05/03/13:29:21.813645;205726;1714768161;813354323;world;-0.000431385;-0.000130405;-0.000180388;0.002509521;0.001478303;-0.310180873;-0.950673163
2024/05/03/13:29:21.813674;205727;1714768161;813386302;world;-0.000439294;-0.000154634;-0.000143508;0.002631264;0.001372111;-0.311622024;-0.950201511
2024/05/03/13:29:21.833715;205728;1714768161;833395133;world;-0.000442747;-0.000170112;-0.000133343;0.002619048;0.00139242;-0.312250853;-0.949995041
2024/05/03/13:29:21.843641;205729;1714768161;843342978;world;-0.000443138;-0.000170574;-0.000130381;0.002630612;0.001371554;-0.313480198;-0.949590147
2024/05/03/13:29:21.863737;205730;1714768161;863386786;world;-0.000418872;-0.000206511;-0.000118539;0.002591405;0.001388853;-0.31478551;-0.949158311
2024/05/03/13:29:21.903250;205731;1714768161;902975564;world;-0.000397451;-0.000200428;-0.000100224;0.002574122;0.001450415;-0.316012114;-0.948750615
2024/05/03/13:29:21.903274;205732;1714768161;903009276;world;-0.00042133;-0.000207422;-0.000125052;0.002587796;0.001570146;-0.317362428;-0.948299468
2024/05/03/13:29:21.913203;205733;1714768161;912915579;world;-0.000398993;-0.000224277;-0.000128541;0.002548199;0.001616465;-0.318612516;-0.947880328
2024/05/03/13:29:21.923471;205734;1714768161;923168873;world;-0.00038863;-0.000214274;-0.000136333;0.002545065;0.001566652;-0.319851726;-0.947462976
2024/05/03/13:29:21.943459;205735;1714768161;943137319;world;-0.000369217;-0.000190758;-0.000128057;0.002439199;0.001500862;-0.321067154;-0.947052121
2024/05/03/13:29:21.963862;205736;1714768161;963501454;world;-0.000329118;-0.000171017;-9.92E-05;0.002436255;0.001346691;-0.321695715;-0.946839094
2024/05/03/13:29:21.973305;205737;1714768161;972990286;world;-0.000342861;-0.000143442;-0.000141363;0.002314678;0.001340011;-0.322955281;-0.946410537
2024/05/03/13:29:21.993308;205738;1714768161;992929758;world;-0.000354521;-0.000135222;-0.000122432;0.002285294;0.001243392;-0.324112147;-0.94601506
2024/05/03/13:29:22.003779;205739;1714768162;3148038;world;-0.000340484;-0.000140928;-0.000115206;0.002274827;0.001287382;-0.325222969;-0.945633829
2024/05/03/13:29:22.013397;205740;1714768162;13082299;world;-0.000363737;-0.000127895;-9.75E-05;0.002368301;0.001441982;-0.32654193;-0.945178628
2024/05/03/13:29:22.033359;205741;1714768162;32914668;world;-0.000398997;-0.000151821;-0.000111651;0.002528581;0.001564971;-0.327833265;-0.944730937
2024/05/03/13:29:22.043731;205742;1714768162;42923100;world;-0.000385962;-0.000185721;-0.000123721;0.002649163;0.001553752;-0.329167545;-0.944266558
2024/05/03/13:29:22.073285;205743;1714768162;72991979;world;-0.000390358;-0.00016405;-0.000129828;0.002650436;0.001555185;-0.330430895;-0.943825185
2024/05/03/13:29:22.084020;205744;1714768162;83743190;world;-0.000384673;-0.000167276;-0.000139481;0.002671107;0.001576122;-0.331022114;-0.94361788
2024/05/03/13:29:22.093405;205745;1714768162;93097006;world;-0.000387885;-0.000181602;-0.0001188;0.002788788;0.001685485;-0.332242191;-0.943188488
2024/05/03/13:29:22.113686;205746;1714768162;113394048;world;-0.000403747;-0.000173048;-0.000116606;0.002803327;0.001754197;-0.333580762;-0.942715764
2024/05/03/13:29:22.123428;205747;1714768162;123081329;world;-0.000387743;-0.000152469;-0.000131098;0.002604851;0.001567545;-0.3348656;-0.94226104
2024/05/03/13:29:22.143513;205748;1714768162;143128049;world;-0.000334091;-0.000124331;-0.000122935;0.00244193;0.00143994;-0.336216569;-0.941780448
2024/05/03/13:29:22.163980;205749;1714768162;163423849;world;-0.000351012;-0.000128006;-0.000125673;0.00246056;0.00136611;-0.337465435;-0.941333711
2024/05/03/13:29:22.173346;205750;1714768162;173041119;world;-0.000403788;-0.000149886;-0.000140665;0.002520395;0.001395232;-0.338801146;-0.940853655
2024/05/03/13:29:22.193730;205751;1714768162;193419441;world;-0.000416104;-0.000167369;-0.000136996;0.002628699;0.001436019;-0.339395046;-0.940639198
2024/05/03/13:29:22.203681;205752;1714768162;203337558;world;-0.000388499;-0.000160221;-0.000143173;0.002540662;0.00130799;-0.341248423;-0.939968824
2024/05/03/13:29:22.223202;205753;1714768162;222931297;world;-0.000361629;-0.000153709;-0.00015158;0.00257816;0.00129793;-0.34185943;-0.939746737
2024/05/03/13:29:22.233525;205754;1714768162;233258513;world;-0.000350147;-0.000143393;-0.000145584;0.002492097;0.001224283;-0.343123138;-0.939286411
2024/05/03/13:29:22.253352;205755;1714768162;253097760;world;-0.00031326;-0.00011857;-0.000112114;0.002357761;0.001076531;-0.344324708;-0.938847065
2024/05/03/13:29:22.273320;205756;1714768162;273028757;world;-0.000281312;-9.81E-05;-0.000102675;0.002333241;0.001085594;-0.345510632;-0.938411295
2024/05/03/13:29:22.284006;205757;1714768162;283241085;world;-0.000281021;-9.64E-05;-8.76E-05;0.00233486;0.001148222;-0.346700758;-0.937972188
2024/05/03/13:29:22.294025;205758;1714768162;293655957;world;-0.000317764;-8.94E-05;-7.75E-05;0.002353069;0.001110018;-0.347898722;-0.937528551
2024/05/03/13:29:22.323161;205759;1714768162;322906296;world;-0.000346631;-0.000147284;-9.61E-05;0.002419349;0.001363808;-0.349223703;-0.937035322
2024/05/03/13:29:22.333215;205760;1714768162;332911481;world;-0.000371993;-0.000138657;-0.000106243;0.002351661;0.001387853;-0.349858582;-0.936798513
2024/05/03/13:29:22.343508;205761;1714768162;343029437;world;-0.000344265;-0.000104325;-0.000105106;0.002315204;0.001426513;-0.351175785;-0.936305583
2024/05/03/13:29:22.363905;205762;1714768162;363680712;world;-0.000341151;-8.73E-05;-0.000119364;0.002212655;0.001406778;-0.35253188;-0.935796201
2024/05/03/13:29:22.383532;205763;1714768162;383190518;world;-0.000349756;-7.36E-05;-0.000104692;0.002221581;0.001517196;-0.354372412;-0.935100496
2024/05/03/13:29:22.403213;205764;1714768162;402903095;world;-0.000366196;-0.000114234;-0.000110531;0.002323772;0.001453012;-0.355023324;-0.934853435
2024/05/03/13:29:22.413169;205765;1714768162;412872536;world;-0.000368427;-0.000149312;-9.18E-05;0.002497141;0.001606491;-0.356249601;-0.934386194
2024/05/03/13:29:22.423214;205766;1714768162;422917395;world;-0.000361949;-0.000179426;-0.000121886;0.002572391;0.001621544;-0.357513934;-0.93390286
2024/05/03/13:29:22.443353;205767;1714768162;443009700;world;-0.000363469;-0.000215513;-0.000124527;0.002532558;0.001608682;-0.358864158;-0.933384955
2024/05/03/13:29:22.453364;205768;1714768162;453063226;world;-0.000361726;-0.000211628;-0.000126458;0.002597618;0.001610379;-0.359443188;-0.933161974
2024/05/03/13:29:22.483700;205769;1714768162;483329949;world;-0.000360213;-0.000240439;-0.000155587;0.002699589;0.001672789;-0.360716462;-0.932670176
2024/05/03/13:29:22.483726;205770;1714768162;483367458;world;-0.000351753;-0.000261944;-0.000134853;0.002766762;0.001617092;-0.361933887;-0.932198286
2024/05/03/13:29:22.503360;205771;1714768162;503050908;world;-0.000363208;-0.000249108;-0.00013465;0.002698601;0.001617526;-0.36387524;-0.93144238
2024/05/03/13:29:22.524657;205772;1714768162;523919805;world;-0.000349842;-0.000253813;-0.000136015;0.002774006;0.00156176;-0.364499003;-0.931198359
2024/05/03/13:29:22.533569;205773;1714768162;533268079;world;-0.000378124;-0.00025152;-0.000139967;0.002772611;0.001577171;-0.36568287;-0.930734038
2024/05/03/13:29:22.553462;205774;1714768162;553028892;world;-0.000379242;-0.000263877;-0.00013508;0.002802533;0.001508531;-0.366861343;-0.930270195
2024/05/03/13:29:22.563453;205775;1714768162;563148981;world;-0.000366315;-0.000251792;-0.000116013;0.00283851;0.001604106;-0.368037105;-0.929805458
2024/05/03/13:29:22.583570;205776;1714768162;583332072;world;-0.000431225;-0.000234003;-0.000104506;0.002758351;0.001577733;-0.369297653;-0.929305792
2024/05/03/13:29:22.613593;205777;1714768162;613257878;world;-0.000441041;-0.000237269;-0.000129265;0.002726502;0.001560791;-0.36984545;-0.929087996
2024/05/03/13:29:22.613622;205778;1714768162;613308161;world;-0.000417456;-0.000226934;-0.000146635;0.002810944;0.001558558;-0.371094972;-0.928589344
2024/05/03/13:29:22.623542;205779;1714768162;623247344;world;-0.000400856;-0.000224626;-0.000152397;0.002788638;0.001556831;-0.372336745;-0.928092241
2024/05/03/13:29:22.643572;205780;1714768162;643156180;world;-0.000422433;-0.000223078;-0.00016573;0.002918177;0.001530202;-0.373586804;-0.927589357
2024/05/03/13:29:22.653488;205781;1714768162;653181694;world;-0.000383947;-0.000192069;-0.000135843;0.002866552;0.001472241;-0.374944985;-0.927041471
2024/05/03/13:29:22.683583;205782;1714768162;682995893;world;-0.000432163;-0.000294194;-8.20E-05;0.003253139;0.001611196;-0.37604031;-0.926596224
2024/05/03/13:29:22.693126;205783;1714768162;692876779;world;-0.000423085;-0.000331913;-8.60E-05;0.003294818;0.001720357;-0.377302796;-0.926082492
2024/05/03/13:29:22.703240;205784;1714768162;702998842;world;-0.000402018;-0.000333642;-6.96E-05;0.003229225;0.001711875;-0.377910018;-0.925835133
2024/05/03/13:29:22.723400;205785;1714768162;723127914;world;-0.000413537;-0.000335904;-6.60E-05;0.003284568;0.001766142;-0.379114777;-0.925342143
2024/05/03/13:29:22.733499;205786;1714768162;733196568;world;-0.000425193;-0.000357767;-6.74E-05;0.003283978;0.001783422;-0.380331457;-0.924842775
2024/05/03/13:29:22.753577;205787;1714768162;753287379;world;-0.000408903;-0.000381867;-8.14E-05;0.003382606;0.001896906;-0.381548673;-0.924340606
2024/05/03/13:29:22.773672;205788;1714768162;773284550;world;-0.000424225;-0.000410905;-0.000100984;0.003353494;0.001952605;-0.382638723;-0.923889875
2024/05/03/13:29:22.793428;205789;1714768162;793166785;world;-0.000432324;-0.000419584;-0.000125157;0.003400177;0.002107843;-0.383982331;-0.923331797
2024/05/03/13:29:22.823870;205790;1714768162;823420466;world;-0.000434522;-0.000425472;-0.000124623;0.003459684;0.00217516;-0.385160089;-0.922840714
2024/05/03/13:29:22.823901;205791;1714768162;823455911;world;-0.000392128;-0.00040676;-0.000125144;0.003345237;0.002187196;-0.386415005;-0.922316432
2024/05/03/13:29:22.833467;205792;1714768162;833075735;world;-0.000335474;-0.000302424;-0.000140852;0.003118681;0.002078085;-0.387172133;-0.921999812
2024/05/03/13:29:22.843333;205793;1714768162;842987606;world;-0.000319153;-0.000280999;-0.000148271;0.003091989;0.002067103;-0.388392329;-0.921486616
2024/05/03/13:29:22.863667;205794;1714768162;863078482;world;-0.000373516;-0.000277213;-0.00013439;0.00314433;0.002029586;-0.389540315;-0.921001792
2024/05/03/13:29:22.893584;205795;1714768162;893278120;world;-0.000360992;-0.000298762;-0.000132172;0.00304613;0.002154795;-0.391322881;-0.920245886
2024/05/03/13:29:22.893608;205796;1714768162;893319396;world;-0.000356544;-0.000295581;-0.00013926;0.003042123;0.00211229;-0.391918123;-0.919992626
2024/05/03/13:29:22.923290;205797;1714768162;922988093;world;-0.000382841;-0.000305757;-0.000142036;0.003050408;0.002125107;-0.39314422;-0.919469297
2024/05/03/13:29:22.923315;205798;1714768162;923045339;world;-0.000398118;-0.000322334;-0.000155766;0.002965957;0.0021453;-0.394404083;-0.918929815
2024/05/03/13:29:22.933272;205799;1714768162;932901440;world;-0.000383727;-0.000337929;-0.000180217;0.002984676;0.002147056;-0.394974649;-0.918684661
2024/05/03/13:29:22.953418;205800;1714768162;953085177;world;-0.000389013;-0.000354951;-0.000176764;0.002938913;0.002205662;-0.396133393;-0.918185592
2024/05/03/13:29:22.973320;205801;1714768162;973035670;world;-0.000368621;-0.000457393;-0.000106245;0.003233934;0.002187329;-0.397275358;-0.917691112
2024/05/03/13:29:22.993209;205802;1714768162;992914176;world;-0.000340734;-0.000503491;-0.000134829;0.00334715;0.002342728;-0.398590177;-0.917120039
2024/05/03/13:29:23.024254;205803;1714768163;23302493;world;-0.00033839;-0.000429908;-0.000149812;0.003191544;0.002499784;-0.399909765;-0.91654557
2024/05/03/13:29:23.033693;205804;1714768163;33203082;world;-0.000332549;-0.000435791;-0.000148334;0.00313977;0.002443457;-0.401121914;-0.916015983
2024/05/03/13:29:23.033720;205805;1714768163;33237876;world;-0.00039709;-0.00051449;-0.000155074;0.003255289;0.002524005;-0.402330995;-0.915484965
2024/05/03/13:29:23.053650;205806;1714768163;53391320;world;-0.000360273;-0.000438368;-0.000139231;0.003239465;0.002525561;-0.403602302;-0.914925337
2024/05/03/13:29:23.063218;205807;1714768163;62929630;world;-0.000385251;-0.00048748;-0.000160689;0.003255937;0.002542445;-0.404797494;-0.914397061
2024/05/03/13:29:23.083301;205808;1714768163;83016492;world;-0.000388823;-0.000468371;-0.000138987;0.003326035;0.002494978;-0.405412763;-0.91412431
2024/05/03/13:29:23.093398;205809;1714768163;93063345;world;-0.000335399;-0.000399334;-0.000142033;0.003346305;0.002377304;-0.406709194;-0.913548529
2024/05/03/13:29:23.133675;205810;1714768163;133361299;world;-0.000363518;-0.000440051;-0.000171813;0.00334512;0.002596746;-0.407811582;-0.913056314
2024/05/03/13:29:23.133699;205811;1714768163;133416170;world;-0.000360321;-0.000415583;-0.000166199;0.003305035;0.002395366;-0.409234017;-0.912420332
2024/05/03/13:29:23.143212;205812;1714768163;142955079;world;-0.000286352;-0.000366233;-0.000116234;0.003500862;0.002140858;-0.410574675;-0.911817729
2024/05/03/13:29:23.163383;205813;1714768163;163021815;world;-0.000374109;-0.000419365;-0.000164666;0.003530549;0.0024005;-0.41174683;-0.911288261
2024/05/03/13:29:23.173689;205814;1714768163;173441288;world;-0.000319853;-0.000355811;-0.000120775;0.003502554;0.002146393;-0.412375033;-0.91100502
2024/05/03/13:29:23.193963;205815;1714768163;192959542;world;-0.000390019;-0.000408537;-0.000152176;0.003566574;0.00238228;-0.414093822;-0.91022408
2024/05/03/13:29:23.203585;205816;1714768163;203295349;world;-0.000384998;-0.000416949;-0.000152481;0.003517699;0.002374904;-0.414746523;-0.90992713
2024/05/03/13:29:23.233287;205817;1714768163;232957198;world;-0.000316512;-0.00033577;-0.00010688;0.0033637;0.002029924;-0.416005284;-0.909353733
2024/05/03/13:29:23.233314;205818;1714768163;232992784;world;-0.000320993;-0.00035642;-0.000106863;0.003332942;0.002030794;-0.417144656;-0.908831775
2024/05/03/13:29:23.253267;205819;1714768163;252951893;world;-0.000325408;-0.000376094;-9.67E-05;0.00335434;0.00214416;-0.418260634;-0.908318341
2024/05/03/13:29:23.263491;205820;1714768163;263126162;world;-0.000326633;-0.000440588;-0.000119711;0.003432082;0.002363164;-0.419434667;-0.907775998
2024/05/03/13:29:23.283467;205821;1714768163;283135856;world;-0.000291243;-0.000452277;-3.54E-05;0.003528686;0.001963782;-0.420714706;-0.907184005
2024/05/03/13:29:23.303540;205822;1714768163;303212972;world;-0.000283215;-0.000434428;-2.60E-05;0.003566994;0.002087969;-0.421897262;-0.906634271
2024/05/03/13:29:23.333463;205823;1714768163;333060473;world;-0.000273835;-0.000444476;-4.50E-05;0.003623549;0.002084107;-0.422511876;-0.906347752
2024/05/03/13:29:23.333492;205824;1714768163;333100677;world;-0.000249393;-0.000394379;-5.18E-05;0.003503531;0.002281744;-0.424268693;-0.905526698
2024/05/03/13:29:23.343403;205825;1714768163;343087411;world;-0.000244554;-0.000444472;-6.04E-05;0.003577304;0.00228929;-0.424905092;-0.905227959
2024/05/03/13:29:23.363642;205826;1714768163;362999152;world;-0.000240996;-0.000463611;-6.13E-05;0.003625201;0.002297676;-0.426036924;-0.90469557
2024/05/03/13:29:23.373566;205827;1714768163;373253319;world;-0.000217497;-0.000484745;-5.96E-05;0.003657544;0.002235024;-0.427215874;-0.904139519
2024/05/03/13:29:23.403426;205828;1714768163;403029711;world;-0.000230081;-0.000522544;-8.16E-05;0.003647367;0.002196838;-0.428386152;-0.903585732
