time;.header.seq;.header.stamp.secs;.header.stamp.nsecs;.header.frame_id;.pose.position.x;.pose.position.y;.pose.position.z;.pose.orientation.x;.pose.orientation.y;.pose.orientation.z;.pose.orientation.w
2024/05/03/13:35:30.813632;229341;1714768530;813279216;world;-1.72E-05;2.87E-05;-1.41E-05;1.88E-05;1.01E-06;-1.07E-05;1
2024/05/03/13:35:30.843551;229342;1714768530;843221374;world;-1.64E-05;1.04E-05;-8.58E-06;-2.62E-05;6.90E-05;1.22E-05;1
2024/05/03/13:35:30.843590;229343;1714768530;843255026;world;-6.70E-06;2.82E-05;-5.06E-06;4.99E-05;4.78E-05;2.99E-05;1
2024/05/03/13:35:30.853397;229344;1714768530;853063872;world;-1.10E-05;2.94E-05;-1.26E-05;5.00E-05;4.66E-05;4.32E-05;1
2024/05/03/13:35:30.873678;229345;1714768530;873222938;world;-6.84E-06;1.63E-05;-1.58E-05;-1.46E-06;4.63E-05;2.61E-05;1
2024/05/03/13:35:30.883586;229346;1714768530;883148050;world;8.33E-06;2.46E-05;-1.93E-05;3.41E-05;7.82E-05;2.03E-05;1
2024/05/03/13:35:30.903471;229347;1714768530;903140396;world;-2.05E-05;7.21E-06;-1.59E-05;-3.90E-05;6.08E-05;1.51E-05;1
2024/05/03/13:35:30.913644;229348;1714768530;913224849;world;-9.40E-06;1.41E-05;-1.19E-05;1.01E-05;4.70E-05;6.50E-06;1
2024/05/03/13:35:30.953605;229349;1714768530;953275151;world;-1.66E-05;3.55E-05;7.04E-06;-1.98E-05;-7.32E-05;3.18E-05;1
2024/05/03/13:35:30.953632;229350;1714768530;953307261;world;-1.49E-05;1.51E-05;-1.44E-05;3.14E-06;3.81E-05;2.41E-05;1
2024/05/03/13:35:30.973736;229351;1714768530;973339108;world;4.66E-06;2.41E-05;3.64E-06;6.32E-05;1.29E-05;3.08E-05;1
2024/05/03/13:35:30.983681;229352;1714768530;983388461;world;2.53E-05;2.40E-05;-3.50E-06;9.74E-05;5.53E-05;6.71E-05;1
2024/05/03/13:35:30.993374;229353;1714768530;993110525;world;-1.14E-05;3.09E-05;-1.86E-05;6.68E-05;5.42E-05;2.37E-05;1
2024/05/03/13:35:31.013155;229354;1714768531;12899424;world;-1.25E-05;3.50E-05;-1.50E-05;6.95E-05;8.80E-05;6.42E-05;1
2024/05/03/13:35:31.063371;229355;1714768531;62961592;world;-2.32E-05;1.04E-05;-1.63E-05;2.18E-05;2.41E-05;-2.21E-05;1
2024/05/03/13:35:31.063399;229357;1714768531;63008640;world;-8.75E-06;2.75E-05;-4.45E-06;8.66E-05;4.21E-05;5.85E-05;1
2024/05/03/13:35:31.073546;229358;1714768531;73092517;world;5.98E-06;3.13E-05;-7.91E-06;8.40E-05;5.10E-05;2.51E-05;1
2024/05/03/13:35:31.083258;229359;1714768531;82892816;world;-6.53E-06;1.67E-05;-3.75E-06;8.18E-06;3.42E-05;4.23E-05;1
2024/05/03/13:35:31.103418;229360;1714768531;103104110;world;-6.88E-06;2.66E-05;-7.32E-06;6.19E-05;2.62E-05;2.32E-05;1
2024/05/03/13:35:31.123419;229361;1714768531;123180906;world;-3.23E-05;2.37E-05;-5.65E-06;4.70E-05;5.50E-05;3.99E-05;1
2024/05/03/13:35:31.153441;229362;1714768531;153086741;world;-1.48E-05;3.30E-05;-1.81E-05;1.82E-05;7.74E-05;4.70E-05;1
2024/05/03/13:35:31.153482;229363;1714768531;153131504;world;-1.82E-05;2.21E-05;-3.60E-06;1.19E-05;-8.93E-06;4.85E-05;1
2024/05/03/13:35:31.163703;229364;1714768531;163400254;world;-1.54E-05;1.77E-05;-2.63E-05;0.000145931;0.000132909;1.12E-05;1
2024/05/03/13:35:31.183267;229365;1714768531;182954368;world;-1.42E-05;1.32E-05;-1.78E-05;4.10E-05;2.31E-05;-5.42E-06;1
2024/05/03/13:35:31.203676;229366;1714768531;203394637;world;-3.00E-05;1.52E-05;-7.95E-06;-1.66E-05;3.12E-05;3.03E-07;1
2024/05/03/13:35:31.223728;229367;1714768531;223357189;world;-9.04E-06;3.01E-05;1.16E-06;5.89E-05;2.30E-05;4.04E-05;1
2024/05/03/13:35:31.263613;229368;1714768531;263020347;world;-8.93E-06;2.60E-05;-2.72E-06;6.91E-05;3.15E-05;2.65E-05;1
2024/05/03/13:35:31.263637;229370;1714768531;263067324;world;-1.72E-05;1.91E-05;-2.67E-06;3.15E-05;2.04E-05;2.37E-05;1
2024/05/03/13:35:31.273797;229371;1714768531;273241520;world;-5.80E-06;2.80E-05;-6.93E-07;1.86E-05;3.81E-05;-1.40E-05;1
2024/05/03/13:35:31.293473;229372;1714768531;293102311;world;-2.10E-05;2.72E-05;-3.34E-06;2.13E-05;4.97E-05;4.13E-05;1
2024/05/03/13:35:31.303541;229373;1714768531;303284189;world;-7.09E-06;1.46E-05;-6.46E-06;-1.64E-05;1.59E-05;1.70E-05;1
2024/05/03/13:35:31.323859;229374;1714768531;323549003;world;-2.33E-05;2.88E-05;4.10E-06;6.74E-05;1.52E-05;2.32E-05;1
2024/05/03/13:35:31.343440;229375;1714768531;343131469;world;-4.99E-07;3.07E-05;4.54E-07;8.22E-05;3.98E-05;3.61E-05;1
2024/05/03/13:35:31.353159;229376;1714768531;352919937;world;4.33E-06;2.02E-05;-1.20E-05;6.06E-05;6.41E-05;2.56E-05;1
2024/05/03/13:35:31.373657;229377;1714768531;373315483;world;-2.55E-05;2.25E-05;-8.34E-07;9.76E-05;4.04E-05;2.56E-05;1
2024/05/03/13:35:31.393609;229378;1714768531;393189531;world;-2.10E-05;2.71E-05;-1.02E-05;6.76E-05;5.86E-05;6.47E-05;1
2024/05/03/13:35:31.403409;229379;1714768531;403098033;world;-1.51E-05;2.23E-05;-6.39E-06;-1.36E-05;4.98E-05;-2.56E-06;1
2024/05/03/13:35:31.423192;229380;1714768531;422933568;world;-1.38E-05;1.87E-05;-1.88E-05;1.40E-05;7.59E-05;1.99E-05;1
2024/05/03/13:35:31.433661;229381;1714768531;433313815;world;4.71E-05;2.41E-05;2.51E-05;0.000196981;0.000115092;5.99E-05;1
2024/05/03/13:35:31.453506;229382;1714768531;453208771;world;-3.53E-05;1.82E-05;-1.25E-05;-2.06E-05;8.09E-05;-3.99E-06;1
2024/05/03/13:35:31.463293;229383;1714768531;462999854;world;3.98E-06;2.41E-05;-1.88E-06;-3.13E-05;-1.66E-05;4.99E-05;1
2024/05/03/13:35:31.483304;229384;1714768531;482987314;world;2.40E-05;1.85E-05;-5.00E-06;0.000114103;6.94E-05;7.75E-05;1
2024/05/03/13:35:31.503270;229385;1714768531;502943421;world;-2.91E-05;1.98E-05;-1.17E-05;4.12E-05;5.55E-05;1.89E-05;1
2024/05/03/13:35:31.513234;229386;1714768531;512915521;world;-3.00E-05;1.86E-05;-7.67E-06;-2.65E-05;4.84E-05;7.46E-06;1
2024/05/03/13:35:31.523804;229387;1714768531;523458280;world;-7.27E-06;3.17E-05;-2.35E-06;-3.90E-05;-3.03E-05;7.66E-05;1
2024/05/03/13:35:31.553998;229388;1714768531;553485514;world;-3.13E-06;1.50E-05;-1.36E-05;-2.60E-05;3.88E-05;3.64E-06;1
2024/05/03/13:35:31.563876;229389;1714768531;563371792;world;-1.22E-05;2.20E-05;-4.92E-06;4.77E-05;4.25E-05;1.73E-06;1
2024/05/03/13:35:31.573473;229390;1714768531;573223596;world;-1.70E-05;2.34E-05;-3.75E-07;3.28E-05;9.13E-06;2.99E-05;1
2024/05/03/13:35:31.583307;229391;1714768531;583074531;world;-1.09E-05;2.50E-05;-1.07E-05;5.23E-05;5.48E-05;4.70E-05;1
2024/05/03/13:35:31.603460;229392;1714768531;602998491;world;-1.35E-05;2.50E-05;-9.76E-06;2.87E-05;4.22E-05;4.89E-05;1
2024/05/03/13:35:31.634216;229393;1714768531;633225875;world;2.84E-06;5.65E-06;-2.98E-05;0.000131052;0.000170257;-2.31E-05;1
2024/05/03/13:35:31.634234;229394;1714768531;633461012;world;-8.90E-06;1.66E-05;-5.88E-06;3.15E-06;3.10E-05;3.89E-05;1
2024/05/03/13:35:31.653421;229395;1714768531;652998376;world;-2.40E-05;1.87E-05;-1.50E-05;5.56E-05;2.17E-05;2.60E-05;1
2024/05/03/13:35:31.673219;229396;1714768531;672952671;world;-5.16E-06;2.44E-05;-9.28E-06;4.42E-05;7.29E-05;1.84E-05;1
2024/05/03/13:35:31.683705;229397;1714768531;683437502;world;3.09E-06;2.03E-05;-1.34E-05;-6.54E-06;5.65E-05;3.61E-05;1
2024/05/03/13:35:31.703317;229398;1714768531;703079859;world;1.18E-05;1.15E-05;-1.65E-05;2.78E-05;1.00E-04;1.08E-05;1
2024/05/03/13:35:31.713238;229399;1714768531;712975466;world;-1.24E-05;1.90E-05;-1.69E-05;1.86E-05;8.20E-05;4.04E-05;1
2024/05/03/13:35:31.733214;229400;1714768531;732967324;world;-6.59E-06;1.75E-05;-1.55E-05;3.72E-05;3.93E-05;6.98E-06;1
2024/05/03/13:35:31.753258;229401;1714768531;753014453;world;1.65E-06;1.49E-05;-2.10E-05;1.90E-05;3.55E-05;2.22E-05;1
2024/05/03/13:35:31.763324;229402;1714768531;763021417;world;-3.70E-06;7.50E-06;-2.46E-05;-2.12E-05;4.96E-05;1.22E-05;1
2024/05/03/13:35:31.773374;229403;1714768531;773104220;world;-7.64E-07;2.55E-05;-2.95E-07;7.38E-05;2.87E-05;4.04E-05;1
2024/05/03/13:35:31.793609;229404;1714768531;793093473;world;-2.21E-06;1.50E-05;-1.04E-05;1.11E-05;1.06E-05;9.36E-06;1
2024/05/03/13:35:31.803667;229405;1714768531;803401987;world;1.24E-05;1.70E-05;7.90E-07;-2.92E-05;-3.97E-05;5.42E-05;1
2024/05/03/13:35:31.833359;229406;1714768531;833098744;world;-1.68E-06;7.74E-06;-1.46E-05;5.25E-05;3.75E-05;3.80E-05;1
2024/05/03/13:35:31.843522;229407;1714768531;843240929;world;7.57E-06;1.72E-05;2.48E-07;4.53E-05;4.51E-05;4.18E-05;1
2024/05/03/13:35:31.853642;229408;1714768531;853309458;world;-3.49E-06;1.54E-05;-1.86E-05;5.19E-05;3.82E-05;2.94E-05;1
2024/05/03/13:35:31.874242;229409;1714768531;873817037;world;7.68E-06;7.17E-06;-2.35E-05;-2.24E-06;6.27E-05;3.18E-05;1
2024/05/03/13:35:31.883591;229410;1714768531;883196802;world;1.60E-05;1.36E-05;-8.84E-06;7.97E-05;9.53E-06;2.94E-05;1
2024/05/03/13:35:31.903731;229411;1714768531;903280715;world;-1.07E-05;9.42E-06;-8.13E-06;1.61E-05;9.50E-06;1.73E-06;1
2024/05/03/13:35:31.923865;229412;1714768531;923451998;world;-2.61E-08;2.04E-05;-1.50E-05;1.19E-05;4.54E-05;3.75E-05;1
2024/05/03/13:35:31.943446;229413;1714768531;943137724;world;-9.02E-06;6.68E-06;-3.14E-05;1.25E-05;5.92E-05;-1.07E-05;1
2024/05/03/13:35:31.963994;229414;1714768531;963723516;world;-1.14E-05;6.22E-06;-2.77E-05;0.000102906;0.000117194;2.20E-06;1
2024/05/03/13:35:31.973404;229415;1714768531;973079800;world;-1.61E-05;1.93E-05;-7.89E-06;2.53E-05;4.51E-05;2.27E-05;1
2024/05/03/13:35:31.983291;229416;1714768531;982928840;world;6.47E-06;-2.40E-06;-1.67E-05;-6.15E-05;5.19E-06;-4.94E-06;1
2024/05/03/13:35:31.993348;229417;1714768531;993012978;world;9.16E-06;2.52E-05;-1.73E-05;0.000104846;5.68E-05;3.65E-05;1
2024/05/03/13:35:32.013501;229418;1714768532;13113277;world;-9.89E-06;1.04E-05;-4.85E-06;6.98E-05;1.78E-05;1.75E-05;1
2024/05/03/13:35:32.043653;229419;1714768532;43314428;world;-6.92E-06;5.53E-06;-1.47E-05;1.46E-05;8.70E-05;-1.11E-05;1
2024/05/03/13:35:32.043672;229420;1714768532;43351917;world;-1.26E-05;1.61E-05;-2.20E-05;3.82E-05;1.43E-05;4.99E-05;1
2024/05/03/13:35:32.064071;229421;1714768532;63582150;world;-9.08E-06;1.60E-05;-2.27E-05;4.29E-05;7.59E-05;8.40E-06;1
2024/05/03/13:35:32.073669;229422;1714768532;73291473;world;8.00E-06;2.17E-05;5.59E-06;2.34E-06;1.33E-05;9.71E-05;1
2024/05/03/13:35:32.093366;229423;1714768532;93148944;world;3.30E-05;2.51E-05;-3.08E-06;0.000120627;9.54E-05;0.000109486;1
2024/05/03/13:35:32.103951;229424;1714768532;103695065;world;-1.03E-05;8.76E-06;-1.46E-05;1.55E-05;8.37E-05;1.70E-05;1
2024/05/03/13:35:32.124053;229425;1714768532;123467679;world;1.01E-05;2.37E-05;-1.98E-05;4.15E-05;7.78E-05;4.46E-05;1
2024/05/03/13:35:32.143440;229426;1714768532;143073095;world;-3.27E-06;2.04E-05;-2.27E-05;5.95E-05;7.48E-05;1.08E-05;1
2024/05/03/13:35:32.163561;229427;1714768532;163141873;world;-5.46E-06;3.73E-08;-2.48E-05;9.14E-05;0.000145795;-4.21E-05;1
2024/05/03/13:35:32.173753;229428;1714768532;173385658;world;5.70E-07;1.28E-05;-2.08E-05;5.60E-05;9.13E-05;1.08E-05;1
2024/05/03/13:35:32.183536;229429;1714768532;183237622;world;4.44E-06;2.40E-05;-1.17E-05;1.30E-05;3.98E-05;2.27E-05;1
2024/05/03/13:35:32.193183;229430;1714768532;192975536;world;-5.03E-07;2.66E-05;-1.20E-05;8.14E-05;4.85E-05;5.23E-05;1
2024/05/03/13:35:32.213234;229431;1714768532;212989344;world;9.08E-06;1.06E-05;-1.57E-05;5.91E-05;9.43E-05;1.51E-05;1
2024/05/03/13:35:32.233414;229432;1714768532;233141448;world;1.04E-07;2.82E-05;-1.79E-06;8.56E-05;5.35E-05;2.51E-05;1
2024/05/03/13:35:32.253838;229433;1714768532;253491020;world;-9.08E-06;2.23E-05;-3.27E-06;4.12E-05;7.28E-06;2.80E-05;1
2024/05/03/13:35:32.263535;229434;1714768532;263052606;world;2.56E-05;1.96E-05;-1.55E-05;0.00015206;8.89E-05;0.000102332;1
2024/05/03/13:35:32.273482;229435;1714768532;273055814;world;-4.25E-06;1.43E-05;-5.23E-06;4.89E-05;3.12E-05;9.36E-06;1
2024/05/03/13:35:32.293285;229436;1714768532;292984633;world;-1.46E-05;1.46E-05;-1.96E-06;1.42E-05;-9.16E-06;1.84E-05;1
2024/05/03/13:35:32.303284;229437;1714768532;303014049;world;-1.30E-05;1.67E-05;-1.19E-05;3.11E-05;-1.08E-05;2.89E-05;1
2024/05/03/13:35:32.324787;229438;1714768532;324282598;world;1.23E-06;2.75E-05;-2.73E-05;6.30E-05;8.60E-05;3.56E-05;1
2024/05/03/13:35:32.343577;229439;1714768532;343287831;world;-5.62E-06;1.86E-05;-1.50E-05;1.26E-05;4.92E-05;2.61E-05;1
2024/05/03/13:35:32.353320;229440;1714768532;353104622;world;-2.04E-06;2.15E-05;-1.76E-05;4.93E-05;0.000100808;2.03E-05;1
2024/05/03/13:35:32.373630;229441;1714768532;373278122;world;-1.49E-05;2.80E-05;-8.39E-06;-3.55E-05;-8.21E-06;4.75E-05;1
2024/05/03/13:35:32.384075;229442;1714768532;383627197;world;-1.76E-05;1.55E-05;-3.47E-05;6.53E-05;0.00012515;-8.29E-06;1
2024/05/03/13:35:32.403613;229443;1714768532;403468303;world;-9.43E-06;2.56E-05;-1.46E-05;4.46E-05;8.33E-05;5.54E-06;1
2024/05/03/13:35:32.413539;229444;1714768532;413219752;world;3.90E-06;1.63E-05;-3.31E-05;0.000143986;0.000116569;1.94E-05;1
2024/05/03/13:35:32.433589;229445;1714768532;433434429;world;5.35E-06;2.13E-05;-1.77E-05;2.41E-05;7.75E-05;4.27E-05;1
2024/05/03/13:35:32.453549;229446;1714768532;453250273;world;-1.51E-05;2.54E-05;-1.09E-05;5.92E-06;2.76E-05;2.65E-05;1
2024/05/03/13:35:32.473598;229447;1714768532;473289107;world;-1.04E-05;2.43E-05;-1.49E-05;5.26E-05;3.40E-05;4.32E-05;1
2024/05/03/13:35:32.473624;229448;1714768532;473334241;world;-7.59E-06;1.71E-05;-1.28E-05;-2.34E-05;3.92E-05;-6.85E-06;1
2024/05/03/13:35:32.493145;229449;1714768532;492911076;world;9.14E-06;2.64E-05;-9.48E-06;2.93E-05;7.24E-05;2.80E-05;1
2024/05/03/13:35:32.503791;229450;1714768532;503526933;world;-1.34E-05;7.95E-06;-4.18E-05;0.000149355;0.000157205;-3.02E-05;1
2024/05/03/13:35:32.523660;229451;1714768532;523420538;world;-2.09E-05;3.97E-05;-9.21E-06;1.10E-05;3.48E-05;5.70E-05;1
2024/05/03/13:35:32.553531;229452;1714768532;553187877;world;9.76E-07;1.34E-05;-1.99E-05;3.96E-05;8.45E-05;3.37E-05;1
2024/05/03/13:35:32.553558;229453;1714768532;553231558;world;-2.48E-05;2.28E-05;-2.06E-05;3.53E-05;5.24E-05;3.16E-06;1
2024/05/03/13:35:32.573657;229454;1714768532;573362518;world;-4.02E-07;2.05E-05;-1.82E-05;2.50E-05;5.65E-05;1.99E-05;1
2024/05/03/13:35:32.593620;229455;1714768532;593000473;world;-2.14E-05;3.25E-05;-1.46E-05;3.71E-05;4.70E-05;4.18E-05;1
2024/05/03/13:35:32.603504;229456;1714768532;603291082;world;-1.50E-05;5.33E-06;-1.53E-05;-2.12E-05;3.50E-05;7.46E-06;1
2024/05/03/13:35:32.623349;229457;1714768532;623107004;world;3.04E-05;3.28E-05;-2.22E-06;0.000110917;6.38E-05;9.71E-05;1
2024/05/03/13:35:32.633505;229458;1714768532;633260990;world;-9.36E-06;2.67E-05;-2.31E-05;7.14E-05;6.63E-05;3.80E-05;1
2024/05/03/13:35:32.653236;229459;1714768532;652940156;world;-1.39E-05;1.70E-05;-1.41E-05;-6.33E-06;4.19E-05;-2.56E-06;1
2024/05/03/13:35:32.673211;229460;1714768532;672908488;world;-6.34E-06;1.85E-05;-2.31E-05;7.29E-05;6.12E-05;6.02E-06;1
2024/05/03/13:35:32.683563;229461;1714768532;683184803;world;-1.16E-05;2.10E-05;-1.10E-05;7.77E-05;1.75E-05;3.18E-05;1
2024/05/03/13:35:32.703221;229462;1714768532;702901869;world;-3.75E-05;2.85E-05;-1.82E-05;6.38E-05;2.88E-05;1.75E-05;1
2024/05/03/13:35:32.713588;229463;1714768532;713060405;world;-6.24E-06;2.73E-05;-1.47E-05;4.91E-05;1.64E-05;4.04E-05;1
2024/05/03/13:35:32.733273;229464;1714768532;732980709;world;-5.99E-06;1.56E-05;-1.32E-05;4.56E-05;2.57E-05;-2.21E-05;1
2024/05/03/13:35:32.783485;229465;1714768532;783068216;world;-1.98E-05;2.56E-05;-9.86E-06;-3.94E-06;-3.31E-05;1.41E-05;1
2024/05/03/13:35:32.783511;229467;1714768532;783115454;world;-2.80E-05;2.15E-05;-1.62E-05;1.53E-05;-6.81E-06;-1.21E-05;1
2024/05/03/13:35:32.813779;229468;1714768532;813364850;world;-1.55E-05;2.46E-05;-1.82E-05;6.64E-05;9.52E-06;1.73E-06;1
2024/05/03/13:35:32.813979;229469;1714768532;813403832;world;-2.12E-05;1.86E-05;-3.74E-06;4.48E-05;-3.43E-05;3.64E-06;1
2024/05/03/13:35:32.823833;229470;1714768532;823350822;world;-2.13E-05;3.11E-05;-1.36E-05;-8.79E-06;3.91E-05;-6.37E-06;1
2024/05/03/13:35:32.843666;229471;1714768532;843385243;world;-1.34E-05;2.22E-05;-2.74E-05;8.93E-05;5.00E-05;2.51E-05;1
2024/05/03/13:35:32.864369;229472;1714768532;864005796;world;-2.59E-05;7.34E-06;-4.77E-05;9.04E-05;0.000114168;-4.74E-05;1
2024/05/03/13:35:32.883502;229473;1714768532;883181258;world;-2.02E-05;1.30E-05;-1.26E-05;-1.96E-05;-2.05E-05;-2.35E-05;1
2024/05/03/13:35:32.893410;229474;1714768532;893172682;world;-3.03E-05;2.30E-05;-1.60E-05;-4.50E-05;1.81E-05;-5.90E-06;1
2024/05/03/13:35:32.903361;229475;1714768532;903154449;world;-2.88E-05;2.72E-05;-1.44E-05;6.02E-05;-2.41E-06;1.27E-05;1
2024/05/03/13:35:32.913748;229476;1714768532;913508337;world;-4.26E-06;1.84E-05;-3.17E-05;5.51E-05;4.91E-05;1.22E-05;1
2024/05/03/13:35:32.933491;229477;1714768532;933214435;world;-2.39E-05;2.07E-05;-2.41E-05;-4.48E-07;3.68E-05;-0.000196155;1
2024/05/03/13:35:32.943744;229478;1714768532;943393787;world;-3.95E-05;-1.76E-05;-5.28E-05;4.03E-05;0.000142897;-0.001257123;0.999999285
2024/05/03/13:35:32.963533;229479;1714768532;963209763;world;-4.39E-05;1.18E-06;-8.25E-05;0.000190889;0.00027477;-0.002915129;0.999995708
2024/05/03/13:35:32.983400;229480;1714768532;983155728;world;-5.57E-05;-1.35E-05;-9.05E-05;0.000178253;0.000291901;-0.005027978;0.999987364
2024/05/03/13:35:32.993267;229481;1714768532;992990243;world;-8.39E-06;8.23E-06;-6.41E-05;0.000319398;0.000206029;-0.00756233;0.99997139
2024/05/03/13:35:33.013410;229482;1714768533;12881353;world;5.58E-05;3.87E-05;-5.28E-05;0.000479857;0.000258281;-0.008871259;0.999960542
2024/05/03/13:35:33.023246;229483;1714768533;22864482;world;1.11E-05;6.35E-05;-6.17E-05;0.000507909;0.000249418;-0.0115786;0.999932885
2024/05/03/13:35:33.043342;229484;1714768533;43061630;world;5.97E-05;5.91E-05;-6.13E-06;0.000401233;0.000351925;-0.014673499;0.999892235
2024/05/03/13:35:33.063719;229485;1714768533;63301348;world;4.16E-05;6.17E-05;-2.92E-05;0.000280975;0.000182761;-0.017972207;0.999838531
2024/05/03/13:35:33.073283;229486;1714768533;73006572;world;0.000168439;9.72E-05;-2.56E-05;0.000671969;0.000286734;-0.021099312;0.999777198
2024/05/03/13:35:33.095072;229487;1714768533;93929009;world;0.000150163;7.94E-05;-5.66E-05;0.000652892;0.000269089;-0.024214627;0.999706626
2024/05/03/13:35:33.103425;229488;1714768533;103134143;world;0.0001215;4.35E-05;-5.70E-05;0.000640609;0.000151133;-0.027434029;0.999623418
2024/05/03/13:35:33.123503;229489;1714768533;123230925;world;5.72E-05;4.53E-05;-5.19E-05;0.000434793;0.000147985;-0.030576462;0.999532342
2024/05/03/13:35:33.133161;229490;1714768533;132901515;world;0.000100091;9.10E-05;-3.55E-05;0.000574367;0.000181386;-0.032051582;0.999486029
2024/05/03/13:35:33.153325;229491;1714768533;153082643;world;0.000128388;8.73E-05;4.66E-06;0.0006312;0.000166428;-0.035198353;0.999380231
2024/05/03/13:35:33.163505;229492;1714768533;163102661;world;0.000135209;7.82E-05;-4.86E-06;0.000568196;0.000263183;-0.038318619;0.999265373
2024/05/03/13:35:33.183798;229493;1714768533;183438508;world;9.00E-05;0.000108626;-4.23E-05;0.000396536;0.000221519;-0.041236889;0.999149323
2024/05/03/13:35:33.203597;229494;1714768533;203308999;world;0.000126805;9.17E-05;-3.44E-05;0.000517212;0.000333207;-0.044089649;0.999027371
2024/05/03/13:35:33.223473;229495;1714768533;223216421;world;0.000170399;0.000134867;-3.10E-05;0.00082173;0.00037136;-0.046658687;0.998910546
2024/05/03/13:35:33.233449;229496;1714768533;233148685;world;0.000164092;0.000150291;-3.04E-05;0.000774422;0.000401472;-0.049362104;0.998780668
2024/05/03/13:35:33.244341;229497;1714768533;243374155;world;0.000154901;0.000104586;-3.57E-05;0.000586457;0.000329781;-0.052012675;0.9986462
2024/05/03/13:35:33.273348;229498;1714768533;272904798;world;0.000249013;7.34E-05;-2.68E-05;0.000712028;0.000508227;-0.054547429;0.998510778
2024/05/03/13:35:33.273371;229499;1714768533;272943800;world;0.00018179;7.47E-05;-3.63E-05;0.000588758;0.00043602;-0.055875205;0.998437464
2024/05/03/13:35:33.293353;229500;1714768533;293029761;world;0.00017726;5.21E-05;-6.29E-05;0.000549275;0.00043846;-0.05824073;0.998302341
2024/05/03/13:35:33.303398;229501;1714768533;302909289;world;0.000162091;5.84E-05;-5.88E-05;0.000624017;0.000452007;-0.060505085;0.998167634
2024/05/03/13:35:33.323240;229502;1714768533;322939598;world;0.000217296;8.89E-05;-5.38E-05;0.000843851;0.000461061;-0.062663503;0.998034298
2024/05/03/13:35:33.333422;229503;1714768533;333136595;world;0.000113927;9.49E-05;-8.47E-05;0.000722911;0.000302023;-0.064842336;0.997895241
2024/05/03/13:35:33.353630;229504;1714768533;353330938;world;7.23E-05;7.98E-05;-7.02E-05;0.000717716;0.000324361;-0.066876888;0.997761011
2024/05/03/13:35:33.373518;229505;1714768533;373038137;world;4.42E-05;6.40E-05;-8.33E-05;0.000782687;0.000343051;-0.068863586;0.997625768
2024/05/03/13:35:33.393213;229506;1714768533;392934778;world;3.53E-05;4.54E-05;-7.30E-05;0.000711579;0.000317735;-0.069848701;0.997557282
2024/05/03/13:35:33.403649;229507;1714768533;403392980;world;9.02E-05;2.70E-05;-8.36E-05;0.000844763;0.000359792;-0.072610728;0.997359931
2024/05/03/13:35:33.413962;229508;1714768533;413296912;world;0.00013518;3.85E-05;-9.27E-05;0.001034979;0.00041329;-0.07347063;0.997296751
2024/05/03/13:35:33.433318;229509;1714768533;433078890;world;0.000111036;8.40E-06;-8.93E-05;0.00095931;0.000385811;-0.075299881;0.997160435
2024/05/03/13:35:33.443441;229510;1714768533;443176242;world;0.000165276;2.40E-05;-6.05E-05;0.001216437;0.000438501;-0.076940775;0.997034907
2024/05/03/13:35:33.473464;229511;1714768533;473192985;world;0.000164796;2.46E-05;-8.42E-05;0.00119489;0.000528422;-0.078505404;0.996912837
2024/05/03/13:35:33.483188;229512;1714768533;482929428;world;0.000124972;3.35E-05;-7.67E-05;0.001203235;0.000561023;-0.080157705;0.996781349
2024/05/03/13:35:33.503444;229513;1714768533;503170497;world;6.84E-05;2.79E-05;-7.80E-05;0.001108922;0.000477006;-0.081744991;0.996652544
2024/05/03/13:35:33.513225;229514;1714768533;512948216;world;5.95E-05;3.78E-05;-0.000111806;0.001171404;0.000568661;-0.08315032;0.996536255
2024/05/03/13:35:33.523460;229515;1714768533;523147257;world;6.90E-05;5.40E-05;-9.36E-05;0.001159183;0.00054293;-0.083827384;0.996479452
2024/05/03/13:35:33.543358;229516;1714768533;543059276;world;9.08E-05;3.72E-05;-0.000114539;0.001140876;0.000552756;-0.085263722;0.99635762
2024/05/03/13:35:33.563555;229517;1714768533;563258709;world;6.68E-05;-9.83E-07;-0.000126786;0.001157975;0.000580985;-0.086692765;0.996234238
2024/05/03/13:35:33.573594;229518;1714768533;573271815;world;0.000180889;5.42E-05;-8.18E-05;0.00138316;0.000487608;-0.088013701;0.996118188
2024/05/03/13:35:33.633222;229519;1714768533;632931039;world;0.000207502;5.02E-05;-3.10E-05;0.001105436;0.000253214;-0.089578375;0.99597919
2024/05/03/13:35:33.633251;229522;1714768533;632991201;world;0.000198871;2.51E-05;-2.75E-05;0.001132369;0.00041315;-0.093175948;0.995648921
2024/05/03/13:35:33.653622;229523;1714768533;653032019;world;0.000164133;2.02E-05;-5.71E-06;0.000926039;0.000415419;-0.095225282;0.995455265
2024/05/03/13:35:33.674633;229524;1714768533;674161992;world;0.000163645;2.17E-05;-3.97E-05;0.001043755;0.000542847;-0.095803082;0.995399654
2024/05/03/13:35:33.683523;229525;1714768533;683230571;world;9.60E-05;7.91E-06;-5.57E-05;0.000837086;0.000575245;-0.097168036;0.99526751
2024/05/03/13:35:33.703599;229526;1714768533;702879653;world;0.000136267;8.22E-06;-5.62E-05;0.001004653;0.000611203;-0.098442748;0.995142102
2024/05/03/13:35:33.713413;229527;1714768533;713136480;world;0.000122663;1.28E-05;-4.46E-05;0.001069904;0.00059887;-0.099723443;0.995014489
2024/05/03/13:35:33.733405;229528;1714768533;733059008;world;0.000118345;-4.39E-06;-5.50E-05;0.001107582;0.000675628;-0.100995474;0.9948861
2024/05/03/13:35:33.743788;229529;1714768533;743389434;world;0.000100411;7.02E-07;-8.07E-05;0.001078304;0.00072776;-0.102250703;0.994757831
2024/05/03/13:35:33.763291;229530;1714768533;762978823;world;0.00011611;-1.43E-05;-7.19E-05;0.001139334;0.000638902;-0.102849193;0.99469614
2024/05/03/13:35:33.783484;229531;1714768533;783124472;world;0.000102445;-1.46E-05;-8.74E-05;0.001266298;0.000729358;-0.104146488;0.994560897
2024/05/03/13:35:33.813733;229532;1714768533;812978219;world;0.000139438;-2.53E-06;-5.96E-05;0.00137159;0.000649707;-0.105432011;0.994425416
2024/05/03/13:35:33.813744;229533;1714768533;813007273;world;0.000111435;1.46E-05;-7.30E-05;0.0013748;0.00066914;-0.106736876;0.99428612
2024/05/03/13:35:33.823868;229534;1714768533;823496922;world;0.000140902;2.65E-05;-7.13E-05;0.001445014;0.000573097;-0.107955612;0.994154513
2024/05/03/13:35:33.843189;229535;1714768533;842890349;world;0.000201661;2.96E-05;-4.38E-05;0.001582338;0.000461392;-0.109187402;0.994019866
2024/05/03/13:35:33.853529;229536;1714768533;853237704;world;0.000187721;1.96E-05;-5.33E-05;0.00153549;0.000519614;-0.110486597;0.993876278
2024/05/03/13:35:33.873657;229537;1714768533;873056090;world;0.000170864;3.66E-05;-4.01E-05;0.001568612;0.000557696;-0.111830577;0.993725955
2024/05/03/13:35:33.883776;229538;1714768533;883297670;world;0.000133954;3.26E-05;-3.96E-05;0.001473339;0.000528193;-0.113159098;0.993575633
2024/05/03/13:35:33.933364;229539;1714768533;933073259;world;6.99E-05;2.42E-05;-3.75E-05;0.001270238;0.000510178;-0.114587843;0.993412197
2024/05/03/13:35:33.933384;229541;1714768533;933124774;world;2.25E-05;1.21E-05;-4.40E-05;0.001315138;0.000605831;-0.116526112;0.993186593
2024/05/03/13:35:33.943247;229542;1714768533;942957535;world;1.98E-05;2.07E-05;-6.16E-05;0.001448195;0.000600544;-0.117714249;0.993046343
2024/05/03/13:35:33.963213;229543;1714768533;962931640;world;2.71E-05;-1.52E-05;-7.13E-05;0.001331115;0.000653748;-0.119011663;0.992891788
2024/05/03/13:35:33.983567;229544;1714768533;983275896;world;3.95E-05;-5.79E-06;-7.43E-05;0.001444166;0.000627621;-0.120232098;0.992744565
2024/05/03/13:35:33.993649;229545;1714768533;993332676;world;4.24E-05;-1.19E-05;-7.62E-05;0.001353472;0.000630723;-0.120852672;0.992669344
2024/05/03/13:35:34.023910;229546;1714768534;23500903;world;6.44E-05;-3.80E-06;-6.85E-05;0.001403506;0.000644252;-0.122164689;0.992508709
2024/05/03/13:35:34.023934;229547;1714768534;23535768;world;4.31E-05;-6.44E-06;-7.99E-05;0.001384479;0.000601784;-0.123392656;0.992356777
2024/05/03/13:35:34.043615;229548;1714768534;43304432;world;4.18E-05;-1.87E-06;-6.24E-05;0.001365146;0.00061415;-0.124774262;0.992184103
2024/05/03/13:35:34.053602;229549;1714768534;53323399;world;9.43E-05;-1.48E-06;-4.44E-05;0.001472801;0.000591189;-0.126037806;0.992024183
2024/05/03/13:35:34.093263;229550;1714768534;92946103;world;6.19E-05;-5.14E-06;-6.49E-05;0.001410756;0.000740312;-0.127293825;0.991863847
2024/05/03/13:35:34.093430;229551;1714768534;92981990;world;0.000100449;5.70E-06;-3.76E-05;0.001561545;0.000681077;-0.128642067;0.991689682
2024/05/03/13:35:34.133637;229552;1714768534;133278607;world;9.66E-05;2.28E-05;-3.44E-05;0.001630814;0.000614993;-0.129917651;0.991523266
2024/05/03/13:35:34.133645;229554;1714768534;133325323;world;5.83E-05;2.37E-06;-2.05E-05;0.001397231;0.000687675;-0.13252382;0.991178572
2024/05/03/13:35:34.153531;229555;1714768534;153233086;world;1.91E-05;-6.74E-06;-3.59E-05;0.001321137;0.000672512;-0.133741155;0.991015255
2024/05/03/13:35:34.173883;229556;1714768534;173573362;world;7.15E-06;-7.03E-06;-4.15E-05;0.001296332;0.000702958;-0.134344652;0.990933657
2024/05/03/13:35:34.193444;229557;1714768534;193064176;world;-5.29E-06;1.39E-05;-3.97E-05;0.001285081;0.000748595;-0.13566713;0.990753412
2024/05/03/13:35:34.193474;229558;1714768534;193098961;world;-1.49E-05;1.22E-05;-3.76E-05;0.001227154;0.000814589;-0.136930376;0.990579545
2024/05/03/13:35:34.233269;229559;1714768534;232983132;world;-4.69E-05;1.81E-05;-3.68E-05;0.001191487;0.000840877;-0.138263196;0.990394533
2024/05/03/13:35:34.233293;229560;1714768534;233020401;world;-5.48E-05;2.79E-05;-2.87E-05;0.001168733;0.000842586;-0.139543384;0.990214944
2024/05/03/13:35:34.243606;229561;1714768534;243335287;world;-7.42E-05;2.82E-05;-5.14E-05;0.001132118;0.000871432;-0.140861616;0.990028322
2024/05/03/13:35:34.263536;229562;1714768534;263188718;world;-0.000111587;-1.09E-05;-4.65E-05;0.001121994;0.000892425;-0.142314062;0.9898206
2024/05/03/13:35:34.273645;229563;1714768534;273323860;world;-0.000112511;-2.45E-06;-4.43E-05;0.001200492;0.000896923;-0.142907798;0.989734888
2024/05/03/13:35:34.293325;229564;1714768534;292938268;world;-0.000149243;-8.97E-06;-2.71E-05;0.001002494;0.000922027;-0.144236147;0.989542365
2024/05/03/13:35:34.313621;229565;1714768534;313342601;world;-0.00012226;-2.73E-05;6.90E-06;0.001122342;0.001015398;-0.145646513;0.989335597
2024/05/03/13:35:34.323267;229566;1714768534;322934174;world;-9.05E-05;-1.15E-05;5.84E-06;0.001212583;0.000932435;-0.147068635;0.989125133
2024/05/03/13:35:34.343225;229567;1714768534;342978969;world;-9.61E-07;-2.38E-05;4.35E-06;0.001328106;0.000947688;-0.14834249;0.988934696
2024/05/03/13:35:34.354007;229568;1714768534;353687658;world;-2.71E-05;-1.28E-05;7.19E-06;0.00136858;0.000884152;-0.149658889;0.988736331
2024/05/03/13:35:34.373384;229569;1714768534;373143270;world;-2.36E-05;-5.28E-05;-1.04E-06;0.001322033;0.000885661;-0.150965646;0.988537788
2024/05/03/13:35:34.393443;229570;1714768534;393082110;world;-2.77E-05;-5.42E-05;-7.80E-06;0.001466742;0.00096202;-0.152254403;0.988339782
2024/05/03/13:35:34.393472;229571;1714768534;393226608;world;-5.31E-05;-5.14E-05;-1.75E-05;0.001434469;0.00101429;-0.152872294;0.988244414
2024/05/03/13:35:34.433708;229572;1714768534;433370160;world;2.20E-05;-2.83E-05;-5.38E-05;0.001691909;0.0009276;-0.154608905;0.987973928
2024/05/03/13:35:34.433732;229573;1714768534;433396508;world;1.35E-05;-4.08E-05;-5.79E-05;0.001804947;0.000960638;-0.155310884;0.987863541
2024/05/03/13:35:34.453311;229574;1714768534;453020032;world;3.20E-05;-3.49E-05;-3.20E-05;0.001779725;0.001039082;-0.157208592;0.987563252
2024/05/03/13:35:34.463823;229575;1714768534;463182525;world;9.22E-06;-5.10E-05;-3.31E-05;0.001730146;0.001012206;-0.157908753;0.987451732
2024/05/03/13:35:34.483763;229576;1714768534;483489348;world;4.58E-05;-4.20E-05;-3.57E-05;0.001867972;0.001061452;-0.159218162;0.987241149
2024/05/03/13:35:34.493523;229577;1714768534;493145973;world;7.11E-05;-1.94E-05;-2.94E-05;0.001982176;0.000996266;-0.160418808;0.987046599
2024/05/03/13:35:34.543608;229578;1714768534;543267454;world;3.98E-05;-2.82E-05;-2.46E-05;0.001782155;0.001014927;-0.161881909;0.986808002
2024/05/03/13:35:34.543692;229580;1714768534;543312398;world;5.07E-05;5.43E-05;-1.44E-05;0.001710965;0.00100576;-0.164044127;0.98645103
2024/05/03/13:35:34.563395;229581;1714768534;563021656;world;1.21E-05;5.25E-05;-5.45E-05;0.002092359;0.001196656;-0.165520877;0.986203432
2024/05/03/13:35:34.573415;229582;1714768534;573086203;world;4.55E-05;8.55E-05;-2.75E-06;0.00206883;0.001130841;-0.166758284;0.985994995
2024/05/03/13:35:34.603639;229583;1714768534;603338104;world;0.000113234;9.83E-05;1.14E-05;0.002174182;0.001105866;-0.16804257;0.985776722
2024/05/03/13:35:34.633645;229584;1714768534;633298130;world;1.18E-06;1.85E-05;1.28E-05;0.002085203;0.001157148;-0.169420242;0.985541046
2024/05/03/13:35:34.633676;229585;1714768534;633332874;world;0.000130687;6.34E-05;1.87E-05;0.002217161;0.001049242;-0.170583472;0.985340178
2024/05/03/13:35:34.643653;229586;1714768534;643333656;world;0.000119902;4.18E-05;4.69E-05;0.002258476;0.001018906;-0.171979576;0.985097408
2024/05/03/13:35:34.653636;229587;1714768534;653325367;world;5.47E-05;3.20E-05;2.37E-05;0.002268879;0.000914087;-0.172702238;0.984971106
2024/05/03/13:35:34.663679;229588;1714768534;663395809;world;-5.20E-05;-4.88E-05;4.78E-05;0.002024514;0.001117929;-0.173949987;0.984751761
2024/05/03/13:35:34.683371;229589;1714768534;683053477;world;-4.24E-05;-6.12E-05;4.11E-05;0.002004839;0.001252938;-0.175305277;0.984511256
2024/05/03/13:35:34.704182;229590;1714768534;703326936;world;9.35E-06;-3.01E-05;6.02E-05;0.002119555;0.001173883;-0.176574811;0.984284282
2024/05/03/13:35:34.754628;229591;1714768534;752982844;world;6.77E-06;-3.94E-05;6.44E-05;0.002094974;0.001180934;-0.177897751;0.984046102
2024/05/03/13:35:34.754682;229593;1714768534;753026506;world;4.94E-05;-6.62E-05;2.49E-05;0.002099191;0.001101203;-0.180570111;0.98355931
2024/05/03/13:35:34.763426;229594;1714768534;763139928;world;6.38E-05;-5.06E-05;2.08E-05;0.00216085;0.001103072;-0.181178838;0.983447194
2024/05/03/13:35:34.773155;229595;1714768534;772882231;world;0.000179306;-8.67E-05;-1.88E-05;0.002631421;0.000919004;-0.182914913;0.983124852
2024/05/03/13:35:34.803246;229596;1714768534;802885688;world;0.00015806;-0.000103377;-2.57E-06;0.002554927;0.00098351;-0.183678702;0.982982576
2024/05/03/13:35:34.803270;229597;1714768534;802946561;world;0.000245173;-7.43E-05;4.29E-05;0.002358422;0.001121067;-0.184949651;0.982744515
2024/05/03/13:35:34.863537;229598;1714768534;863162656;world;8.87E-05;-3.13E-05;2.83E-05;0.002070982;0.000946548;-0.186604217;0.982432604
2024/05/03/13:35:34.863547;229600;1714768534;863208021;world;0.000126656;-2.46E-05;5.31E-05;0.002184253;0.000928975;-0.189143479;0.981946647
2024/05/03/13:35:34.873547;229601;1714768534;873220423;world;0.000103496;-6.43E-06;5.26E-05;0.002155162;0.000938924;-0.190438464;0.981696367
2024/05/03/13:35:34.893669;229602;1714768534;893325331;world;8.85E-05;-1.07E-05;6.42E-05;0.002144627;0.000933431;-0.191706404;0.981449544
2024/05/03/13:35:34.913542;229603;1714768534;913252790;world;6.73E-05;-1.69E-05;6.77E-05;0.002098069;0.000967028;-0.192409799;0.981311977
2024/05/03/13:35:34.943649;229604;1714768534;943354633;world;1.78E-05;-3.07E-05;6.33E-05;0.002090255;0.001020979;-0.193746135;0.981048942
2024/05/03/13:35:34.943675;229605;1714768534;943388125;world;4.82E-05;-2.45E-05;7.40E-05;0.002164321;0.00099074;-0.194993988;0.980801523
2024/05/03/13:35:34.953426;229606;1714768534;953131780;world;3.81E-05;-3.31E-05;6.01E-05;0.002285106;0.001033821;-0.196304321;0.980539799
2024/05/03/13:35:34.963870;229607;1714768534;963156838;world;5.67E-05;-2.97E-05;7.11E-05;0.002297695;0.001073982;-0.197573215;0.980284929
2024/05/03/13:35:34.983189;229608;1714768534;982896116;world;4.22E-05;-3.05E-05;8.32E-05;0.002217222;0.001028913;-0.19887659;0.980021536
2024/05/03/13:35:35.013520;229609;1714768535;13194145;world;3.04E-05;-3.97E-05;7.27E-05;0.002287928;0.001013097;-0.200218961;0.97974807
2024/05/03/13:35:35.013546;229610;1714768535;13228659;world;5.62E-05;-3.16E-05;6.14E-05;0.002369399;0.001091525;-0.200871199;0.979614198
2024/05/03/13:35:35.043620;229611;1714768535;43285038;world;9.13E-05;-3.79E-05;6.30E-05;0.002502669;0.001102959;-0.20288071;0.979199708
2024/05/03/13:35:35.043679;229612;1714768535;43318280;world;8.68E-05;-2.23E-05;5.32E-05;0.00239384;0.001116703;-0.20351392;0.979068518
2024/05/03/13:35:35.063704;229613;1714768535;63428735;world;8.01E-05;-3.01E-05;4.84E-05;0.002428792;0.001154727;-0.204877004;0.978784025
2024/05/03/13:35:35.073642;229614;1714768535;73145804;world;0.000111856;-5.39E-05;3.44E-05;0.002595957;0.001163677;-0.206139699;0.978518486
2024/05/03/13:35:35.093555;229615;1714768535;93175112;world;0.000129029;-7.08E-05;2.96E-05;0.00285094;0.001145731;-0.207365558;0.978258789
2024/05/03/13:35:35.113578;229616;1714768535;113106870;world;0.000104532;-9.09E-05;5.44E-05;0.002871312;0.001092817;-0.20873566;0.977967262
2024/05/03/13:35:35.133455;229617;1714768535;133144462;world;6.77E-05;-0.000131;5.54E-05;0.002821894;0.001093619;-0.21006918;0.977681816
2024/05/03/13:35:35.143173;229618;1714768535;142941097;world;6.40E-05;-0.000158083;8.26E-05;0.002886226;0.001031326;-0.2113965;0.977395594
2024/05/03/13:35:35.153605;229619;1714768535;153257285;world;3.98E-05;-0.000163443;8.46E-05;0.002905936;0.000883234;-0.212746993;0.977102637
2024/05/03/13:35:35.173465;229620;1714768535;173205959;world;4.37E-05;-0.000174236;9.70E-05;0.00274698;0.000975821;-0.213328302;0.976976216
2024/05/03/13:35:35.183322;229621;1714768535;183008679;world;0.000114173;-0.000100221;4.76E-05;0.002742468;0.000941202;-0.214530453;0.976713002
2024/05/03/13:35:35.193352;229622;1714768535;193058672;world;8.34E-05;-7.43E-05;6.94E-05;0.002519303;0.000885752;-0.215910226;0.976409554
2024/05/03/13:35:35.214062;229623;1714768535;213674290;world;7.22E-05;-8.38E-05;7.21E-05;0.002616793;0.000813322;-0.217260405;0.976109862
2024/05/03/13:35:35.273659;229624;1714768535;273089413;world;0.000101246;-7.38E-05;8.82E-05;0.00253147;0.000754534;-0.218498245;0.975833833
2024/05/03/13:35:35.273683;229626;1714768535;273124969;world;0.000250395;-7.07E-05;9.11E-05;0.00282944;0.000824091;-0.220566839;0.975367486
2024/05/03/13:35:35.283374;229627;1714768535;283079742;world;0.000289559;-4.87E-05;0.000112159;0.002746086;0.000878154;-0.221848264;0.975077033
2024/05/03/13:35:35.293547;229628;1714768535;292920793;world;0.000287909;-5.30E-05;0.000119774;0.002779729;0.000901522;-0.222482845;0.974932313
2024/05/03/13:35:35.323866;229629;1714768535;323241203;world;0.000308782;-7.06E-05;0.00010571;0.002881537;0.000889065;-0.223787442;0.974633396
2024/05/03/13:35:35.323874;229630;1714768535;323276208;world;0.000316691;-4.60E-05;0.000110953;0.002820233;0.001024519;-0.225191131;0.974309981
2024/05/03/13:35:35.353263;229631;1714768535;352964234;world;0.000191379;-3.61E-05;0.000123638;0.002338537;0.001010405;-0.226800039;0.973937988
2024/05/03/13:35:35.353270;229632;1714768535;353018214;world;0.000114813;-2.70E-05;0.000158897;0.002167182;0.001090773;-0.22834231;0.973577917
2024/05/03/13:35:35.373227;229633;1714768535;372908454;world;0.000139598;-1.71E-05;0.000158545;0.002181435;0.001140019;-0.229597494;0.973282635
2024/05/03/13:35:35.383896;229634;1714768535;383451373;world;-3.85E-05;-2.53E-05;0.000162166;0.001809572;0.001173011;-0.230662197;0.973031521
2024/05/03/13:35:35.403538;229635;1714768535;403179361;world;-5.68E-05;-2.06E-05;0.000172949;0.001732635;0.001162785;-0.23198989;0.972715974
2024/05/03/13:35:35.423357;229636;1714768535;423073347;world;-6.94E-05;-4.72E-05;0.000183266;0.001699642;0.001125673;-0.233321294;0.972397625
2024/05/03/13:35:35.463677;229637;1714768535;463332906;world;-6.42E-05;-8.66E-05;0.000185288;0.001812953;0.001164549;-0.235130608;0.971961379
2024/05/03/13:35:35.463685;229639;1714768535;463376657;world;3.25E-06;-9.81E-05;0.000172963;0.001848799;0.001187865;-0.237069756;0.971490204
2024/05/03/13:35:35.483375;229640;1714768535;483061327;world;-3.30E-05;-9.07E-05;0.000152139;0.001933602;0.001235687;-0.238404676;0.971163213
2024/05/03/13:35:35.493511;229641;1714768535;493112674;world;-4.28E-05;-9.41E-05;0.000195716;0.002031757;0.001149836;-0.23986344;0.970803916
2024/05/03/13:35:35.543628;229642;1714768535;543331156;world;1.64E-05;-9.71E-05;0.000148452;0.002255285;0.001233589;-0.241130725;0.970489204
2024/05/03/13:35:35.563276;229643;1714768535;562960051;world;-4.72E-05;-8.47E-05;0.000128081;0.002206318;0.00137876;-0.241828382;0.970315576
2024/05/03/13:35:35.563299;229645;1714768535;563007228;world;0.000170611;-0.000121623;0.000170035;0.00254466;0.001156196;-0.244096488;0.969746947
2024/05/03/13:35:35.573160;229646;1714768535;572866728;world;0.00017314;-0.000122461;0.000150747;0.00253049;0.001216271;-0.245361984;0.969427466
2024/05/03/13:35:35.583408;229647;1714768535;582966486;world;5.85E-05;-0.00016569;0.000218041;0.002480852;0.001072876;-0.24707213;0.968993306
2024/05/03/13:35:35.603254;229648;1714768535;602904706;world;-9.17E-06;-0.00018698;0.000218481;0.002487656;0.001000167;-0.248412609;0.968650699
2024/05/03/13:35:35.623925;229649;1714768535;623602725;world;1.64E-05;-0.000165008;0.000197659;0.002584396;0.001086618;-0.249529362;0.968363225
2024/05/03/13:35:35.663384;229650;1714768535;663034001;world;0.000123896;-0.000134006;0.000198677;0.002594086;0.00093363;-0.250548869;0.968100011
2024/05/03/13:35:35.663409;229652;1714768535;663081269;world;-5.01E-05;-0.000120673;0.000170827;0.002319178;0.001108816;-0.252777606;0.967521071
2024/05/03/13:35:35.683542;229653;1714768535;683235652;world;-9.46E-05;-0.00012378;0.00017446;0.002149768;0.00111528;-0.25418967;0.967151403
2024/05/03/13:35:35.703525;229654;1714768535;703144857;world;-8.36E-05;-0.000102066;0.000174607;0.002202077;0.001197969;-0.255385399;0.966836154
2024/05/03/13:35:35.723202;229655;1714768535;722877123;world;-7.21E-05;-0.000104036;0.000162205;0.002259692;0.001238142;-0.256627649;0.966506898
2024/05/03/13:35:35.763882;229656;1714768535;763457949;world;-2.97E-05;-9.43E-05;0.000167795;0.002425146;0.001282824;-0.257838577;0.966184139
2024/05/03/13:35:35.763904;229658;1714768535;763562062;world;9.47E-06;-9.51E-05;0.000187819;0.002432131;0.00127329;-0.259732515;0.965676665
2024/05/03/13:35:35.773731;229659;1714768535;773469821;world;3.41E-05;-8.34E-05;0.000186222;0.002583041;0.001288146;-0.260999382;0.965334713
2024/05/03/13:35:35.794109;229660;1714768535;793835834;world;7.81E-05;-9.76E-05;0.00021102;0.002531287;0.001331648;-0.262309313;0.964979589
2024/05/03/13:35:35.803267;229661;1714768535;802974987;world;7.66E-05;-8.61E-05;0.000186711;0.002564914;0.001420925;-0.263628513;0.964619815
2024/05/03/13:35:35.823865;229662;1714768535;823217390;world;6.21E-05;-9.24E-05;0.000206263;0.002486683;0.001449778;-0.264907539;0.964269578
2024/05/03/13:35:35.853182;229663;1714768535;852893344;world;7.13E-05;-7.93E-05;0.000179197;0.002541263;0.001365255;-0.266259283;0.963897169
2024/05/03/13:35:35.863446;229664;1714768535;863134674;world;8.97E-05;-5.24E-05;0.000192387;0.002512289;0.001341236;-0.267636001;0.963515878
2024/05/03/13:35:35.873583;229665;1714768535;873276790;world;6.69E-05;-4.59E-05;0.000199986;0.002429709;0.001352076;-0.26827243;0.96333915
2024/05/03/13:35:35.883270;229666;1714768535;882973677;world;4.44E-05;-6.23E-05;0.000218034;0.002372129;0.001305991;-0.269646376;0.962955654
2024/05/03/13:35:35.903301;229667;1714768535;902883875;world;5.69E-05;-6.31E-05;0.000206476;0.002425107;0.001268545;-0.270888537;0.962606907
2024/05/03/13:35:35.913249;229668;1714768535;912960068;world;4.75E-05;-7.24E-05;0.000202328;0.002487649;0.001291025;-0.272128075;0.962256968
2024/05/03/13:35:35.933293;229669;1714768535;932978606;world;5.86E-05;-9.00E-05;0.000224357;0.002387113;0.001378998;-0.273479879;0.96187377
2024/05/03/13:35:35.963647;229670;1714768535;963347555;world;5.18E-05;-0.000104561;0.000208662;0.002432828;0.001437189;-0.274698824;0.961526155
2024/05/03/13:35:35.963680;229671;1714768535;963387689;world;5.04E-05;-0.00011453;0.000218333;0.002404293;0.001462518;-0.276004434;0.961152256
2024/05/03/13:35:35.983675;229672;1714768535;983215543;world;4.39E-05;-9.96E-05;0.000219748;0.002421104;0.001467745;-0.277321845;0.960772872
2024/05/03/13:35:35.993476;229673;1714768535;993161565;world;3.08E-05;-0.000125717;0.000221418;0.002539901;0.001430458;-0.278737396;0.960362971
2024/05/03/13:35:36.013982;229674;1714768536;13351077;world;2.20E-05;-0.000127025;0.000229768;0.002572276;0.001421275;-0.279456198;0.960153997
2024/05/03/13:35:36.053616;229675;1714768536;53281529;world;-7.83E-06;-0.000124898;0.000222555;0.002661911;0.001544731;-0.280864924;0.959742367
2024/05/03/13:35:36.093346;229676;1714768536;92939191;world;2.92E-05;-0.000129446;0.000223747;0.00259133;0.00156137;-0.282122821;0.959373593
2024/05/03/13:35:36.093374;229679;1714768536;92993301;world;2.76E-07;-0.00011114;0.000187023;0.002470155;0.001627279;-0.285912305;0.958251238
2024/05/03/13:35:36.103428;229680;1714768536;103163098;world;1.68E-05;-0.000141814;0.000170497;0.00244909;0.001595098;-0.287227005;0.957858086
2024/05/03/13:35:36.123336;229681;1714768536;123050473;world;6.72E-05;-0.000147406;0.000176989;0.002506873;0.001597741;-0.288449436;0.957490504
2024/05/03/13:35:36.133365;229682;1714768536;133116117;world;3.64E-05;-0.000148084;0.000180792;0.002404826;0.001694171;-0.289721489;0.957106531
2024/05/03/13:35:36.173294;229683;1714768536;173007782;world;2.53E-05;-0.000150852;0.000190523;0.002381459;0.001679608;-0.290917337;0.956743777
2024/05/03/13:35:36.173318;229684;1714768536;173042186;world;1.04E-05;-0.000151962;0.000187174;0.002449004;0.001696156;-0.291555524;0.956549287
2024/05/03/13:35:36.183617;229685;1714768536;183213026;world;-7.08E-07;-0.000158027;0.000175591;0.002483585;0.001784403;-0.292870432;0.956147254
2024/05/03/13:35:36.203648;229686;1714768536;203371453;world;-2.19E-05;-0.000143498;0.000198658;0.002478794;0.001776905;-0.294199139;0.955739319
2024/05/03/13:35:36.213797;229687;1714768536;213417832;world;-7.10E-05;-0.000152078;0.000180818;0.002437209;0.001827365;-0.295465082;0.95534867
2024/05/03/13:35:36.243686;229688;1714768536;243322581;world;-8.59E-05;-0.000142395;0.000169995;0.002479346;0.001824096;-0.296739817;0.954953432
2024/05/03/13:35:36.243711;229689;1714768536;243356975;world;-9.22E-05;-0.000127714;0.000174503;0.00243572;0.001840721;-0.297934502;0.954581439
2024/05/03/13:35:36.283382;229690;1714768536;282910091;world;-9.60E-05;-0.000132542;0.000188763;0.002492597;0.0018165;-0.298608929;0.954370558
2024/05/03/13:35:36.283407;229691;1714768536;282944575;world;-0.000121681;-0.000109833;0.000206554;0.002467134;0.001851199;-0.299909353;0.953962803
2024/05/03/13:35:36.293288;229692;1714768536;292944258;world;-7.27E-05;-0.000113089;0.000181329;0.002540941;0.001872676;-0.301089108;0.953590751
2024/05/03/13:35:36.303387;229693;1714768536;303123623;world;-3.99E-05;-0.000131074;0.000178494;0.002634338;0.001815747;-0.302333146;0.953196943
2024/05/03/13:35:36.323558;229694;1714768536;323209466;world;3.31E-05;-0.00011247;0.00020151;0.002763375;0.001769762;-0.303590268;0.952797055
2024/05/03/13:35:36.343761;229695;1714768536;343470574;world;6.35E-05;-0.000114311;0.000203023;0.002758866;0.001747562;-0.30483076;0.952400982
2024/05/03/13:35:36.373206;229696;1714768536;372943220;world;7.29E-05;-0.000116929;0.000198988;0.002838528;0.001688943;-0.306083649;0.951998949
2024/05/03/13:35:36.383269;229697;1714768536;382998464;world;9.22E-05;-0.000110697;0.000186677;0.002825188;0.001762559;-0.307296097;0.951608181
2024/05/03/13:35:36.383296;229698;1714768536;383028570;world;9.59E-05;-0.000122216;0.000194082;0.002914118;0.001776587;-0.307894915;0.951414227
2024/05/03/13:35:36.403792;229699;1714768536;403516059;world;9.70E-05;-0.000153374;0.000190857;0.00289641;0.001783927;-0.309146315;0.951008379
2024/05/03/13:35:36.413436;229700;1714768536;413155702;world;8.85E-05;-0.000165168;0.000182945;0.002834633;0.001843431;-0.310320377;0.950626016
2024/05/03/13:35:36.453516;229701;1714768536;453233323;world;0.000104979;-0.000180788;0.000168368;0.002919408;0.001896739;-0.311508298;0.950237036
2024/05/03/13:35:36.453539;229702;1714768536;453268579;world;0.000143643;-0.000229534;0.000200863;0.002864231;0.001836284;-0.312741727;0.949832141
2024/05/03/13:35:36.463555;229703;1714768536;463301684;world;0.000153042;-0.000232704;0.000220904;0.002787456;0.001774072;-0.314001352;0.949416757
2024/05/03/13:35:36.474321;229704;1714768536;473910295;world;0.000139445;-0.000241838;0.000218226;0.002766266;0.001827086;-0.315298676;0.948986709
2024/05/03/13:35:36.503281;229705;1714768536;503022782;world;0.000149116;-0.000230603;0.000226107;0.002809537;0.001834983;-0.316564918;0.948564887
2024/05/03/13:35:36.513496;229706;1714768536;513253258;world;0.000141017;-0.000219945;0.000236094;0.002801826;0.001849993;-0.317257822;0.948333383
2024/05/03/13:35:36.523618;229707;1714768536;523084451;world;0.000125917;-0.000213657;0.000247905;0.00282962;0.001883134;-0.318614185;0.947878361
2024/05/03/13:35:36.543489;229708;1714768536;543202754;world;0.000155725;-0.000207391;0.000235546;0.002810058;0.001851843;-0.31990692;0.947442949
2024/05/03/13:35:36.573164;229709;1714768536;572914364;world;0.000147358;-0.000189919;0.000216144;0.002798887;0.001835221;-0.321254641;0.946986914
2024/05/03/13:35:36.583360;229710;1714768536;583075350;world;0.000123346;-0.000139434;0.000206539;0.002831162;0.001724375;-0.322626293;0.946520627
2024/05/03/13:35:36.593491;229711;1714768536;593166215;world;5.34E-05;-8.96E-05;0.000256765;0.002722509;0.001805533;-0.324089915;0.946020603
2024/05/03/13:35:36.603166;229712;1714768536;602917926;world;5.35E-05;-9.91E-05;0.000256811;0.002690595;0.001933497;-0.325386405;0.945575416
2024/05/03/13:35:36.623570;229713;1714768536;623252682;world;6.87E-05;-0.00012086;0.000262857;0.002593207;0.001896814;-0.326670647;0.945132852
2024/05/03/13:35:36.653480;229714;1714768536;653041165;world;6.17E-05;-0.00010594;0.000266753;0.00253645;0.001941972;-0.327271014;0.944925129
2024/05/03/13:35:36.653507;229715;1714768536;653079095;world;2.57E-05;-0.000102293;0.000256554;0.002512288;0.001915559;-0.328572392;0.944473505
2024/05/03/13:35:36.703295;229716;1714768536;702998036;world;-6.19E-06;-0.000103459;0.000252943;0.002509758;0.001925424;-0.329802006;0.944044888
2024/05/03/13:35:36.703334;229718;1714768536;703052808;world;7.63E-06;-0.000116855;0.000241345;0.002473931;0.001961679;-0.332214326;0.943198681
2024/05/03/13:35:36.713216;229719;1714768536;712925190;world;3.53E-05;-0.000114903;0.000250023;0.002555352;0.001934971;-0.333492517;0.942747295
2024/05/03/13:35:36.723348;229720;1714768536;723116785;world;3.10E-05;-0.00010933;0.000224153;0.002604745;0.002031702;-0.334751099;0.942300856
2024/05/03/13:35:36.753194;229721;1714768536;752883570;world;2.37E-05;-0.000105772;0.000229714;0.002573328;0.002011367;-0.336068124;0.941832066
2024/05/03/13:35:36.773542;229722;1714768536;773259023;world;3.60E-05;-9.45E-05;0.000220387;0.002639716;0.001972445;-0.336666167;0.941618383
2024/05/03/13:35:36.783638;229723;1714768536;783391826;world;9.74E-05;-9.12E-05;0.000192122;0.002715787;0.001988664;-0.337858856;0.941190839
2024/05/03/13:35:36.793626;229724;1714768536;793163518;world;0.000147106;-0.000100952;0.000196529;0.002822852;0.001963696;-0.339125246;0.940734982
2024/05/03/13:35:36.813656;229725;1714768536;813345339;world;0.000179697;-0.00011697;0.000205822;0.00299926;0.001955489;-0.340928525;0.940082371
2024/05/03/13:35:36.823351;229726;1714768536;823085074;world;0.000174038;-0.000139792;0.00023406;0.003008084;0.001883116;-0.341570199;0.939849615
2024/05/03/13:35:36.853638;229727;1714768536;853371286;world;0.000162356;-0.00014763;0.000245703;0.003086098;0.001934892;-0.342740923;0.939422905
2024/05/03/13:35:36.853675;229728;1714768536;853406853;world;0.000149941;-0.000148121;0.000240613;0.003073441;0.001934838;-0.344025761;0.938953221
2024/05/03/13:35:36.883621;229729;1714768536;883260714;world;0.000148581;-0.000151109;0.000243641;0.003114775;0.001877502;-0.345252484;0.938502789
2024/05/03/13:35:36.893411;229730;1714768536;893127626;world;0.000142943;-0.000139937;0.000250966;0.003153805;0.001893194;-0.34646225;0.938056707
2024/05/03/13:35:36.903923;229731;1714768536;903355722;world;0.000125341;-0.000134598;0.000266008;0.003139064;0.001814323;-0.347744972;0.937582195
2024/05/03/13:35:36.913505;229732;1714768536;913218542;world;0.000110343;-0.000148892;0.000255449;0.003139115;0.001887775;-0.348406851;0.937336326
2024/05/03/13:35:36.933219;229733;1714768536;932918870;world;0.000124021;-0.000148691;0.000215172;0.003188789;0.001987997;-0.349630892;0.936879992
2024/05/03/13:35:36.953397;229734;1714768536;953093438;world;0.000128901;-0.000115458;0.000220128;0.003016229;0.001966469;-0.350832969;0.93643111
2024/05/03/13:35:36.963633;229735;1714768536;963316164;world;0.000144234;-0.000122242;0.000183217;0.003268938;0.002071831;-0.352060527;0.935969293
2024/05/03/13:35:37.003705;229736;1714768537;3272409;world;0.000177715;-0.000140723;0.000202498;0.003133022;0.002115651;-0.35337168;0.935475409
2024/05/03/13:35:37.003716;229737;1714768537;3318194;world;0.000198994;-0.000146661;0.000193946;0.003282041;0.002139952;-0.35458988;0.935013771
2024/05/03/13:35:37.013289;229738;1714768537;12996187;world;0.00019642;-0.00014801;0.000183862;0.003211515;0.002204715;-0.355198652;0.934782803
2024/05/03/13:35:37.023425;229739;1714768537;23165946;world;0.000209965;-0.000168685;0.000201592;0.003287767;0.00213306;-0.356431335;0.934313357
2024/05/03/13:35:37.043729;229740;1714768537;43450779;world;0.000243135;-0.000141155;0.000214197;0.003393246;0.002179699;-0.357686877;0.933832943
2024/05/03/13:35:37.063295;229741;1714768537;63032044;world;0.000221465;-0.000141714;0.000201039;0.00341109;0.002184591;-0.358992547;0.933331609
2024/05/03/13:35:37.123527;229742;1714768537;123142261;world;0.000199541;-0.0001361;0.000206208;0.003480086;0.002174037;-0.360237777;0.932851553
2024/05/03/13:35:37.123556;229745;1714768537;123201361;world;0.000255024;-0.000167772;0.000161613;0.003430338;0.002175309;-0.363706678;0.931504726
2024/05/03/13:35:37.133589;229746;1714768537;132869186;world;0.000224236;-0.00017304;0.000165174;0.003352067;0.002272204;-0.365076005;0.930969
2024/05/03/13:35:37.194247;229747;1714768537;193480746;world;0.000222204;-0.000174835;0.000183756;0.003256119;0.00229722;-0.366330892;0.930476129
2024/05/03/13:35:37.203590;229748;1714768537;203175590;world;0.00022006;-0.000181556;0.000186353;0.003234483;0.002307883;-0.36693114;0.930239618
2024/05/03/13:35:37.203619;229750;1714768537;203218690;world;0.00017898;-0.000151452;0.000174655;0.003120971;0.002348562;-0.369400382;0.929262221
2024/05/03/13:35:37.214415;229751;1714768537;213383911;world;0.000205941;-0.000131819;0.000194697;0.003205059;0.002208347;-0.37062341;0.928775072
2024/05/03/13:35:37.234145;229752;1714768537;233577118;world;0.000193017;-9.59E-05;0.000198455;0.003107949;0.002191496;-0.371947736;0.928245842
2024/05/03/13:35:37.243515;229753;1714768537;243179325;world;0.000217348;-4.44E-05;0.000181735;0.003215452;0.00216892;-0.373242199;0.927725911
2024/05/03/13:35:37.263746;229754;1714768537;263277592;world;0.000185307;-1.31E-05;0.000166247;0.003073744;0.002141219;-0.373895675;0.927463233
2024/05/03/13:35:37.303257;229755;1714768537;302962697;world;0.000148188;-7.96E-06;0.000194063;0.003025245;0.002191576;-0.375799865;0.92669338
2024/05/03/13:35:37.303287;229756;1714768537;302997511;world;0.000134496;-7.17E-06;0.000217627;0.003070391;0.002120127;-0.376381487;0.926457226
2024/05/03/13:35:37.313860;229757;1714768537;313083472;world;0.000126926;-6.14E-06;0.000205327;0.002986431;0.002236934;-0.377639234;0.925945282
2024/05/03/13:35:37.323521;229758;1714768537;323108921;world;0.000121702;7.24E-06;0.000197183;0.002985398;0.00225877;-0.378870457;0.925442219
2024/05/03/13:35:37.333259;229759;1714768537;333025700;world;0.000157429;2.73E-05;0.000212206;0.002998577;0.002277847;-0.380075246;0.924947917
2024/05/03/13:35:37.353316;229760;1714768537;352937509;world;0.000172233;3.64E-05;0.000242955;0.002952031;0.00219322;-0.38126874;0.924457014
2024/05/03/13:35:37.373843;229761;1714768537;372957812;world;0.000154505;3.61E-05;0.000224225;0.002981621;0.002266258;-0.382486463;0.923953474
2024/05/03/13:35:37.403647;229762;1714768537;403388609;world;0.00017013;4.17E-05;0.000241384;0.00293247;0.0022864;-0.38309145;0.923703015
2024/05/03/13:35:37.403656;229763;1714768537;403423274;world;0.000173913;5.52E-05;0.000235169;0.003015951;0.00231267;-0.384294301;0.923202872
2024/05/03/13:35:37.423324;229764;1714768537;423059035;world;0.00016295;5.34E-05;0.000244924;0.002979895;0.002356206;-0.385582626;0.922665477
2024/05/03/13:35:37.433446;229765;1714768537;433141947;world;0.000189478;5.98E-05;0.000250024;0.002891663;0.002410746;-0.386806458;0.922153294
2024/05/03/13:35:37.453278;229766;1714768537;452997843;world;0.000158943;6.65E-05;0.00022605;0.003047504;0.002463538;-0.388118058;0.921601355
2024/05/03/13:35:37.473341;229767;1714768537;472977810;world;0.000157788;7.61E-05;0.000234804;0.003059406;0.002454073;-0.389283568;0.921109617
2024/05/03/13:35:37.523621;229768;1714768537;523259565;world;0.000160096;6.27E-05;0.000224554;0.003110748;0.002422327;-0.390462846;0.920610249
2024/05/03/13:35:37.523677;229771;1714768537;523314797;world;0.000189686;3.26E-05;0.000234832;0.003268821;0.002466177;-0.3934277;0.919346452
2024/05/03/13:35:37.543279;229772;1714768537;543007620;world;0.000178462;4.11E-05;0.000230496;0.003286132;0.002507388;-0.394665748;0.918815494
2024/05/03/13:35:37.573476;229773;1714768537;573106529;world;0.000189792;3.69E-05;0.000240352;0.003299621;0.002530447;-0.395886958;0.91828984
2024/05/03/13:35:37.573519;229774;1714768537;573142656;world;0.000198597;5.12E-05;0.000248551;0.003261093;0.002568673;-0.397145599;0.917746246
2024/05/03/13:35:37.603907;229775;1714768537;603180344;world;0.000167437;6.91E-05;0.000258616;0.003310679;0.002575599;-0.398385406;0.917208493
2024/05/03/13:35:37.603913;229776;1714768537;603216872;world;0.000155159;6.38E-05;0.000272552;0.003270988;0.002627832;-0.399656624;0.916655302
2024/05/03/13:35:37.623298;229777;1714768537;623055892;world;0.000171873;7.81E-05;0.000286795;0.003292152;0.002580402;-0.400917917;0.916104436
2024/05/03/13:35:37.633076;229778;1714768537;632831678;world;0.000188707;9.45E-05;0.000286052;0.003299364;0.002615804;-0.401573569;0.915817082
2024/05/03/13:35:37.653457;229779;1714768537;653181778;world;0.000170325;0.000114929;0.000271596;0.003235865;0.002527053;-0.402798444;0.915279508
2024/05/03/13:35:37.675112;229780;1714768537;674855530;world;0.000192102;9.98E-05;0.000288896;0.003239177;0.002462985;-0.40402168;0.914740324
2024/05/03/13:35:37.675135;229781;1714768537;674877551;world;0.000237346;0.000107985;0.000275755;0.003296152;0.002434574;-0.405268997;0.914188266
2024/05/03/13:35:37.703196;229782;1714768537;702905203;world;0.000257969;0.00010363;0.000252646;0.003291413;0.002528406;-0.406551301;0.913618565
2024/05/03/13:35:37.713602;229783;1714768537;713253174;world;0.000277191;7.90E-05;0.000236139;0.00320308;0.00247839;-0.407810837;0.913057506
2024/05/03/13:35:37.733529;229784;1714768537;733204415;world;0.000291636;9.55E-05;0.00023716;0.003174621;0.002541289;-0.40901801;0.91251725
2024/05/03/13:35:37.743441;229785;1714768537;743124159;world;0.000274163;8.89E-05;0.000245407;0.003133513;0.002547883;-0.410162151;0.912003696
2024/05/03/13:35:37.773684;229786;1714768537;773309479;world;0.000315731;8.80E-05;0.000257645;0.003253696;0.002547705;-0.411384314;0.911452651
2024/05/03/13:35:37.773747;229787;1714768537;773377154;world;0.000305343;8.92E-05;0.000254399;0.003252618;0.002606306;-0.411993742;0.911177218
2024/05/03/13:35:37.813437;229788;1714768537;813006686;world;0.000319663;0.000109345;0.000255002;0.003238996;0.002641;-0.413154483;0.910651386
2024/05/03/13:35:37.813444;229789;1714768537;813042662;world;0.00033609;9.80E-05;0.000267497;0.003221091;0.002624636;-0.414300919;0.910130501
2024/05/03/13:35:37.823590;229790;1714768537;823247465;world;0.000312634;0.000108298;0.000278065;0.003267316;0.002616528;-0.415539861;0.90956533
2024/05/03/13:35:37.833224;229791;1714768537;832896916;world;0.000317689;0.000120919;0.000276991;0.003242534;0.002573868;-0.41678375;0.908996224
2024/05/03/13:35:37.853313;229792;1714768537;853013913;world;0.000344941;0.000101652;0.000319208;0.003394532;0.002473988;-0.418025404;0.908425689
2024/05/03/13:35:37.873351;229793;1714768537;873062180;world;0.000367446;9.05E-05;0.000300279;0.003454141;0.002478565;-0.418588281;0.908166111
2024/05/03/13:35:37.933555;229794;1714768537;933099403;world;0.000389872;7.70E-05;0.000300511;0.00344476;0.002601377;-0.419789106;0.907611489
2024/05/03/13:35:37.933684;229797;1714768537;933159264;world;0.000400307;6.88E-05;0.000288017;0.003588693;0.002643017;-0.423484266;0.905892491
2024/05/03/13:35:37.953716;229798;1714768537;953364969;world;0.000433374;3.73E-05;0.000273179;0.003637046;0.002632034;-0.424698442;0.905323803
2024/05/03/13:35:37.963367;229799;1714768537;963030477;world;0.000438338;1.82E-05;0.000258352;0.003616425;0.002705014;-0.425854832;0.904780209
2024/05/03/13:35:37.983378;229800;1714768537;983138755;world;0.000434786;1.63E-05;0.000251631;0.003618391;0.002814568;-0.427085161;0.904199839
2024/05/03/13:35:38.003728;229801;1714768538;3392889;world;0.000434024;1.51E-05;0.000244259;0.003607509;0.002924057;-0.428278953;0.903634667
2024/05/03/13:35:38.013447;229802;1714768538;13134565;world;0.000424204;2.40E-05;0.000220763;0.003675298;0.002966701;-0.42890361;0.903337896
2024/05/03/13:35:38.023200;229803;1714768538;22900052;world;0.000435201;3.95E-05;0.000224264;0.00368613;0.002979003;-0.430074841;0.902780771
2024/05/03/13:35:38.043536;229804;1714768538;43245998;world;0.000460239;7.31E-05;0.000216084;0.003576096;0.002925152;-0.431195557;0.902246714
2024/05/03/13:35:38.053197;229805;1714768538;52909957;world;0.000437466;6.50E-05;0.000225209;0.003594703;0.002947426;-0.432497829;0.90162307
2024/05/03/13:35:38.083220;229806;1714768538;82930783;world;0.000460757;0.000101566;0.000205348;0.003410573;0.002983157;-0.433786005;0.901004553
2024/05/03/13:35:38.093914;229807;1714768538;93639593;world;0.000479948;9.22E-05;0.000192496;0.003445958;0.002996427;-0.434886694;0.900473654
2024/05/03/13:35:38.103496;229808;1714768538;102862680;world;0.000496525;8.78E-05;0.000187618;0.00345847;0.002979513;-0.436051607;0.899910092
