time;.header.seq;.header.stamp.secs;.header.stamp.nsecs;.header.frame_id;.pose.position.x;.pose.position.y;.pose.position.z;.pose.orientation.x;.pose.orientation.y;.pose.orientation.z;.pose.orientation.w
2024/05/03/13:02:45.603475;104183;1714766565;603133907;world;1.14E-05;3.06E-05;-1.13E-05;-0.000205677;5.57E-05;-8.60E-05;1
2024/05/03/13:02:45.633664;104184;1714766565;633238586;world;6.58E-05;9.34E-05;-3.52E-05;-0.000226004;-5.25E-05;-0.000219528;1
2024/05/03/13:02:45.644245;104185;1714766565;643916774;world;7.67E-05;9.33E-05;-3.36E-05;-0.000209618;-6.27E-05;-0.000198727;1
2024/05/03/13:02:45.673661;104186;1714766565;673184884;world;-1.27E-06;5.08E-05;1.91E-05;4.33E-05;-5.72E-05;-8.38E-06;1
2024/05/03/13:02:45.674531;104187;1714766565;673227293;world;-1.91E-06;7.19E-05;-1.90E-06;-8.55E-05;-0.000102513;-3.04E-05;1
2024/05/03/13:02:45.683267;104188;1714766565;682976808;world;-3.72E-05;1.88E-05;-1.04E-05;-0.000209662;2.06E-05;3.02E-05;1
2024/05/03/13:02:45.703778;104189;1714766565;702962640;world;9.96E-06;6.98E-05;6.01E-06;-1.18E-06;-7.36E-05;-4.14E-05;1
2024/05/03/13:02:45.723490;104190;1714766565;723070613;world;1.61E-05;9.30E-05;-9.95E-06;-5.95E-06;-0.000115114;-7.68E-05;1
2024/05/03/13:02:45.733499;104191;1714766565;733170395;world;8.55E-05;9.94E-05;-5.53E-05;-0.000281264;-3.05E-05;-0.000181843;1
2024/05/03/13:02:45.783293;104192;1714766565;782953790;world;4.92E-05;9.23E-05;-3.72E-05;-0.000215518;-3.95E-05;-0.000120443;1
2024/05/03/13:02:45.783329;104194;1714766565;783002542;world;-1.99E-06;3.96E-05;-6.46E-06;-5.27E-05;0.00010279;6.16E-06;1
2024/05/03/13:02:45.803559;104195;1714766565;803089386;world;-1.46E-05;4.10E-05;4.02E-06;4.92E-06;1.26E-05;-6.15E-05;1
2024/05/03/13:02:45.813294;104196;1714766565;812998860;world;-1.40E-05;1.81E-05;-2.49E-05;-0.000182743;4.69E-06;-8.95E-05;1
2024/05/03/13:02:45.833778;104197;1714766565;833368913;world;-7.34E-06;1.75E-05;-2.83E-05;-0.00020755;3.15E-05;-4.45E-06;1
2024/05/03/13:02:45.844144;104198;1714766565;843326099;world;-4.19E-06;3.02E-05;-3.61E-05;-0.00026135;-1.31E-05;-6.45E-05;1
2024/05/03/13:02:45.863518;104199;1714766565;863204359;world;1.24E-05;4.92E-05;-3.57E-05;-0.000274723;-2.26E-05;-0.000131583;1
2024/05/03/13:02:45.873491;104200;1714766565;873169097;world;5.82E-05;9.27E-05;-4.58E-05;-0.000259588;-3.38E-05;-0.000183653;1
2024/05/03/13:02:45.893335;104201;1714766565;892942240;world;3.14E-05;6.95E-05;-5.87E-06;-7.16E-05;-0.000113018;-9.71E-05;1
2024/05/03/13:02:45.903862;104202;1714766565;903434993;world;6.16E-06;4.95E-05;1.06E-06;4.81E-05;-1.71E-05;-1.28E-05;1
2024/05/03/13:02:45.923717;104203;1714766565;923385349;world;-2.49E-05;2.92E-05;9.88E-06;6.53E-07;5.21E-05;7.50E-05;1
2024/05/03/13:02:45.943211;104204;1714766565;942893221;world;1.74E-05;4.99E-05;-1.47E-05;-0.000154407;-4.11E-05;-0.000135791;1
2024/05/03/13:02:45.963918;104205;1714766565;963684237;world;-3.35E-06;4.08E-05;-2.18E-05;-0.000201169;9.51E-05;-5.26E-05;1
2024/05/03/13:02:45.973454;104206;1714766565;973137745;world;-1.65E-05;5.31E-05;5.35E-06;-6.15E-05;0.000101614;1.10E-05;1
2024/05/03/13:02:45.983505;104207;1714766565;983169719;world;2.74E-05;5.51E-05;-1.40E-06;-0.00011632;-0.00012521;-0.000129018;1
2024/05/03/13:02:46.003606;104208;1714766566;3083537;world;4.97E-05;6.55E-05;1.02E-05;-1.36E-05;-0.000151375;-9.73E-05;1
2024/05/03/13:02:46.013386;104209;1714766566;13063765;world;2.58E-05;9.06E-05;-2.31E-05;-0.000235622;-4.37E-05;-0.000138184;1
2024/05/03/13:02:46.043327;104210;1714766566;42996753;world;-1.24E-05;2.60E-05;-3.38E-05;-0.000292164;-1.95E-06;-3.56E-05;1
2024/05/03/13:02:46.043336;104211;1714766566;43030958;world;-4.81E-05;1.98E-05;5.07E-05;1.55E-05;-8.53E-05;2.10E-05;1
2024/05/03/13:02:46.073742;104212;1714766566;73360890;world;-4.30E-05;1.57E-05;4.05E-05;-6.22E-05;-7.20E-05;-4.87E-05;1
2024/05/03/13:02:46.083888;104213;1714766566;83068936;world;-4.88E-06;1.66E-05;3.08E-05;-3.82E-05;-2.59E-05;-1.66E-05;1
2024/05/03/13:02:46.093803;104214;1714766566;93167666;world;4.29E-05;5.57E-05;-1.90E-05;-0.000186472;-9.14E-05;-0.000179449;1
2024/05/03/13:02:46.113444;104215;1714766566;113089518;world;-1.88E-05;5.95E-05;1.53E-05;-6.80E-05;1.71E-05;-3.44E-05;1
2024/05/03/13:02:46.123574;104216;1714766566;123246717;world;-1.04E-05;4.89E-05;-4.05E-06;-1.78E-05;9.83E-05;3.08E-06;1
2024/05/03/13:02:46.143662;104217;1714766566;143330123;world;4.51E-05;7.85E-05;-3.11E-05;-0.000183232;-6.95E-05;-0.000171753;1
2024/05/03/13:02:46.163573;104218;1714766566;163256865;world;3.30E-05;6.70E-05;-8.17E-06;-0.000204253;7.04E-06;-9.42E-05;1
2024/05/03/13:02:46.173576;104219;1714766566;173223947;world;-1.53E-07;1.98E-05;-7.27E-07;-4.08E-05;8.51E-05;-8.36E-06;1
2024/05/03/13:02:46.183498;104220;1714766566;183199567;world;-5.11E-05;4.60E-05;9.45E-06;-7.14E-05;7.58E-06;5.56E-05;1
2024/05/03/13:02:46.203738;104221;1714766566;203260882;world;-1.06E-05;3.91E-05;-9.10E-06;-0.000230275;3.20E-05;-2.05E-05;1
2024/05/03/13:02:46.223177;104222;1714766566;222869575;world;-1.96E-06;4.22E-05;4.17E-05;-7.00E-05;1.51E-05;-1.30E-05;1
2024/05/03/13:02:46.253474;104223;1714766566;253143795;world;-3.94E-05;6.09E-05;2.37E-05;-2.97E-05;-6.77E-05;3.38E-05;1
2024/05/03/13:02:46.253502;104224;1714766566;253180554;world;-1.17E-05;2.01E-05;-1.08E-06;-0.000144612;4.36E-05;-1.22E-06;1
2024/05/03/13:02:46.263405;104225;1714766566;263094567;world;-2.60E-05;2.98E-05;-2.67E-05;-0.000321894;7.35E-06;-4.78E-05;1
2024/05/03/13:02:46.283671;104226;1714766566;283292598;world;-9.69E-05;-1.42E-05;2.40E-05;-3.90E-05;0.000191015;0.000132818;1
2024/05/03/13:02:46.293676;104227;1714766566;293285762;world;-5.14E-05;-6.63E-06;-1.77E-06;-0.000172674;-2.55E-05;1.44E-05;1
2024/05/03/13:02:46.313420;104228;1714766566;313131685;world;-2.97E-05;3.72E-05;2.33E-05;7.87E-06;5.37E-06;3.47E-05;1
2024/05/03/13:02:46.323979;104229;1714766566;323645830;world;4.56E-06;5.54E-05;-2.39E-06;-5.38E-05;4.84E-05;-3.62E-05;1
2024/05/03/13:02:46.343962;104230;1714766566;343721062;world;2.05E-05;7.42E-05;-3.38E-05;-0.000207265;5.25E-05;-8.65E-05;1
2024/05/03/13:02:46.353662;104231;1714766566;353089210;world;-2.16E-05;6.53E-05;-5.62E-06;-0.00016409;1.76E-05;6.24E-07;1
2024/05/03/13:02:46.373616;104232;1714766566;373285687;world;1.61E-05;4.00E-05;-1.28E-05;-0.000194534;-4.58E-06;-0.000105194;1
2024/05/03/13:02:46.393532;104233;1714766566;393262423;world;1.47E-06;4.08E-05;1.59E-05;-2.37E-05;-2.18E-05;-5.70E-05;1
2024/05/03/13:02:46.403968;104234;1714766566;403697875;world;-6.02E-05;2.32E-05;5.54E-05;2.54E-05;-2.84E-05;6.56E-05;1
2024/05/03/13:02:46.423439;104235;1714766566;423110951;world;-6.15E-05;1.59E-05;3.83E-05;4.04E-05;8.00E-05;9.78E-05;1
2024/05/03/13:02:46.433308;104236;1714766566;432987625;world;-4.24E-05;1.48E-05;-2.79E-05;-0.000185254;1.86E-05;-4.22E-07;1
2024/05/03/13:02:46.453345;104237;1714766566;453010146;world;2.35E-05;4.95E-05;9.07E-06;-0.000125855;-1.96E-05;-9.56E-05;1
2024/05/03/13:02:46.473415;104238;1714766566;473074558;world;-1.15E-05;1.67E-05;7.20E-06;-6.53E-06;5.19E-05;-2.99E-06;1
2024/05/03/13:02:46.483393;104239;1714766566;483088899;world;-4.04E-06;4.86E-05;4.76E-06;-0.000188678;-8.79E-05;-0.000100181;1
2024/05/03/13:02:46.503662;104240;1714766566;502963611;world;3.48E-05;7.17E-05;-2.03E-05;-0.000209756;-4.75E-05;-0.000142639;1
2024/05/03/13:02:46.513208;104241;1714766566;512883015;world;9.97E-05;8.39E-05;-5.83E-05;-0.000268779;-5.76E-05;-0.000239012;1
2024/05/03/13:02:46.523686;104242;1714766566;523397245;world;2.54E-05;9.76E-05;-1.70E-06;-0.00010663;-9.89E-05;-9.94E-05;1
2024/05/03/13:02:46.553557;104243;1714766566;553162522;world;-3.65E-05;5.09E-05;3.46E-05;1.04E-05;1.95E-05;1.61E-05;1
2024/05/03/13:02:46.563362;104244;1714766566;562988179;world;-2.55E-05;2.54E-05;1.37E-05;-5.33E-05;-2.14E-05;4.73E-05;1
2024/05/03/13:02:46.583623;104245;1714766566;583220709;world;-2.95E-05;2.11E-05;3.86E-05;-7.14E-05;-7.35E-05;-9.08E-05;1
2024/05/03/13:02:46.593249;104246;1714766566;592878490;world;-5.81E-05;1.46E-05;5.36E-05;3.41E-06;5.41E-05;2.02E-05;1
2024/05/03/13:02:46.613755;104247;1714766566;613457427;world;-2.76E-05;3.35E-05;3.84E-05;9.95E-05;1.45E-05;2.23E-05;1
2024/05/03/13:02:46.623239;104248;1714766566;622940130;world;-5.87E-06;6.70E-05;-1.28E-05;-0.000231254;-2.17E-05;-8.37E-05;1
2024/05/03/13:02:46.643463;104249;1714766566;643095723;world;-3.68E-05;-1.01E-05;-5.59E-06;-3.12E-05;0.00012759;6.45E-05;1
2024/05/03/13:02:46.653617;104250;1714766566;653285513;world;1.21E-05;6.44E-05;8.12E-06;-7.99E-05;-7.34E-05;-6.34E-05;1
2024/05/03/13:02:46.683302;104251;1714766566;682921393;world;-7.03E-05;8.52E-06;3.64E-05;0.000110166;5.82E-05;0.000118905;1
2024/05/03/13:02:46.683335;104252;1714766566;682968762;world;-3.50E-05;2.25E-05;1.99E-05;-7.93E-05;2.58E-05;7.29E-05;1
2024/05/03/13:02:46.703324;104253;1714766566;702970114;world;1.51E-05;2.99E-05;1.85E-05;-4.18E-06;-0.000111494;-8.08E-05;1
2024/05/03/13:02:46.723521;104254;1714766566;723189605;world;-1.26E-05;6.45E-05;4.05E-06;-0.000207343;-2.64E-05;-2.94E-05;1
2024/05/03/13:02:46.733874;104255;1714766566;733264390;world;1.22E-05;4.26E-05;3.99E-05;-5.77E-05;-4.87E-05;-6.69E-05;1
2024/05/03/13:02:46.753485;104256;1714766566;753148973;world;1.87E-05;4.14E-05;-4.07E-05;-0.000231251;-0.00014271;-0.000137924;1
2024/05/03/13:02:46.763648;104257;1714766566;763305150;world;-2.31E-05;3.79E-05;-1.84E-05;-0.000350845;-6.43E-05;-4.38E-05;1
2024/05/03/13:02:46.783371;104258;1714766566;783068294;world;2.20E-05;2.47E-05;3.89E-05;-0.00011517;-5.17E-05;-0.000191545;1
2024/05/03/13:02:46.794264;104259;1714766566;793636939;world;-6.91E-06;1.57E-05;4.19E-05;4.03E-05;-7.30E-05;-6.65E-05;1
2024/05/03/13:02:46.813915;104260;1714766566;813557258;world;5.81E-05;7.01E-05;-1.56E-05;-0.000127398;-0.000141495;-0.000147351;1
2024/05/03/13:02:46.833550;104261;1714766566;833203010;world;6.16E-06;6.39E-05;3.55E-06;2.42E-05;-1.87E-05;-2.99E-05;1
2024/05/03/13:02:46.843882;104262;1714766566;843514290;world;3.65E-06;7.29E-05;5.88E-06;-2.90E-05;-1.33E-05;-4.09E-05;1
2024/05/03/13:02:46.863620;104263;1714766566;863192605;world;-3.86E-05;4.56E-06;1.18E-05;-8.40E-05;-1.22E-05;5.20E-06;1
2024/05/03/13:02:46.873600;104264;1714766566;873247187;world;-3.10E-05;5.92E-06;-1.88E-05;-0.00013763;-3.51E-05;-4.41E-05;1
2024/05/03/13:02:46.893749;104265;1714766566;893354132;world;-2.60E-05;2.80E-05;-4.29E-05;-0.00025605;-1.19E-05;1.00E-05;1
2024/05/03/13:02:46.903504;104266;1714766566;903153024;world;4.64E-05;7.37E-05;-2.59E-05;-0.000289304;-1.67E-05;-0.000221307;1
2024/05/03/13:02:46.923271;104267;1714766566;922891267;world;4.31E-05;6.62E-05;-2.68E-05;-0.00027047;-6.20E-05;-0.000163879;1
2024/05/03/13:02:46.933726;104268;1714766566;932924214;world;3.94E-05;6.21E-05;-5.76E-05;-0.000200369;1.39E-05;-9.26E-05;1
2024/05/03/13:02:46.963502;104269;1714766566;963140532;world;3.97E-05;8.60E-05;-3.37E-05;-0.000209845;-2.49E-05;-8.62E-05;1
2024/05/03/13:02:46.963535;104270;1714766566;963176690;world;-2.26E-05;4.07E-05;-5.30E-06;-0.000152522;3.11E-05;-1.52E-05;1
2024/05/03/13:02:46.993558;104271;1714766566;993224131;world;-5.52E-05;5.15E-06;-2.48E-06;-5.77E-05;5.87E-05;7.87E-05;1
2024/05/03/13:02:47.003321;104272;1714766567;3057373;world;-6.05E-06;1.63E-05;-7.09E-06;-0.00010768;-7.08E-05;-6.24E-05;1
2024/05/03/13:02:47.013594;104273;1714766567;13354180;world;5.29E-06;5.59E-05;-4.66E-05;-0.000284065;-1.27E-05;-9.35E-05;1
2024/05/03/13:02:47.023297;104274;1714766567;23048143;world;2.29E-05;2.82E-05;-4.76E-05;-0.000326781;4.47E-05;-6.10E-05;1
2024/05/03/13:02:47.043700;104275;1714766567;43312439;world;2.43E-05;4.10E-05;-4.91E-05;-0.00026579;-4.20E-06;-0.000109434;1
2024/05/03/13:02:47.063383;104276;1714766567;63112274;world;-2.84E-05;4.25E-05;-4.09E-05;-0.000343975;2.11E-05;-5.74E-05;1
2024/05/03/13:02:47.073529;104277;1714766567;73158519;world;-4.30E-05;-1.80E-05;-2.61E-05;-0.00013936;1.86E-05;4.53E-05;1
2024/05/03/13:02:47.093230;104278;1714766567;92918943;world;1.16E-05;4.77E-05;9.80E-06;6.85E-05;-6.53E-05;-1.33E-06;1
2024/05/03/13:02:47.103518;104279;1714766567;103316996;world;-7.45E-08;7.22E-05;-2.32E-06;-0.000331811;2.38E-05;-0.000180162;1
2024/05/03/13:02:47.123699;104280;1714766567;123386996;world;5.31E-05;5.89E-05;-3.68E-05;-0.000330466;2.23E-05;-0.000204198;1
2024/05/03/13:02:47.143782;104281;1714766567;143271718;world;8.93E-05;9.57E-05;-6.98E-05;-0.00034583;-0.000101794;-0.000243656;0.999999881
2024/05/03/13:02:47.164130;104282;1714766567;163066933;world;8.33E-05;9.72E-05;-4.50E-05;-0.000236249;-0.00013731;-0.000200909;1
2024/05/03/13:02:47.173812;104283;1714766567;173377477;world;5.00E-05;8.28E-05;-5.60E-06;2.01E-05;-6.41E-05;-3.45E-05;1
2024/05/03/13:02:47.193234;104284;1714766567;192967089;world;-2.46E-05;5.38E-05;1.78E-05;-1.73E-05;-5.94E-05;1.41E-05;1
2024/05/03/13:02:47.203536;104285;1714766567;203181662;world;-2.50E-05;3.17E-05;3.52E-06;-0.000148889;-1.80E-05;-2.08E-05;1
2024/05/03/13:02:47.213406;104286;1714766567;213067185;world;-1.81E-06;2.23E-05;3.61E-06;-9.96E-05;-0.000110186;-8.99E-05;1
2024/05/03/13:02:47.233257;104287;1714766567;232959563;world;-3.41E-05;4.54E-05;-1.44E-05;-0.000105637;3.99E-05;4.08E-05;1
2024/05/03/13:02:47.243474;104288;1714766567;243229073;world;-3.01E-05;3.48E-07;1.44E-05;9.45E-05;0.000137094;8.28E-05;1
2024/05/03/13:02:47.273942;104289;1714766567;273582450;world;-5.75E-06;5.95E-05;-2.14E-05;-0.000151638;-8.89E-05;-5.99E-05;1
2024/05/03/13:02:47.283558;104290;1714766567;283302329;world;8.73E-05;9.00E-05;-3.54E-05;-0.000185567;-0.000127204;-0.00022661;1
2024/05/03/13:02:47.303402;104291;1714766567;303040533;world;8.24E-05;8.52E-05;-6.14E-05;-0.000155663;-3.84E-05;-0.000131791;1
2024/05/03/13:02:47.313521;104292;1714766567;313167189;world;8.60E-05;0.000114456;-5.77E-05;-0.000253625;-5.71E-05;-0.000194728;1
2024/05/03/13:02:47.323712;104293;1714766567;323300473;world;-1.33E-05;6.73E-05;1.27E-05;-1.43E-05;2.26E-06;-2.28E-06;1
2024/05/03/13:02:47.343624;104294;1714766567;343371937;world;2.48E-05;5.00E-05;-5.43E-06;-8.61E-05;9.16E-06;-2.58E-05;1
2024/05/03/13:02:47.353225;104295;1714766567;352929862;world;5.01E-05;7.57E-05;-1.15E-05;-0.000189861;-0.00012684;-0.000173767;1
2024/05/03/13:02:47.373513;104296;1714766567;373279837;world;6.01E-05;6.90E-05;-1.35E-05;-0.000208895;-6.18E-05;-0.00021939;1
2024/05/03/13:02:47.393786;104297;1714766567;393319703;world;3.40E-05;8.48E-05;-4.30E-05;-0.000262996;-3.47E-05;-8.86E-05;1
2024/05/03/13:02:47.403485;104298;1714766567;403157182;world;3.30E-05;7.81E-05;-3.86E-05;-0.000304588;-8.17E-05;-0.000122779;1
2024/05/03/13:02:47.423689;104299;1714766567;423335015;world;4.25E-05;6.29E-05;7.01E-07;-6.56E-05;-5.60E-08;-6.05E-05;1
2024/05/03/13:02:47.433266;104300;1714766567;432906326;world;-2.52E-05;6.55E-05;4.45E-06;-6.76E-05;-7.53E-05;-4.93E-05;1
2024/05/03/13:02:47.453135;104301;1714766567;452847194;world;-1.83E-06;8.29E-05;-1.02E-05;-0.000171106;1.90E-05;-0.000102593;1
2024/05/03/13:02:47.473613;104302;1714766567;473333555;world;4.47E-05;3.27E-05;-6.26E-05;-0.000300723;-2.11E-05;-0.000113469;1
2024/05/03/13:02:47.483392;104303;1714766567;482861665;world;0.000107054;9.72E-05;-4.02E-05;-0.000174908;-0.000144749;-0.000281016;1
2024/05/03/13:02:47.503897;104304;1714766567;503241045;world;0.000153989;7.54E-05;3.76E-05;-5.64E-05;-6.32E-05;-2.97E-05;1
2024/05/03/13:02:47.513857;104305;1714766567;513132537;world;0.000296205;3.53E-05;5.40E-05;3.21E-05;-8.19E-06;7.48E-05;1
2024/05/03/13:02:47.533210;104306;1714766567;532926529;world;0.000856254;4.36E-05;6.96E-05;-6.14E-05;-2.31E-06;0.000388197;1
2024/05/03/13:02:47.543750;104307;1714766567;543314253;world;0.00130054;5.50E-05;7.13E-05;-0.000230557;-7.54E-06;0.000669585;0.999999762
2024/05/03/13:02:47.563474;104308;1714766567;563214676;world;0.002571873;0.000154074;9.19E-06;-0.000410178;1.13E-05;0.00128359;0.999999166
2024/05/03/13:02:47.583276;104309;1714766567;582989963;world;0.004325494;0.000220345;-3.91E-06;-0.000579407;-0.000208753;0.002637698;0.999996305
2024/05/03/13:02:47.603382;104310;1714766567;603107303;world;0.005437959;7.74E-06;0.000107371;-0.00028015;0.000205919;0.003817648;0.999992728
2024/05/03/13:02:47.613542;104311;1714766567;613251238;world;0.006758396;-1.46E-05;0.000160845;6.28E-05;0.000208949;0.00509158;0.999987006
2024/05/03/13:02:47.623399;104312;1714766567;623150213;world;0.007477961;4.32E-05;0.000170763;1.02E-05;3.68E-05;0.005638653;0.999984145
2024/05/03/13:02:47.643279;104313;1714766567;642980854;world;0.008975793;8.59E-05;0.0001661;-0.000372974;-0.000250992;0.006431882;0.999979258
2024/05/03/13:02:47.653499;104314;1714766567;653221591;world;0.010322504;-1.51E-05;0.000274278;-9.38E-05;1.90E-05;0.007614248;0.999971032
2024/05/03/13:02:47.684230;104315;1714766567;683392717;world;0.011707127;-4.61E-05;0.000352589;7.28E-05;0.000359838;0.00894792;0.999959946
2024/05/03/13:02:47.684252;104316;1714766567;683426039;world;0.013145072;8.21E-05;0.000337997;-0.00027299;1.99E-05;0.010251693;0.999947429
2024/05/03/13:02:47.713780;104317;1714766567;713518396;world;0.014576666;9.72E-05;0.000324406;-0.00021438;-2.72E-05;0.01100311;0.999939442
2024/05/03/13:02:47.713816;104318;1714766567;713551668;world;0.015289735;-4.52E-06;0.000355476;3.30E-05;0.000207875;0.011525324;0.9999336
2024/05/03/13:02:47.733473;104319;1714766567;733240242;world;0.016546488;-5.80E-05;0.00044398;0.000146121;0.000214202;0.013054047;0.999914765
2024/05/03/13:02:47.753593;104320;1714766567;753324981;world;0.017688466;-7.18E-05;0.00051812;0.000302733;5.02E-05;0.014796984;0.999890566
2024/05/03/13:02:47.763721;104321;1714766567;762956624;world;0.019005848;3.40E-05;0.000538092;0.000420543;0.000203408;0.015507282;0.999879718
2024/05/03/13:02:47.783270;104322;1714766567;783023038;world;0.020250479;9.73E-05;0.000519318;0.000356791;0.000239751;0.016752066;0.999859571
2024/05/03/13:02:47.803172;104323;1714766567;802883364;world;0.021292025;4.50E-05;0.000618483;0.000772284;0.00011873;0.018185696;0.999834418
2024/05/03/13:02:47.813249;104324;1714766567;813012522;world;0.021777974;1.29E-05;0.000636493;0.000739198;9.95E-05;0.018862974;0.999821842
2024/05/03/13:02:47.833439;104325;1714766567;833153055;world;0.023281673;1.29E-05;0.000577148;0.000181863;0.000265427;0.019969556;0.999800622
2024/05/03/13:02:47.843527;104326;1714766567;843136789;world;0.024432745;0.000158088;0.000595048;0.000288239;0.000491757;0.020512661;0.999789417
2024/05/03/13:02:47.863267;104327;1714766567;862996414;world;0.025609156;0.000321828;0.00058639;0.00039036;0.0005019;0.020857655;0.999782264
2024/05/03/13:02:47.883961;104328;1714766567;883482326;world;0.026118053;0.000354325;0.000534717;0.000146153;0.00035121;0.021133367;0.999776661
2024/05/03/13:02:47.883987;104329;1714766567;883530927;world;0.026765419;0.000367871;0.000561333;-3.45E-05;0.000350212;0.022549035;0.999745667
2024/05/03/13:02:47.913718;104330;1714766567;913340990;world;0.027324216;0.000272399;0.000625551;0.000246852;0.000466513;0.024019226;0.999711454
2024/05/03/13:02:47.924178;104331;1714766567;923948588;world;0.028052885;0.000345526;0.000636538;0.000423547;0.000217599;0.024601467;0.999697208
2024/05/03/13:02:47.943639;104332;1714766567;943383307;world;0.028798468;0.000450365;0.000656587;0.0004322;0.00036897;0.025299987;0.999679804
2024/05/03/13:02:47.953325;104333;1714766567;953038723;world;0.029561732;0.000465021;0.000672271;0.000495629;0.000456216;0.025822917;0.999666333
2024/05/03/13:02:47.963496;104334;1714766567;963204050;world;0.029867243;0.000475058;0.000650842;0.000471653;0.000538268;0.026114147;0.999658704
2024/05/03/13:02:47.983830;104335;1714766567;983229126;world;0.030500546;0.000576193;0.00063135;0.000314921;0.000322994;0.02684251;0.99963963
2024/05/03/13:02:48.003327;104336;1714766568;3091015;world;0.031205373;0.000662014;0.000606529;0.000103446;0.000302382;0.027596824;0.999619126
2024/05/03/13:02:48.013710;104337;1714766568;13418285;world;0.031849481;0.000764422;0.000599971;-8.92E-05;0.000125196;0.028009159;0.999607742
2024/05/03/13:02:48.033540;104338;1714766568;33224751;world;0.032471251;0.000676859;0.000583472;-9.64E-05;0.00033284;0.028358152;0.999597847
2024/05/03/13:02:48.043439;104339;1714766568;43138623;world;0.032922752;0.000768069;0.000555326;-0.000200622;0.000106777;0.029331814;0.999569714
2024/05/03/13:02:48.063743;104340;1714766568;63413647;world;0.033093732;0.000782132;0.000597332;-4.89E-06;0.000177012;0.029837275;0.999554813
2024/05/03/13:02:48.093252;104341;1714766568;92961425;world;0.033521574;0.000722211;0.000682063;5.96E-05;0.000307739;0.030500559;0.999534726
2024/05/03/13:02:48.093297;104342;1714766568;92996962;world;0.03412199;0.000813939;0.000649579;-7.99E-05;0.000166385;0.030920522;0.999521852
2024/05/03/13:02:48.113422;104343;1714766568;113189562;world;0.034721795;0.000862241;0.000612701;-0.000274206;-0.000127286;0.031479232;0.999504447
2024/05/03/13:02:48.123626;104344;1714766568;123167321;world;0.035244275;0.000941696;0.0006391;-0.000254684;-8.95E-05;0.032272913;0.999479115
2024/05/03/13:02:48.133328;104345;1714766568;133023940;world;0.035690177;0.000978146;0.000659981;-0.00037843;-0.000149074;0.03302642;0.999454439
2024/05/03/13:02:48.153242;104346;1714766568;152986579;world;0.036181927;0.001061991;0.000614792;9.54E-05;0.000373229;0.03396064;0.999423146
2024/05/03/13:02:48.173344;104347;1714766568;173057462;world;0.036473934;0.001083873;0.000592925;0.000131915;0.000274098;0.034293678;0.999411821
2024/05/03/13:02:48.193342;104348;1714766568;192983834;world;0.037444919;0.001178339;0.000527701;-0.000133888;0.000162724;0.034721464;0.999397039
2024/05/03/13:02:48.203763;104349;1714766568;203466094;world;0.038075335;0.001214683;0.000534992;-0.000163972;0.000124647;0.035321973;0.999375999
2024/05/03/13:02:48.224081;104350;1714766568;223829004;world;0.038360789;0.001233205;0.000546103;-7.69E-05;0.000116427;0.03566958;0.99936372
2024/05/03/13:02:48.243491;104351;1714766568;243152541;world;0.038887117;0.001164498;0.000575063;-4.90E-05;0.000272601;0.037099428;0.999311566
2024/05/03/13:02:48.243513;104352;1714766568;243188719;world;0.039054353;0.00102891;0.000699218;-7.11E-05;0.00010434;0.037705153;0.999288917
2024/05/03/13:02:48.263541;104353;1714766568;263334622;world;0.03956008;0.001113987;0.000731626;0.000160124;0.000160283;0.039082229;0.999235988
2024/05/03/13:02:48.273629;104354;1714766568;273303190;world;0.04017891;0.001274645;0.000721708;0.000203246;0.000207524;0.039978292;0.999200523
2024/05/03/13:02:48.303624;104355;1714766568;303267714;world;0.040920202;0.001331341;0.000687636;0.000180901;0.000167081;0.040212162;0.999191225
2024/05/03/13:02:48.323967;104356;1714766568;323381337;world;0.041592605;0.00140222;0.000651189;-7.74E-06;7.79E-05;0.040625371;0.999174535
2024/05/03/13:02:48.323976;104357;1714766568;323412897;world;0.041898631;0.001411961;0.000638453;-8.98E-05;0.000163443;0.040866252;0.999164701
2024/05/03/13:02:48.343635;104358;1714766568;343298070;world;0.04263375;0.001439027;0.000656932;-4.94E-05;5.00E-05;0.041183017;0.999151707
2024/05/03/13:02:48.363415;104359;1714766568;363097675;world;0.043489687;0.001489514;0.000616609;-6.42E-05;-5.40E-05;0.041341241;0.99914515
2024/05/03/13:02:48.373620;104360;1714766568;373342347;world;0.044270653;0.001670338;0.000606582;-0.000519966;-0.000315682;0.041786317;0.999126375
2024/05/03/13:02:48.393792;104361;1714766568;393515020;world;0.044865768;0.001800798;0.000567885;-0.000678529;-0.000141514;0.042892165;0.999079466
2024/05/03/13:02:48.403761;104362;1714766568;403290743;world;0.045188971;0.001655942;0.000691082;-0.000279786;0.000208995;0.044370439;0.999015093
2024/05/03/13:02:48.423561;104363;1714766568;423207312;world;0.045480777;0.001512973;0.000846225;0.000112662;0.000585853;0.045929682;0.998944581
2024/05/03/13:02:48.433245;104364;1714766568;432951519;world;0.04629368;0.001667531;0.000854165;3.34E-05;0.000375124;0.046407238;0.998922527
2024/05/03/13:02:48.454071;104365;1714766568;453352753;world;0.046803772;0.001785988;0.000810728;-0.000133321;0.000299534;0.046199799;0.998932183
2024/05/03/13:02:48.463274;104366;1714766568;462967152;world;0.047839731;0.001909567;0.000713493;-0.000255836;0.000277834;0.046036419;0.998939693
2024/05/03/13:02:48.483359;104367;1714766568;483047262;world;0.048748709;0.002070837;0.000699763;-0.00079903;-9.72E-05;0.046069473;0.998937905
2024/05/03/13:02:48.503677;104368;1714766568;503374145;world;0.049425349;0.00218178;0.000649665;-0.00101877;0.000387361;0.046865832;0.998900652
2024/05/03/13:02:48.523297;104369;1714766568;523041170;world;0.050007977;0.002254147;0.000698243;-0.000718844;-6.28E-05;0.047799114;0.998856783
2024/05/03/13:02:48.533478;104370;1714766568;533185725;world;0.050294891;0.002114158;0.000807567;-0.000157793;2.05E-05;0.049698845;0.998764277
2024/05/03/13:02:48.543559;104371;1714766568;543289285;world;0.050450161;0.002068795;0.000919257;-9.34E-05;0.000161383;0.050465003;0.998725832
2024/05/03/13:02:48.563789;104372;1714766568;563430969;world;0.051092505;0.002089184;0.001001739;0.000178556;0.000396014;0.050995115;0.998698831
2024/05/03/13:02:48.573481;104373;1714766568;573132403;world;0.051998198;0.002249878;0.00095689;8.93E-05;0.000348944;0.05093509;0.99870193
2024/05/03/13:02:48.603354;104374;1714766568;603053018;world;0.052809916;0.002346789;0.000893768;-0.000232844;0.000150154;0.051522058;0.998671889
2024/05/03/13:02:48.613450;104375;1714766568;613170374;world;0.053630829;0.002447147;0.000830621;-0.000302044;9.16E-05;0.052257687;0.998633683
2024/05/03/13:02:48.623903;104376;1714766568;623619200;world;0.054463506;0.002674527;0.000788467;-0.000356871;-0.00018399;0.052491471;0.998621345
2024/05/03/13:02:48.643454;104377;1714766568;642991390;world;0.055231519;0.002829432;0.000758017;-0.000516997;-0.00027119;0.052913073;0.998598993
2024/05/03/13:02:48.653570;104378;1714766568;653237236;world;0.055858865;0.002861068;0.000809736;-0.000965636;8.97E-05;0.053470124;0.998569012
2024/05/03/13:02:48.673359;104379;1714766568;673041748;world;0.056066107;0.002826102;0.000805088;-0.001110133;0.000140667;0.053972684;0.998541832
2024/05/03/13:02:48.683632;104380;1714766568;683335345;world;0.056338768;0.002559448;0.000941765;-0.000650329;0.00018212;0.055861786;0.998438299
2024/05/03/13:02:48.703692;104381;1714766568;703317490;world;0.05700352;0.002556052;0.001011294;-0.000380022;0.000213326;0.056558054;0.998399198
2024/05/03/13:02:48.723321;104382;1714766568;723030609;world;0.057797827;0.002755877;0.000975352;-0.000631929;0.000206857;0.056993518;0.998374343
2024/05/03/13:02:48.733452;104383;1714766568;733141693;world;0.058586106;0.002907101;0.000911251;-0.000649923;6.02E-05;0.057579145;0.998340726
2024/05/03/13:02:48.753624;104384;1714766568;753269132;world;0.059248991;0.003060298;0.000884184;-0.000572776;-0.000104199;0.058337972;0.998296797
2024/05/03/13:02:48.763409;104385;1714766568;763083569;world;0.059876449;0.003179427;0.00096786;-0.000500776;-7.74E-05;0.058842722;0.998267174
2024/05/03/13:02:48.783743;104386;1714766568;783428044;world;0.060603663;0.003244359;0.000975894;-0.000567351;-5.57E-05;0.059195232;0.998246312
2024/05/03/13:02:48.803236;104387;1714766568;802947761;world;0.061336592;0.003321391;0.000917028;-0.000783319;-6.45E-05;0.05965016;0.998219073
2024/05/03/13:02:48.813279;104388;1714766568;812980558;world;0.06163346;0.003323184;0.000977401;-0.000726574;9.01E-05;0.060093459;0.998192489
2024/05/03/13:02:48.833405;104389;1714766568;833137782;world;0.062177934;0.003234873;0.001035886;-0.000515182;0.000107398;0.061397634;0.998113275
2024/05/03/13:02:48.843588;104390;1714766568;842952170;world;0.062765762;0.003337596;0.001001545;-0.000562971;0.000281654;0.062491093;0.998045325
2024/05/03/13:02:48.853384;104391;1714766568;853060716;world;0.063434526;0.003460007;0.001006933;-0.000406991;9.11E-05;0.06295532;0.998016238
2024/05/03/13:02:48.873489;104392;1714766568;873123904;world;0.06418997;0.003593359;0.00097353;-0.000651905;0.000290153;0.063144132;0.998004258
2024/05/03/13:02:48.883600;104393;1714766568;883266085;world;0.064836875;0.003655529;0.000986223;-0.000862527;0.000185359;0.063556813;0.997977793
2024/05/03/13:02:48.913423;104394;1714766568;913135664;world;0.065499268;0.003701869;0.001045052;-0.000786217;0.000130398;0.064111106;0.997942507
2024/05/03/13:02:48.924007;104395;1714766568;923726519;world;0.066242144;0.003827307;0.001023938;-0.001002508;0.00028814;0.064497031;0.997917354
2024/05/03/13:02:48.933742;104396;1714766568;933346480;world;0.066885978;0.004011136;0.001048725;-0.001372932;0.000265044;0.065317012;0.997863591
2024/05/03/13:02:48.953622;104397;1714766568;953315699;world;0.067562237;0.004146241;0.001031316;-0.001410075;0.000306162;0.066032626;0.997816443
2024/05/03/13:02:48.973383;104398;1714766568;973102357;world;0.067853123;0.00417155;0.001080364;-0.000996191;0.00035176;0.066504858;0.997785568
2024/05/03/13:02:48.983328;104399;1714766568;983111069;world;0.068226635;0.003984664;0.001130614;-0.000740467;0.000389253;0.06815403;0.997674525
2024/05/03/13:02:49.013374;104400;1714766569;13102236;world;0.068791866;0.004009472;0.001198997;-0.000455547;0.000286122;0.068928935;0.997621477
2024/05/03/13:02:49.013409;104401;1714766569;13139516;world;0.069455691;0.004124306;0.001188602;-0.000591354;0.000190637;0.069169112;0.997604847
2024/05/03/13:02:49.033615;104402;1714766569;33054010;world;0.070235156;0.004245555;0.001095942;-0.000636899;-0.000388567;0.069377974;0.997590184
2024/05/03/13:02:49.053545;104403;1714766569;53242055;world;0.071005486;0.004405916;0.001037273;-0.00069957;-0.000488913;0.069872841;0.997555614
2024/05/03/13:02:49.063223;104404;1714766569;62990950;world;0.071353883;0.004471224;0.001043228;-0.000898168;-0.000440078;0.070148513;0.997536063
2024/05/03/13:02:49.073359;104405;1714766569;73129253;world;0.072079644;0.004613232;0.001093162;-0.00097349;-6.84E-05;0.070806973;0.997489572
2024/05/03/13:02:49.093485;104406;1714766569;93129523;world;0.072862342;0.004763335;0.001072481;-0.000933403;-0.000252981;0.071090236;0.997469425
2024/05/03/13:02:49.113421;104407;1714766569;113194282;world;0.073488519;0.00488171;0.001028833;-0.001180775;-0.00046609;0.071577907;0.997434199
2024/05/03/13:02:49.123380;104408;1714766569;123115119;world;0.07388097;0.004806742;0.001193235;-0.000895851;-2.55E-05;0.0728769;0.99734062
2024/05/03/13:02:49.143259;104409;1714766569;142971067;world;0.074246652;0.004688637;0.001258757;-0.000786819;-4.65E-05;0.074291691;0.997236311
2024/05/03/13:02:49.163480;104410;1714766569;163181020;world;0.074898511;0.004886737;0.001305378;-0.000741256;5.80E-05;0.074800514;0.997198224
2024/05/03/13:02:49.173480;104411;1714766569;173175884;world;0.07568901;0.005045034;0.001256308;-0.000762039;3.47E-05;0.075148508;0.997172058
2024/05/03/13:02:49.183952;104412;1714766569;183436841;world;0.076556012;0.005261615;0.001212376;-0.000984024;2.41E-05;0.075502247;0.997145116
2024/05/03/13:02:49.203645;104413;1714766569;203345035;world;0.076928578;0.005374994;0.001197874;-0.001107979;-4.68E-05;0.075682193;0.997131348
2024/05/03/13:02:49.213665;104414;1714766569;213374237;world;0.077664852;0.005486671;0.001192833;-0.001282427;-0.000267505;0.07599023;0.997107804
2024/05/03/13:02:49.253999;104415;1714766569;253645713;world;0.07812921;0.005330725;0.001258739;-0.000787714;-0.000398133;0.077146091;0.99701947
2024/05/03/13:02:49.254024;104416;1714766569;253680237;world;0.078651346;0.005284111;0.001310849;-0.000384835;-0.000304743;0.078159064;0.996940792
2024/05/03/13:02:49.263666;104417;1714766569;263360521;world;0.079408474;0.005344046;0.00120772;-4.28E-05;-0.000932104;0.078811541;0.996889174
2024/05/03/13:02:49.283851;104418;1714766569;283407108;world;0.080102213;0.005711824;0.001171289;-0.000378988;-0.000979947;0.079265162;0.996853054
2024/05/03/13:02:49.293435;104419;1714766569;293150110;world;0.080743797;0.005776275;0.001254878;-0.000596005;-0.000746856;0.080062523;0.996789396
2024/05/03/13:02:49.313666;104420;1714766569;313388877;world;0.080993772;0.005793829;0.001332765;-0.000976308;-0.000459678;0.080681533;0.996739328
2024/05/03/13:02:49.323626;104421;1714766569;323365970;world;0.08160314;0.005833512;0.001323709;-0.000948745;-0.000353216;0.081469968;0.996675372
2024/05/03/13:02:49.353471;104422;1714766569;353165366;world;0.082332954;0.005935337;0.001269801;-0.00109801;-0.000456869;0.081811793;0.99664706
2024/05/03/13:02:49.363529;104423;1714766569;363219458;world;0.083013326;0.005998046;0.001243711;-0.001184072;-0.000368879;0.082205497;0.996614635
2024/05/03/13:02:49.373254;104424;1714766569;372941235;world;0.083629705;0.006126443;0.001251226;-0.001343185;-0.000204219;0.082906149;0.99655652
2024/05/03/13:02:49.393270;104425;1714766569;393026322;world;0.084335953;0.006146721;0.001246332;-0.00084871;-0.000379074;0.083752103;0.996486187
2024/05/03/13:02:49.403669;104426;1714766569;403432389;world;0.084882826;0.006175396;0.00126461;-0.000689154;-0.000746761;0.084861852;0.99639219
2024/05/03/13:02:49.423275;104427;1714766569;423036535;world;0.085451894;0.006221275;0.001317346;-0.000693083;-0.000863116;0.085861728;0.996306539
2024/05/03/13:02:49.443490;104428;1714766569;442932199;world;0.085764714;0.006384579;0.001285678;-0.000829275;-0.001096029;0.08618658;0.996278107
2024/05/03/13:02:49.453515;104429;1714766569;453250109;world;0.086409658;0.006492557;0.001330385;-0.00080942;-0.000843057;0.086517811;0.996249616
2024/05/03/13:02:49.463668;104430;1714766569;463427256;world;0.08710634;0.006691502;0.00135735;-0.000892382;-0.000753672;0.086965211;0.996210694
2024/05/03/13:02:49.483588;104431;1714766569;483304665;world;0.087801099;0.006842723;0.001345136;-0.000903328;-0.000699303;0.087578274;0.996156991
2024/05/03/13:02:49.503744;104432;1714766569;503430691;world;0.088433318;0.006937332;0.001315444;-0.000700311;-0.000836118;0.088256776;0.996097147
2024/05/03/13:02:49.523764;104433;1714766569;523109817;world;0.08909063;0.007071687;0.001322051;-0.000823692;-0.000749319;0.088749811;0.996053338
2024/05/03/13:02:49.533272;104434;1714766569;533068164;world;0.089966714;0.007119482;0.001335736;-0.000836855;-0.00080778;0.089232974;0.996010184
2024/05/03/13:02:49.553420;104435;1714766569;553235347;world;0.090800866;0.007252846;0.001318642;-0.001078539;-0.00078592;0.089620791;0.995975077
2024/05/03/13:02:49.563411;104436;1714766569;563167514;world;0.091474712;0.007645421;0.001288956;-0.000528065;-0.000436985;0.090622507;0.995885074
2024/05/03/13:02:49.573683;104437;1714766569;573371882;world;0.091871418;0.007451834;0.001329706;-0.000392393;-0.000478139;0.092307985;0.99573034
2024/05/03/13:02:49.593557;104438;1714766569;593268846;world;0.092218243;0.007508224;0.001357054;-0.000281493;-0.000441156;0.092495508;0.995712996
2024/05/03/13:02:49.613357;104439;1714766569;613054543;world;0.092793934;0.007811788;0.001343171;-0.000495565;-0.000791753;0.092763238;0.995687783
2024/05/03/13:02:49.623529;104440;1714766569;623203107;world;0.093176723;0.007835919;0.001389864;-0.000953746;-0.000321541;0.093569957;0.995612264
2024/05/03/13:02:49.673625;104441;1714766569;673298608;world;0.093758442;0.007868385;0.001454923;-0.000953149;-0.000395808;0.094479792;0.995526254
2024/05/03/13:02:49.673650;104443;1714766569;673341649;world;0.095452905;0.008180459;0.001425645;-0.001027764;-0.000298302;0.094901286;0.995486081
2024/05/03/13:02:49.683255;104444;1714766569;682908230;world;0.095937364;0.008338641;0.001397406;-0.000960526;-0.000189834;0.094902374;0.995486081
2024/05/03/13:02:49.703355;104445;1714766569;703057079;world;0.096382901;0.008302046;0.00136978;-0.001065255;-0.000465057;0.096328102;0.99534899
2024/05/03/13:02:49.723632;104446;1714766569;723247083;world;0.096694075;0.008258202;0.001542935;-0.000716725;-0.000283811;0.097857602;0.995200157
2024/05/03/13:02:49.733174;104447;1714766569;732868979;world;0.097513229;0.008450679;0.001527467;-0.000512626;-0.000540204;0.098268308;0.995159686
2024/05/03/13:02:49.763364;104448;1714766569;763045109;world;0.098292544;0.008511906;0.001454906;-0.000587771;-0.00067274;0.098816589;0.995105267
2024/05/03/13:02:49.763503;104449;1714766569;763079633;world;0.099044472;0.008854359;0.001468534;-0.000964236;-0.001057122;0.099002816;0.995086133
2024/05/03/13:02:49.783361;104450;1714766569;783047135;world;0.099318594;0.008875551;0.001496359;-0.001213391;-0.000821199;0.099976271;0.994988739
2024/05/03/13:02:49.793226;104451;1714766569;792839500;world;0.099908762;0.0089165;0.001534911;-0.001079859;-0.000678581;0.101373598;0.994847655
2024/05/03/13:02:49.813361;104452;1714766569;813056356;world;0.100454763;0.009067597;0.001483679;-0.000874641;-0.000839069;0.10127344;0.994857907
2024/05/03/13:02:49.833978;104453;1714766569;833348464;world;0.101482123;0.009197189;0.001446076;-0.000870666;-0.00035745;0.100719854;0.994914412
2024/05/03/13:02:49.843589;104454;1714766569;843089160;world;0.102179319;0.009076325;0.001477126;-0.001024355;-9.79E-05;0.101376094;0.994847655
2024/05/03/13:02:49.863272;104455;1714766569;862953144;world;0.102718636;0.009316749;0.001510921;-0.001090038;-0.000226449;0.10198503;0.994785368
2024/05/03/13:02:49.873691;104456;1714766569;873340025;world;0.103259534;0.009269116;0.001529566;-0.001167284;-0.000318473;0.103014588;0.994679213
2024/05/03/13:02:49.883549;104457;1714766569;883215597;world;0.103614494;0.009581647;0.001592037;-0.000942407;-0.000868582;0.104503505;0.994523764
2024/05/03/13:02:49.903401;104458;1714766569;903087534;world;0.10441795;0.009884821;0.001612097;-0.000444127;-0.000649222;0.104891285;0.994483411
2024/05/03/13:02:49.933625;104459;1714766569;933095533;world;0.105118722;0.010026114;0.001549901;-0.000786966;-0.000884946;0.106188267;0.994345427
2024/05/03/13:02:49.933657;104460;1714766569;933196483;world;0.10556107;0.010076074;0.001514675;-0.000784833;-0.001027587;0.106425323;0.994319916
2024/05/03/13:02:49.963875;104461;1714766569;963447129;world;0.106591538;0.01019876;0.001507618;-0.000563994;-0.00081564;0.106300697;0.994333625
2024/05/03/13:02:49.963902;104462;1714766569;963483497;world;0.10734421;0.010146684;0.001538086;-0.000444653;-0.000666525;0.106898293;0.994269609
2024/05/03/13:02:49.983218;104463;1714766569;982881704;world;0.107951894;0.010170375;0.001625391;-0.000186114;-0.000716914;0.107750446;0.994177699
2024/05/03/13:02:49.993397;104464;1714766569;993061498;world;0.108517393;0.010267803;0.001627428;-0.000388601;-0.000601774;0.10837125;0.994110286
2024/05/03/13:02:50.013500;104465;1714766570;13208361;world;0.109165668;0.010424811;0.001572252;-0.000616907;-0.000421476;0.109102912;0.994030237
2024/05/03/13:02:50.033410;104466;1714766570;33089667;world;0.109773323;0.010964524;0.001551568;-0.000468192;-0.000953297;0.109454699;0.993991196
2024/05/03/13:02:50.043312;104467;1714766570;42922397;world;0.1104552;0.011068594;0.001628222;-0.000411701;-0.000523666;0.110270798;0.993901372
2024/05/03/13:02:50.073528;104468;1714766570;73193969;world;0.111168474;0.010846232;0.001609902;-0.000313209;-0.000417434;0.111081287;0.99381119
2024/05/03/13:02:50.073558;104469;1714766570;73233523;world;0.111511841;0.010925828;0.00164309;-0.000435168;-0.000474104;0.111294359;0.993787289
2024/05/03/13:02:50.093450;104470;1714766570;93125109;world;0.112163521;0.010991555;0.001648505;-0.000605105;-0.000330242;0.111753426;0.993735731
2024/05/03/13:02:50.103234;104471;1714766570;102930798;world;0.112783223;0.011164017;0.001636571;-0.000984458;-0.00042116;0.112284906;0.99367553
2024/05/03/13:02:50.123564;104472;1714766570;123238014;world;0.113475874;0.011333439;0.001629159;-0.000940046;-0.000400898;0.113225788;0.993568778
2024/05/03/13:02:50.143592;104473;1714766570;143254503;world;0.114180639;0.011490647;0.001621666;-0.000727872;-0.000513107;0.114180371;0.993459702
2024/05/03/13:02:50.163329;104474;1714766570;162968203;world;0.114753485;0.011729282;0.001574012;-0.000643839;-0.001064897;0.114858761;0.993381023
2024/05/03/13:02:50.173430;104475;1714766570;173152445;world;0.115368843;0.011748185;0.00167766;-0.000779335;-0.000742381;0.115349419;0.993324459
2024/05/03/13:02:50.183590;104476;1714766570;183317731;world;0.116117567;0.011938894;0.001651659;-0.000770538;-0.000814076;0.115873545;0.993263423
2024/05/03/13:02:50.203562;104477;1714766570;203314671;world;0.116452381;0.012051984;0.00163177;-0.000817011;-0.00085831;0.116090938;0.993237972
2024/05/03/13:02:50.213367;104478;1714766570;213049660;world;0.1170711;0.012192917;0.001653968;-0.000888419;-0.000837925;0.116607413;0.993177414
2024/05/03/13:02:50.243623;104479;1714766570;243207419;world;0.117689423;0.012356319;0.001644709;-0.000907586;-0.000727895;0.117273033;0.993099034
2024/05/03/13:02:50.253660;104480;1714766570;253319092;world;0.118245341;0.012430878;0.001651737;-0.000943023;-0.000661726;0.11819195;0.992990136
2024/05/03/13:02:50.273323;104481;1714766570;273066338;world;0.11890319;0.012620045;0.001634946;-0.00106169;-0.00080948;0.119005375;0.992892742
2024/05/03/13:02:50.283939;104482;1714766570;283536635;world;0.119554013;0.012811045;0.001690382;-0.001079736;-0.000706647;0.119464278;0.992837727
2024/05/03/13:02:50.293434;104483;1714766570;293153660;world;0.12017785;0.013090059;0.001620629;-0.001215623;-0.001168829;0.119667925;0.992812574
2024/05/03/13:02:50.313677;104484;1714766570;313364133;world;0.120549396;0.013053947;0.00169037;-0.00150744;-0.000737836;0.120014846;0.992770731
2024/05/03/13:02:50.343667;104485;1714766570;343235265;world;0.121820793;0.013291852;0.001610995;-0.001411373;-0.00078927;0.12127836;0.992617309
2024/05/03/13:02:50.343684;104486;1714766570;343271934;world;0.122076675;0.013342991;0.001653979;-0.001290544;-0.000691942;0.121659145;0.992570937
2024/05/03/13:02:50.373444;104487;1714766570;373065912;world;0.12256144;0.01343582;0.001748366;-0.001028371;-0.000704332;0.122479498;0.992470264
2024/05/03/13:02:50.373472;104488;1714766570;373102090;world;0.123179622;0.013637281;0.001807021;-0.000955764;-0.000836209;0.123137325;0.992388904
2024/05/03/13:02:50.393308;104489;1714766570;392922629;world;0.123679444;0.013794905;0.001872718;-0.000883786;-0.000954432;0.123880714;0.992296278
2024/05/03/13:02:50.403930;104490;1714766570;403473429;world;0.124276489;0.013942041;0.001854837;-0.000771673;-0.000866988;0.124690332;0.99219501
2024/05/03/13:02:50.443494;104491;1714766570;443089575;world;0.125791848;0.014306027;0.001879394;-0.000974222;-0.001068779;0.125724137;0.992064178
2024/05/03/13:02:50.453214;104492;1714766570;452920682;world;0.126097798;0.014386336;0.001882176;-0.001010583;-0.000973015;0.12623395;0.991999567
2024/05/03/13:02:50.473544;104493;1714766570;472958232;world;0.126519591;0.014551597;0.001839177;-0.000891412;-0.001199073;0.126515165;0.991963506
2024/05/03/13:02:50.483559;104494;1714766570;483261445;world;0.12657775;0.014809205;0.001820799;-0.000961997;-0.001146677;0.128718928;0.991680086
2024/05/03/13:02:50.503464;104495;1714766570;503195772;world;0.12774685;0.015056654;0.001820091;-0.00117336;-0.001804231;0.128949925;0.991648793
2024/05/03/13:02:50.513465;104496;1714766570;513041576;world;0.128193513;0.01524769;0.001726349;-0.001160582;-0.001503211;0.129163921;0.991621494
2024/05/03/13:02:50.533650;104497;1714766570;533379420;world;0.128751904;0.015357895;0.001857501;-0.001040783;-0.000722927;0.12986657;0.991530657
2024/05/03/13:02:50.544105;104498;1714766570;543430770;world;0.129348308;0.015491422;0.001985017;-0.000750975;-0.000676888;0.130117029;0.991498172
2024/05/03/13:02:50.573536;104499;1714766570;573209499;world;0.129878119;0.015974503;0.00199049;-0.000752435;-0.001135018;0.13078934;0.991409242
2024/05/03/13:02:50.573569;104500;1714766570;573242742;world;0.130512759;0.016184837;0.002064291;-0.000906729;-0.000731821;0.13125363;0.991348207
2024/05/03/13:02:50.593390;104501;1714766570;593046061;world;0.131030202;0.016282106;0.002114285;-0.001063557;-0.000547829;0.131824389;0.99127239
2024/05/03/13:02:50.603472;104502;1714766570;603195225;world;0.131303936;0.016228765;0.002202594;-0.001420257;-0.000643695;0.13213487;0.991230607
2024/05/03/13:02:50.624040;104503;1714766570;623369417;world;0.131886259;0.016330186;0.002214151;-0.001697059;-0.000488851;0.132810354;0.991139948
2024/05/03/13:02:50.653960;104504;1714766570;653607661;world;0.132554159;0.016477425;0.002110558;-0.001671024;-0.000504613;0.133668929;0.991024494
2024/05/03/13:02:50.653982;104505;1714766570;653643018;world;0.133237183;0.016541962;0.001888199;-0.001709345;-0.001361156;0.134487629;0.990912914
2024/05/03/13:02:50.673690;104506;1714766570;673367138;world;0.134006798;0.016762022;0.002005817;-0.001391792;-0.000673565;0.134911492;0.990856528
2024/05/03/13:02:50.683438;104507;1714766570;683089412;world;0.134296149;0.01680951;0.00195422;-0.001201068;-0.000687328;0.134923294;0.990855098
2024/05/03/13:02:50.703722;104508;1714766570;703443004;world;0.134878054;0.016935464;0.002023939;-0.001127279;-0.000811114;0.135685965;0.990750968
2024/05/03/13:02:50.723616;104509;1714766570;723122642;world;0.135544628;0.017031953;0.002107593;-0.001318426;-0.000637915;0.136961013;0.990575433
2024/05/03/13:02:50.733650;104510;1714766570;733367445;world;0.136263698;0.017227782;0.00213179;-0.001301202;-0.000669808;0.137384847;0.990516722
2024/05/03/13:02:50.753389;104511;1714766570;753052653;world;0.136969715;0.01736974;0.00213265;-0.001051748;-0.000450509;0.137988776;0.990433097
2024/05/03/13:02:50.763599;104512;1714766570;763298177;world;0.137701914;0.017569501;0.002112802;-0.000906219;-0.00044022;0.138609111;0.99034673
2024/05/03/13:02:50.783540;104513;1714766570;783118529;world;0.138341784;0.017727628;0.002100314;-0.000995251;-0.000404943;0.139098257;0.990278065
2024/05/03/13:02:50.803751;104514;1714766570;803208251;world;0.138960183;0.017947711;0.002112528;-0.001118218;-0.000451028;0.139563441;0.990212381
2024/05/03/13:02:50.813452;104515;1714766570;813137468;world;0.139546081;0.018203819;0.002091556;-0.000873421;-0.00083261;0.140063405;0.990141809
2024/05/03/13:02:50.823675;104516;1714766570;823393674;world;0.139869824;0.018401526;0.002088957;-0.000828639;-0.000962137;0.140256315;0.99011445
2024/05/03/13:02:50.853362;104517;1714766570;852882997;world;0.140462846;0.018424744;0.002177638;-0.00116215;-0.00044335;0.140964821;0.990013838
2024/05/03/13:02:50.853391;104518;1714766570;852918314;world;0.141080618;0.018464757;0.002205025;-0.001054666;-0.000379745;0.142020091;0.989863157
2024/05/03/13:02:50.883593;104519;1714766570;883257965;world;0.141720623;0.018685341;0.002198204;-0.00086076;-0.000591077;0.142965317;0.989727199
2024/05/03/13:02:50.893565;104520;1714766570;893292563;world;0.142343402;0.01883194;0.002219393;-0.000944409;-0.000686226;0.143724084;0.989617109
2024/05/03/13:02:50.903418;104521;1714766570;903079780;world;0.142984122;0.018993115;0.002270561;-0.001058531;-0.000826344;0.144174859;0.989551365
2024/05/03/13:02:50.923197;104522;1714766570;922870086;world;0.14347218;0.019110348;0.002306457;-0.001224317;-0.00093853;0.145057425;0.989422023
2024/05/03/13:02:50.933665;104523;1714766570;933222382;world;0.143741354;0.019218177;0.002340058;-0.001132444;-0.001015753;0.14551878;0.989354372
2024/05/03/13:02:50.963557;104524;1714766570;963193561;world;0.144349217;0.019519104;0.00231663;-0.000952329;-0.001378858;0.146117032;0.989265919
2024/05/03/13:02:50.963587;104525;1714766570;963230871;world;0.14517723;0.019774009;0.002283012;-0.00098603;-0.000988295;0.146467686;0.98921448
2024/05/03/13:02:50.993615;104526;1714766570;993226747;world;0.145902693;0.019967627;0.002231038;-0.001293648;-0.000690337;0.146823779;0.989161611
2024/05/03/13:02:51.003504;104527;1714766571;3205572;world;0.146639094;0.020121595;0.002223906;-0.00145544;-0.00085928;0.147431657;0.989070773
2024/05/03/13:02:51.013455;104528;1714766571;13168025;world;0.147249952;0.020273536;0.002223507;-0.001503097;-0.000754895;0.148044646;0.98897922
2024/05/03/13:02:51.023660;104529;1714766571;23370521;world;0.147795811;0.020380132;0.002275406;-0.001601906;-0.000867037;0.148833737;0.988860548
2024/05/03/13:02:51.063465;104530;1714766571;63146899;world;0.148433149;0.020514913;0.002277724;-0.00154105;-0.00100365;0.149619475;0.988741934
2024/05/03/13:02:51.063492;104531;1714766571;63181454;world;0.148785025;0.020619616;0.002259066;-0.001454007;-0.001002762;0.150002718;0.988683999
2024/05/03/13:02:51.083292;104532;1714766571;83034617;world;0.149414018;0.020939391;0.002231069;-0.001140722;-0.001054933;0.150443152;0.98861748
2024/05/03/13:02:51.093297;104533;1714766571;92994897;world;0.150051385;0.021080807;0.002258095;-0.001008093;-0.0008775;0.151007548;0.988531709
2024/05/03/13:02:51.103598;104534;1714766571;103298782;world;0.150643557;0.021201519;0.002331601;-0.001228675;-0.000502556;0.151675612;0.988429427
2024/05/03/13:02:51.123451;104535;1714766571;123201066;world;0.151294321;0.021447616;0.002373181;-0.001203212;-0.000518191;0.152421013;0.988314867
2024/05/03/13:02:51.133389;104536;1714766571;133120821;world;0.151909962;0.021640487;0.002380647;-0.000976395;-0.000398483;0.153285116;0.988181531
2024/05/03/13:02:51.163288;104537;1714766571;162991410;world;0.152388349;0.021700641;0.002341279;-0.001006887;-0.000310334;0.1541394;0.988048613
2024/05/03/13:02:51.173212;104538;1714766571;172916605;world;0.152991667;0.021865916;0.002383641;-0.00110158;-0.000389041;0.154800326;0.98794508
2024/05/03/13:02:51.193329;104539;1714766571;193045534;world;0.153673187;0.022142699;0.002389615;-0.001206498;-0.000484611;0.155335873;0.987860858
2024/05/03/13:02:51.203330;104540;1714766571;203061249;world;0.154410034;0.02245252;0.002403195;-0.0012693;-0.000564974;0.155694649;0.987804294
2024/05/03/13:02:51.223694;104541;1714766571;223406775;world;0.15511179;0.022570008;0.002386666;-0.001166089;-0.000551201;0.156063855;0.987746119
2024/05/03/13:02:51.233193;104542;1714766571;232900439;world;0.155839562;0.022791097;0.002358441;-0.00110869;-0.000264634;0.156850591;0.987621725
2024/05/03/13:02:51.243720;104543;1714766571;243407777;world;0.156155437;0.022924636;0.002340157;-0.00100836;-0.000140728;0.15740867;0.987533033
2024/05/03/13:02:51.263604;104544;1714766571;263218419;world;0.15675211;0.023117345;0.002344653;-0.00096101;-7.25E-05;0.158337042;0.987384677
2024/05/03/13:02:51.283198;104545;1714766571;282876686;world;0.157356292;0.023297165;0.002334489;-0.001083331;-0.000219407;0.158807471;0.987309039
2024/05/03/13:02:51.303556;104546;1714766571;303216059;world;0.157956272;0.023489499;0.002344162;-0.00126805;-0.000309505;0.159401849;0.987212956
2024/05/03/13:02:51.313405;104547;1714766571;313097104;world;0.158473045;0.02364964;0.002391388;-0.00122536;-0.000284305;0.160136417;0.987094104
2024/05/03/13:02:51.323219;104548;1714766571;322927890;world;0.158715382;0.023712356;0.002409596;-0.001266393;-0.000356487;0.160471395;0.987039626
2024/05/03/13:02:51.343454;104549;1714766571;343196843;world;0.159264892;0.023934057;0.002473864;-0.001386217;-0.000493237;0.161230445;0.986915708
2024/05/03/13:02:51.363490;104550;1714766571;363180129;world;0.16000393;0.024195272;0.002506055;-0.00161742;-0.000818958;0.16160877;0.986853242
2024/05/03/13:02:51.373512;104551;1714766571;373082540;world;0.16097191;0.024516217;0.002452925;-0.001694415;-0.000742366;0.162701383;0.986673594
2024/05/03/13:02:51.403288;104552;1714766571;403021097;world;0.161262602;0.024617443;0.002450774;-0.001629974;-0.000713445;0.162954092;0.986632049
2024/05/03/13:02:51.403322;104553;1714766571;403055231;world;0.161923215;0.02481111;0.002456145;-0.001642509;-0.000679081;0.163625047;0.986521006
2024/05/03/13:02:51.423616;104554;1714766571;423375257;world;0.1625368;0.02502916;0.002482831;-0.001625865;-0.000653336;0.16442664;0.986387849
2024/05/03/13:02:51.433582;104555;1714766571;433303070;world;0.163216203;0.025265658;0.002529898;-0.001547286;-0.000745996;0.165024817;0.986287951
2024/05/03/13:02:51.453221;104556;1714766571;452977589;world;0.163588971;0.025398443;0.002507851;-0.001548514;-0.000810258;0.165188804;0.986260474
2024/05/03/13:02:51.473499;104557;1714766571;473267021;world;0.164235011;0.025584001;0.002470885;-0.001694361;-0.000733753;0.165570498;0.98619628
2024/05/03/13:02:51.493751;104558;1714766571;493339255;world;0.164820209;0.025808439;0.002499065;-0.001395255;-0.000968707;0.166490555;0.986041605
2024/05/03/13:02:51.503572;104559;1714766571;503286450;world;0.165516332;0.026063772;0.002518593;-0.001337929;-0.000838769;0.167345732;0.985897005
2024/05/03/13:02:51.513543;104560;1714766571;513216314;world;0.166122586;0.026286602;0.002512756;-0.001390503;-0.000618578;0.167990029;0.985787511
2024/05/03/13:02:51.533436;104561;1714766571;533157662;world;0.16676724;0.026551448;0.00252186;-0.001511761;-0.000598456;0.168386742;0.98571974
2024/05/03/13:02:51.543702;104562;1714766571;543263134;world;0.167348251;0.026733402;0.002526003;-0.001645798;-0.000553655;0.168789595;0.985650599
2024/05/03/13:02:51.573542;104563;1714766571;573162736;world;0.168000117;0.02696996;0.002515036;-0.002074823;-0.000730886;0.169089973;0.985598147
2024/05/03/13:02:51.583809;104564;1714766571;583391751;world;0.168601662;0.02706084;0.002545911;-0.002050585;-0.000497703;0.169701323;0.985493362
2024/05/03/13:02:51.593262;104565;1714766571;592880726;world;0.169199944;0.027254688;0.002522657;-0.00195466;-0.000618127;0.170511454;0.985353649
2024/05/03/13:02:51.613337;104566;1714766571;613125324;world;0.169551104;0.027376167;0.002514425;-0.001853887;-0.000787634;0.170966387;0.985274792
2024/05/03/13:02:51.623592;104567;1714766571;623285850;world;0.170157135;0.027601438;0.00247971;-0.001690964;-0.001116702;0.171832398;0.985124171
2024/05/03/13:02:51.643589;104568;1714766571;643359142;world;0.170817003;0.027892556;0.002571158;-0.001666273;-0.000992534;0.172684714;0.984975278
2024/05/03/13:02:51.653495;104569;1714766571;653199792;world;0.171438575;0.028134082;0.002611844;-0.00175442;-0.000889997;0.173356593;0.984857202
2024/05/03/13:02:51.673265;104570;1714766571;672987861;world;0.172058254;0.028335784;0.002622076;-0.001873725;-0.000900784;0.173798501;0.98477906
2024/05/03/13:02:51.683768;104571;1714766571;683467669;world;0.172641009;0.02856507;0.002647141;-0.001884595;-0.000935994;0.174460366;0.984661937
2024/05/03/13:02:51.703340;104572;1714766571;703070880;world;0.173302427;0.028708067;0.002627159;-0.001884583;-0.00091835;0.175048783;0.984557629
2024/05/03/13:02:51.723222;104573;1714766571;722872373;world;0.173648909;0.028825767;0.002614717;-0.00188596;-0.001075687;0.175332606;0.984506905
2024/05/03/13:02:51.733171;104574;1714766571;732947121;world;0.174289763;0.02915193;0.00262161;-0.001660799;-0.001257441;0.176176429;0.984356463
2024/05/03/13:02:51.754173;104575;1714766571;753193933;world;0.17464903;0.029262768;0.002591428;-0.001673451;-0.001603406;0.17728658;0.984156549
2024/05/03/13:02:51.763593;104576;1714766571;763338767;world;0.175386012;0.029504992;0.002677207;-0.001632416;-0.001511052;0.177836031;0.984057605
2024/05/03/13:02:51.783486;104577;1714766571;783191049;world;0.176011816;0.029753335;0.002727783;-0.001643329;-0.001126642;0.178177238;0.983996451
2024/05/03/13:02:51.803294;104578;1714766571;803028131;world;0.176349029;0.029888503;0.002764008;-0.001655957;-0.001143515;0.178551957;0.983928442
2024/05/03/13:02:51.813973;104579;1714766571;813694577;world;0.177038804;0.030160259;0.002776458;-0.001678437;-0.001186859;0.17935586;0.983782113
2024/05/03/13:02:51.833289;104580;1714766571;832986817;world;0.177887931;0.030432448;0.002783284;-0.001679161;-0.001050801;0.180252731;0.983618319
2024/05/03/13:02:51.843915;104581;1714766571;843464273;world;0.178202778;0.030543253;0.002764422;-0.001705142;-0.00105076;0.180477187;0.983577192
2024/05/03/13:02:51.853593;104582;1714766571;853294063;world;0.178856879;0.030789867;0.002790124;-0.00169414;-0.001132246;0.18111439;0.983460009
2024/05/03/13:02:51.873452;104583;1714766571;873116749;world;0.179064855;0.030891299;0.002662245;-0.001811993;-0.001371009;0.18252638;0.983198345
2024/05/03/13:02:51.883619;104584;1714766571;883373861;world;0.18006292;0.031411301;0.002576761;-0.001799411;-0.001691791;0.183312178;0.983051658
2024/05/03/13:02:51.913558;104585;1714766571;913308215;world;0.180678949;0.031509947;0.002686108;-0.001614055;-0.001114686;0.183755651;0.982969999
2024/05/03/13:02:51.923220;104586;1714766571;923003148;world;0.181380406;0.031799875;0.002811903;-0.00160563;-0.000569444;0.183789715;0.982964098
2024/05/03/13:02:51.933616;104587;1714766571;933382374;world;0.18186143;0.031948708;0.002841902;-0.001874744;-0.000570537;0.184371904;0.982854605
2024/05/03/13:02:51.953668;104588;1714766571;953309988;world;0.1824449;0.03217946;0.002888636;-0.001830903;-0.000673898;0.185164079;0.982705712
2024/05/03/13:02:51.973544;104589;1714766571;973101485;world;0.182778358;0.032300174;0.00288215;-0.001717743;-0.000641227;0.185524076;0.982638061
2024/05/03/13:02:51.983352;104590;1714766571;983120203;world;0.183454871;0.032539953;0.002902501;-0.001783043;-0.000772606;0.186203107;0.982509375
2024/05/03/13:02:52.014019;104591;1714766572;13316794;world;0.184124783;0.032782808;0.002908807;-0.001560294;-0.000697523;0.187088192;0.982341707
2024/05/03/13:02:52.014050;104592;1714766572;13350788;world;0.184712917;0.033000849;0.002762698;-0.001767014;-0.00150163;0.187832609;0.982198298
2024/05/03/13:02:52.053380;104593;1714766572;53101838;world;0.185455725;0.033346243;0.00269745;-0.001899916;-0.001686408;0.188685924;0.982034206
2024/05/03/13:02:52.053457;104594;1714766572;53137214;world;0.185744151;0.033265997;0.002818371;-0.00177406;-0.000755427;0.188769773;0.982019484
2024/05/03/13:02:52.063560;104595;1714766572;63310194;world;0.186555117;0.033564575;0.002866421;-0.001743554;-0.000490112;0.189544007;0.981870532
2024/05/03/13:02:52.083637;104596;1714766572;82969823;world;0.186765179;0.033668563;0.002861102;-0.001881979;-0.000599814;0.189910486;0.981799424
2024/05/03/13:02:52.093560;104597;1714766572;93295869;world;0.187267736;0.033906411;0.00291083;-0.001955546;-0.000698099;0.190857917;0.981615484
2024/05/03/13:02:52.113689;104598;1714766572;113306188;world;0.188067973;0.03419492;0.002928894;-0.001836594;-0.000627636;0.191330478;0.981523812
2024/05/03/13:02:52.123225;104599;1714766572;123012681;world;0.188852251;0.034624293;0.002976988;-0.001661718;-0.000745737;0.19195354;0.981402338
2024/05/03/13:02:52.133410;104600;1714766572;133156676;world;0.18940562;0.034801237;0.002969015;-0.001734126;-0.000776191;0.192499205;0.981295347
2024/05/03/13:02:52.153574;104601;1714766572;153254929;world;0.189911455;0.035067495;0.002841608;-0.001967493;-0.001333126;0.192953318;0.981205106
2024/05/03/13:02:52.173474;104602;1714766572;172971236;world;0.190352902;0.035340432;0.002846876;-0.00209925;-0.001588644;0.193402216;0.981116056
2024/05/03/13:02:52.194090;104603;1714766572;193679008;world;0.19131808;0.035655681;0.003039232;-0.001895007;-0.000755078;0.19409503;0.980980694
2024/05/03/13:02:52.213483;104604;1714766572;213201872;world;0.191887379;0.035760157;0.003033471;-0.001961407;-0.000833525;0.194717184;0.980857134
2024/05/03/13:02:52.223392;104605;1714766572;223056427;world;0.192521542;0.036005542;0.003005515;-0.002010851;-0.000817121;0.195275009;0.98074615
2024/05/03/13:02:52.233497;104606;1714766572;233252720;world;0.192871019;0.036162779;0.003018952;-0.001906848;-0.000932303;0.195789292;0.980643749
2024/05/03/13:02:52.253323;104607;1714766572;252992480;world;0.193520293;0.036466699;0.003039184;-0.001738638;-0.001097006;0.196681112;0.980465412
2024/05/03/13:02:52.263333;104608;1714766572;263042479;world;0.193759352;0.036589928;0.002947132;-0.001972963;-0.001777322;0.197692886;0.980260432
2024/05/03/13:02:52.283467;104609;1714766572;283151076;world;0.194708362;0.037053257;0.002939913;-0.002227739;-0.002455289;0.198125258;0.980171084
2024/05/03/13:02:52.293360;104610;1714766572;293102195;world;0.195157304;0.037118234;0.003156052;-0.002046473;-0.001436522;0.198568508;0.980083823
2024/05/03/13:02:52.323411;104611;1714766572;322966652;world;0.195473239;0.037280727;0.003129761;-0.001907484;-0.001475362;0.198709816;0.980055451
2024/05/03/13:02:52.323432;104612;1714766572;323005155;world;0.196133763;0.037546359;0.003127556;-0.002064445;-0.001370422;0.199444056;0.979906142
2024/05/03/13:02:52.343274;104613;1714766572;343009062;world;0.196757883;0.03785231;0.003124386;-0.001955506;-0.001315182;0.200126871;0.979767203
2024/05/03/13:02:52.353548;104614;1714766572;353159337;world;0.197374716;0.038068123;0.003124523;-0.001849157;-0.001476142;0.200617865;0.97966671
