time;.header.seq;.header.stamp.secs;.header.stamp.nsecs;.header.frame_id;.pose.position.x;.pose.position.y;.pose.position.z;.pose.orientation.x;.pose.orientation.y;.pose.orientation.z;.pose.orientation.w
2024/05/03/12:51:14.723972;61350;1714765874;723420724;world;1.29E-05;2.63E-05;1.67E-05;-2.44E-05;-4.54E-05;-9.10E-05;1
2024/05/03/12:51:14.723998;61351;1714765874;723464526;world;-4.59E-06;3.34E-05;-8.67E-07;-5.67E-05;-2.23E-05;-0.000153129;1
2024/05/03/12:51:14.753743;61352;1714765874;753399350;world;3.42E-05;3.76E-05;3.72E-05;-6.34E-05;0.000165728;-0.000126941;1
2024/05/03/12:51:14.753766;61353;1714765874;753442170;world;2.23E-05;3.33E-05;7.09E-05;-8.24E-05;0.000202435;-7.16E-05;1
2024/05/03/12:51:14.773644;61354;1714765874;773266656;world;-2.29E-05;3.33E-05;2.46E-05;-1.38E-05;3.57E-05;-5.49E-05;1
2024/05/03/12:51:14.793600;61355;1714765874;793248243;world;-4.08E-06;3.81E-05;-1.25E-05;-5.42E-05;-6.53E-05;-6.36E-05;1
2024/05/03/12:51:14.803915;61356;1714765874;803299153;world;6.60E-06;7.70E-05;-6.79E-07;-4.64E-05;-6.78E-05;-0.000165057;1
2024/05/03/12:51:14.823552;61357;1714765874;823232801;world;5.67E-05;7.30E-05;3.50E-05;-5.82E-05;0.000148007;-0.00017752;1
2024/05/03/12:51:14.833352;61358;1714765874;832979060;world;4.73E-05;2.01E-05;5.95E-05;2.01E-05;0.000208638;-0.000113583;1
2024/05/03/12:51:14.863621;61359;1714765874;863350962;world;4.97E-05;5.09E-05;5.27E-05;-2.40E-05;0.000148284;-7.22E-05;1
2024/05/03/12:51:14.863643;61360;1714765874;863391839;world;3.08E-05;5.31E-05;4.01E-05;-7.27E-05;0.000166776;-9.48E-05;1
2024/05/03/12:51:14.883905;61361;1714765874;883198178;world;6.54E-06;5.93E-05;1.72E-05;1.15E-05;-3.73E-05;-0.000164453;1
2024/05/03/12:51:14.893467;61362;1714765874;893167325;world;-5.91E-06;2.30E-05;9.79E-06;-1.19E-05;-9.25E-05;-0.000180703;1
2024/05/03/12:51:14.933428;61363;1714765874;933137843;world;-3.00E-06;3.20E-05;-2.45E-06;-3.18E-05;4.02E-06;-3.83E-05;1
2024/05/03/12:51:14.933453;61364;1714765874;933174241;world;-7.85E-06;5.96E-05;6.54E-06;-1.55E-05;-6.74E-05;-0.000134602;1
2024/05/03/12:51:14.963649;61365;1714765874;963114084;world;1.25E-05;7.02E-05;1.22E-05;3.08E-05;-4.49E-05;-0.000123329;1
2024/05/03/12:51:14.963674;61366;1714765874;963152445;world;3.54E-05;1.49E-05;3.32E-05;-6.59E-05;7.05E-05;3.01E-07;1
2024/05/03/12:51:14.973862;61367;1714765874;973558618;world;2.85E-05;-4.10E-05;3.50E-05;-0.00012864;0.000158895;2.73E-05;1
2024/05/03/12:51:14.993362;61368;1714765874;993055360;world;5.87E-06;2.19E-05;1.47E-05;6.14E-06;8.44E-06;-6.14E-05;1
2024/05/03/12:51:15.013948;61369;1714765875;13323764;world;3.75E-05;4.60E-05;5.28E-05;-4.94E-05;0.000124579;-0.00011253;1
2024/05/03/12:51:15.033452;61370;1714765875;33042434;world;1.18E-05;8.21E-05;1.88E-05;-2.45E-05;-3.65E-05;-0.000263699;1
2024/05/03/12:51:15.043734;61371;1714765875;43335389;world;6.05E-05;6.17E-05;3.93E-05;-5.32E-05;0.000190328;-0.000185238;1
2024/05/03/12:51:15.073491;61372;1714765875;73122390;world;2.84E-05;9.88E-05;1.78E-05;-3.06E-05;3.06E-05;-0.000253218;1
2024/05/03/12:51:15.073524;61373;1714765875;73160321;world;1.11E-05;0.000123186;1.42E-05;-3.97E-05;-6.54E-05;-0.000206703;1
2024/05/03/12:51:15.083299;61374;1714765875;82986286;world;5.17E-05;2.93E-05;5.18E-05;-5.83E-05;0.000168395;-6.03E-05;1
2024/05/03/12:51:15.103413;61375;1714765875;103128017;world;-2.05E-05;-6.92E-05;-7.89E-06;-3.62E-05;-2.54E-05;2.60E-05;1
2024/05/03/12:51:15.113748;61376;1714765875;113445002;world;-1.42E-05;1.16E-05;4.04E-05;-0.000125443;7.14E-05;9.83E-05;1
2024/05/03/12:51:15.133569;61377;1714765875;133192935;world;-3.28E-05;3.48E-05;2.33E-05;-3.37E-05;-3.11E-05;1.22E-05;1
2024/05/03/12:51:15.153356;61378;1714765875;153031342;world;-2.24E-05;-1.17E-05;7.23E-06;-1.67E-05;-6.74E-05;-0.000123291;1
2024/05/03/12:51:15.163578;61379;1714765875;163290419;world;4.36E-05;-1.25E-05;5.07E-05;-6.54E-05;0.00017818;3.12E-05;1
2024/05/03/12:51:15.183493;61380;1714765875;183037110;world;2.95E-05;7.35E-05;2.01E-05;-5.26E-05;1.51E-05;-9.03E-05;1
2024/05/03/12:51:15.203274;61381;1714765875;202968323;world;4.86E-05;6.66E-05;5.95E-05;-2.36E-05;0.000158242;-0.000136796;1
2024/05/03/12:51:15.213503;61382;1714765875;213153926;world;5.45E-05;7.20E-05;5.43E-05;1.29E-05;0.000121145;-0.000157289;1
2024/05/03/12:51:15.233363;61383;1714765875;233039393;world;4.09E-05;7.80E-05;4.44E-05;9.78E-05;1.92E-05;-0.000269782;1
2024/05/03/12:51:15.243579;61384;1714765875;243147817;world;3.69E-05;5.57E-06;2.90E-05;-6.45E-05;0.000169632;-2.43E-05;1
2024/05/03/12:51:15.273525;61385;1714765875;273022562;world;-2.88E-05;2.03E-05;1.22E-05;-3.10E-05;-1.63E-05;-9.78E-05;1
2024/05/03/12:51:15.273547;61386;1714765875;273071775;world;-2.46E-05;6.01E-05;3.04E-05;-7.63E-05;-2.34E-05;-8.45E-05;1
2024/05/03/12:51:15.293739;61387;1714765875;293341510;world;1.76E-05;3.17E-05;4.01E-05;-7.00E-05;6.23E-05;8.13E-06;1
2024/05/03/12:51:15.303550;61388;1714765875;303235989;world;-1.09E-05;3.51E-05;1.56E-05;3.29E-06;1.19E-06;-0.000113808;1
2024/05/03/12:51:15.323643;61389;1714765875;323276295;world;4.60E-06;7.25E-05;2.30E-05;-2.94E-05;-9.21E-06;-0.000182571;1
2024/05/03/12:51:15.343849;61390;1714765875;343223473;world;3.91E-05;0.000100823;7.26E-05;-0.000126766;9.60E-05;-0.000105884;1
2024/05/03/12:51:15.363630;61391;1714765875;363279333;world;5.12E-05;5.54E-05;7.43E-05;-4.53E-05;0.000233418;-0.000127228;1
2024/05/03/12:51:15.374037;61392;1714765875;373689177;world;3.77E-06;5.06E-05;2.20E-05;-7.78E-05;-1.13E-05;-0.000155744;1
2024/05/03/12:51:15.383685;61393;1714765875;383390318;world;1.37E-06;8.58E-05;3.73E-05;-7.71E-05;4.82E-05;-0.00019917;1
2024/05/03/12:51:15.393261;61394;1714765875;392975379;world;5.04E-06;0.000113003;3.87E-05;-2.57E-05;-3.91E-05;-0.000263413;1
2024/05/03/12:51:15.413409;61395;1714765875;413021429;world;8.08E-07;6.51E-05;1.03E-05;-6.52E-05;-2.72E-05;-0.000208229;1
2024/05/03/12:51:15.443431;61396;1714765875;443086527;world;4.25E-05;6.51E-05;6.44E-05;-7.85E-05;0.000153425;-0.000108675;1
2024/05/03/12:51:15.443448;61397;1714765875;443132894;world;7.49E-06;0.000143297;5.52E-05;-4.89E-05;1.45E-05;-0.00020262;1
2024/05/03/12:51:15.484027;61398;1714765875;483375459;world;6.65E-07;8.70E-05;4.20E-05;-8.21E-05;1.85E-05;-0.00014648;1
2024/05/03/12:51:15.484050;61399;1714765875;483424581;world;1.90E-05;4.91E-05;5.80E-05;1.80E-05;9.83E-05;-0.000181322;1
2024/05/03/12:51:15.493379;61400;1714765875;493018853;world;3.39E-05;5.37E-05;7.83E-05;-0.000105773;0.000169592;2.41E-05;1
2024/05/03/12:51:15.503888;61401;1714765875;503346431;world;6.81E-06;3.22E-05;5.27E-05;-0.000168485;9.26E-05;4.04E-05;1
2024/05/03/12:51:15.523600;61402;1714765875;523250878;world;-1.83E-05;6.61E-05;1.81E-05;-7.49E-05;1.49E-05;-0.000128071;1
2024/05/03/12:51:15.543679;61403;1714765875;543200265;world;2.16E-05;0.000125235;1.78E-05;3.90E-05;1.43E-05;-0.000262212;1
2024/05/03/12:51:15.553308;61404;1714765875;552988022;world;2.07E-05;0.000103151;1.97E-05;-1.10E-05;-3.66E-05;-0.000224842;1
2024/05/03/12:51:15.583516;61405;1714765875;583076770;world;4.40E-05;5.10E-05;5.20E-05;-8.90E-05;0.000117319;-0.00010486;1
2024/05/03/12:51:15.583540;61406;1714765875;583120592;world;7.00E-06;7.12E-05;7.61E-06;-3.73E-05;9.31E-06;-0.000196906;1
2024/05/03/12:51:15.603347;61407;1714765875;603046227;world;2.00E-05;9.39E-05;1.55E-05;-1.75E-05;-7.39E-05;-0.000190225;1
2024/05/03/12:51:15.613696;61408;1714765875;613339448;world;5.85E-05;8.81E-05;7.76E-05;-6.37E-05;0.000224918;-0.000243016;1
2024/05/03/12:51:15.633358;61409;1714765875;633068956;world;2.66E-05;6.67E-05;2.25E-05;-9.46E-06;-3.56E-05;-0.000265191;1
2024/05/03/12:51:15.643512;61410;1714765875;643161677;world;1.14E-05;6.53E-05;-2.81E-06;-5.34E-05;-8.58E-05;-0.000165579;1
2024/05/03/12:51:15.683556;61411;1714765875;683191484;world;1.71E-06;-4.99E-07;1.04E-05;-6.68E-05;3.49E-05;-4.58E-05;1
2024/05/03/12:51:15.683595;61412;1714765875;683239434;world;-3.01E-06;-1.18E-05;7.65E-06;-1.36E-07;-5.28E-05;-1.59E-05;1
2024/05/03/12:51:15.693351;61413;1714765875;693007385;world;-2.07E-05;3.67E-06;1.18E-05;-4.11E-05;-3.70E-05;-5.97E-05;1
2024/05/03/12:51:15.713362;61414;1714765875;713055421;world;-1.44E-05;-1.02E-06;-4.97E-06;-6.02E-05;-5.98E-05;-8.73E-05;1
2024/05/03/12:51:15.723552;61415;1714765875;723188340;world;4.14E-05;5.97E-05;5.24E-05;-3.88E-05;0.000116393;-0.000118113;1
2024/05/03/12:51:15.755030;61416;1714765875;754452033;world;2.05E-05;6.04E-05;2.65E-05;2.85E-05;2.57E-05;-0.000122812;1
2024/05/03/12:51:15.755069;61417;1714765875;754509721;world;4.71E-05;5.82E-05;3.92E-05;-5.84E-05;0.000155518;-0.000123608;1
2024/05/03/12:51:15.793409;61418;1714765875;793046794;world;1.76E-05;7.41E-05;1.20E-05;-3.55E-05;7.71E-05;-0.000181538;1
2024/05/03/12:51:15.793434;61419;1714765875;793086668;world;7.61E-06;5.78E-05;6.99E-06;-2.01E-05;-6.02E-05;-0.000120049;1
2024/05/03/12:51:15.803527;61420;1714765875;803197330;world;5.27E-06;4.77E-05;9.70E-06;-8.67E-06;-7.01E-05;-0.000212675;1
2024/05/03/12:51:15.823444;61421;1714765875;822973453;world;3.86E-05;1.37E-05;5.00E-05;-0.000113563;0.000168517;-4.93E-05;1
2024/05/03/12:51:15.853972;61422;1714765875;853104294;world;-3.92E-06;4.73E-05;8.34E-06;-2.21E-05;-1.42E-05;-0.000196734;1
2024/05/03/12:51:15.854017;61423;1714765875;853144069;world;-1.36E-05;1.95E-05;-1.48E-05;-7.49E-05;-7.88E-05;-6.82E-05;1
2024/05/03/12:51:15.893760;61424;1714765875;893418716;world;4.15E-05;6.19E-05;4.05E-05;-7.00E-05;0.000102062;-3.76E-05;1
2024/05/03/12:51:15.903380;61425;1714765875;903031476;world;2.40E-05;7.16E-05;3.29E-05;2.40E-05;1.18E-05;-0.000136702;1
2024/05/03/12:51:15.903395;61426;1714765875;903063937;world;-7.99E-07;1.18E-05;-4.14E-06;1.20E-05;-0.000108714;-0.000201333;1
2024/05/03/12:51:15.913601;61427;1714765875;913313410;world;6.51E-06;-8.56E-06;-1.15E-05;-1.97E-05;-0.000118678;-0.000129619;1
2024/05/03/12:51:15.934048;61428;1714765875;933711607;world;4.85E-05;1.69E-05;3.18E-05;-5.45E-05;0.000156194;-3.50E-05;1
2024/05/03/12:51:15.954019;61429;1714765875;953175322;world;2.50E-05;8.88E-05;1.71E-05;1.88E-05;5.72E-06;-0.000209052;1
2024/05/03/12:51:15.963282;61430;1714765875;963088596;world;5.47E-05;3.74E-05;3.09E-05;-8.22E-06;0.000109778;-0.000105081;1
2024/05/03/12:51:15.993516;61431;1714765875;993244784;world;2.89E-05;1.10E-05;5.04E-05;-5.22E-05;0.000168326;-0.000120486;1
2024/05/03/12:51:15.993545;61432;1714765875;993294207;world;-9.62E-06;5.60E-05;9.34E-06;-4.75E-05;-2.68E-06;-0.000173533;1
2024/05/03/12:51:16.013337;61433;1714765876;13116284;world;-2.22E-05;6.49E-05;-2.26E-06;-3.11E-05;-7.39E-05;-8.31E-05;1
2024/05/03/12:51:16.023259;61434;1714765876;23009260;world;7.28E-06;3.01E-05;4.36E-05;-0.000111887;7.23E-05;1.45E-05;1
2024/05/03/12:51:16.043593;61435;1714765876;43343588;world;3.19E-05;2.67E-06;4.97E-05;-8.94E-05;0.000108619;-2.99E-05;1
2024/05/03/12:51:16.053340;61436;1714765876;52901224;world;-2.75E-06;4.31E-05;9.33E-06;-4.22E-05;2.01E-07;-0.000109264;1
2024/05/03/12:51:16.083540;61437;1714765876;83059747;world;-4.70E-06;6.18E-05;-7.48E-06;-9.51E-06;-5.31E-05;-0.000123981;1
2024/05/03/12:51:16.083565;61438;1714765876;83094923;world;-6.51E-05;-0.000211375;2.17E-05;-0.000116823;0.000113268;-0.000198575;1
2024/05/03/12:51:16.103542;61439;1714765876;103216863;world;-2.42E-08;-1.44E-05;1.45E-05;-4.67E-05;-1.45E-05;-0.00014032;1
2024/05/03/12:51:16.123671;61440;1714765876;123374779;world;-1.02E-05;0.00010951;1.57E-06;-1.93E-05;-0.000137658;-2.98E-05;1
2024/05/03/12:51:16.143848;61441;1714765876;143197659;world;6.92E-06;9.60E-05;-9.90E-06;4.64E-05;-4.86E-05;-0.000208677;1
2024/05/03/12:51:16.163551;61442;1714765876;163261449;world;9.66E-06;5.35E-05;-4.34E-07;-2.53E-05;-7.56E-05;-0.000234246;1
2024/05/03/12:51:16.163587;61443;1714765876;163298238;world;3.70E-06;6.46E-05;2.32E-06;-2.67E-06;-3.68E-05;-0.000230124;1
2024/05/03/12:51:16.193437;61444;1714765876;193055021;world;-4.21E-06;6.99E-05;8.60E-07;-2.68E-05;-5.48E-05;-0.000203522;1
2024/05/03/12:51:16.193470;61445;1714765876;193093983;world;-1.49E-05;4.00E-05;-1.07E-05;-5.34E-05;-0.000112784;-0.000124173;1
2024/05/03/12:51:16.213384;61446;1714765876;213024423;world;1.99E-06;4.68E-05;1.70E-05;1.40E-05;5.09E-05;-0.000159353;1
2024/05/03/12:51:16.223378;61447;1714765876;223140197;world;-1.88E-07;6.84E-05;1.86E-05;-4.77E-05;-3.12E-05;-0.000142055;1
2024/05/03/12:51:16.243520;61448;1714765876;243230566;world;-3.45E-06;5.95E-05;-2.00E-06;-1.13E-05;-0.000103079;-0.000145;1
2024/05/03/12:51:16.263268;61449;1714765876;262932209;world;-2.90E-06;4.77E-05;-1.10E-05;-6.75E-06;-9.10E-05;-0.000159779;1
2024/05/03/12:51:16.273510;61450;1714765876;273249835;world;-3.84E-07;0.000102401;-5.75E-06;-4.12E-05;-0.000102394;-0.000215113;1
2024/05/03/12:51:16.313565;61451;1714765876;313254250;world;2.00E-05;5.98E-05;1.89E-05;2.35E-05;-9.50E-06;-0.000337674;1
2024/05/03/12:51:16.313594;61452;1714765876;313290067;world;-7.58E-06;5.31E-05;-2.21E-05;2.73E-05;-6.44E-05;-0.000307914;1
2024/05/03/12:51:16.324156;61453;1714765876;323887312;world;-4.11E-05;0.000150142;-3.42E-05;4.32E-05;-0.000104293;-0.000172521;1
2024/05/03/12:51:16.333332;61454;1714765876;332995116;world;-6.37E-05;0.000840515;2.16E-05;0.000106672;8.39E-05;0.000415848;0.999999881
2024/05/03/12:51:16.364011;61455;1714765876;362925692;world;-2.59E-05;0.00215487;0.000153223;0.000181919;0.000403026;0.000505481;0.999999762
2024/05/03/12:51:16.374280;61456;1714765876;373855490;world;-0.000111103;0.003723681;0.000136787;-8.33E-05;0.000231077;4.60E-05;1
2024/05/03/12:51:16.383659;61457;1714765876;383306206;world;-0.000108381;0.005328245;0.00018018;9.92E-05;0.000310279;-0.000166079;1
2024/05/03/12:51:16.404062;61458;1714765876;403689896;world;-7.72E-05;0.006224894;0.000276747;0.000236051;0.000843736;-0.000176159;0.999999642
2024/05/03/12:51:16.413230;61459;1714765876;412997344;world;6.76E-05;0.008943005;0.000333678;0.000241651;0.00161901;0.000520637;0.999998569
2024/05/03/12:51:16.433382;61460;1714765876;433123010;world;7.61E-05;0.009786749;0.000257252;0.000721346;0.00141445;0.00080629;0.99999845
2024/05/03/12:51:16.443695;61461;1714765876;443450579;world;9.89E-05;0.011430604;0.000134933;0.000938934;0.000885863;0.000901027;0.999998808
2024/05/03/12:51:16.463484;61462;1714765876;463265385;world;0.00011256;0.013410372;0.000112263;0.000621939;0.000308899;0.000850172;0.999999404
2024/05/03/12:51:16.503555;61463;1714765876;503257672;world;0.000380348;0.015401569;7.85E-05;-2.22E-05;0.000169992;0.00180509;0.999998331
2024/05/03/12:51:16.503583;61464;1714765876;503291957;world;0.000398686;0.01752704;0.000172492;-0.000202089;0.000524164;0.002044079;0.999997735
2024/05/03/12:51:16.513757;61465;1714765876;513230477;world;0.000180893;0.019519448;0.000290314;0.00061397;0.000712919;0.001525616;0.99999845
2024/05/03/12:51:16.523135;61466;1714765876;522849278;world;0.000131208;0.020575982;0.000291517;0.000442136;0.000487603;0.001294176;0.999998927
2024/05/03/12:51:16.544065;61467;1714765876;543541294;world;0.000122674;0.022536006;0.000407195;0.000526575;0.000804788;0.001363866;0.999998689
2024/05/03/12:51:16.554268;61468;1714765876;554034935;world;0.000248455;0.024445366;0.000409698;0.000561045;0.000591342;0.001361155;0.999998808
2024/05/03/12:51:16.573309;61469;1714765876;572980874;world;0.000197284;0.026157243;0.000374516;0.000247078;0.000743456;0.000795018;0.999999404
2024/05/03/12:51:16.603191;61470;1714765876;602932619;world;0.000180789;0.027878953;0.000391927;-0.000218853;0.001333063;0.000457815;0.999999046
2024/05/03/12:51:16.603215;61471;1714765876;602968556;world;0.000186779;0.02940977;0.000336218;-0.000140731;0.000367288;0.001001673;0.999999404
2024/05/03/12:51:16.613503;61472;1714765876;613273273;world;0.000382407;0.030558802;0.00033608;0.000182203;0.000494792;0.001886529;0.999998093
2024/05/03/12:51:16.633370;61473;1714765876;633129905;world;0.000364006;0.031738292;0.00035609;0.000363441;0.000922347;0.001880684;0.999997735
2024/05/03/12:51:16.653237;61474;1714765876;652969346;world;0.000327196;0.032993659;0.000359745;0.000543945;0.000890763;0.001749007;0.999997973
2024/05/03/12:51:16.673193;61475;1714765876;672899806;world;0.000314329;0.034195032;0.000320887;0.000308586;0.000347156;0.001891907;0.999998093
2024/05/03/12:51:16.683379;61476;1714765876;682882369;world;0.000290086;0.034932956;0.00027317;0.000211915;-1.61E-05;0.001669765;0.999998569
2024/05/03/12:51:16.703534;61477;1714765876;703280114;world;0.00040143;0.036172733;0.000272379;-0.000132247;-0.000246455;0.001508981;0.999998808
2024/05/03/12:51:16.713591;61478;1714765876;713185233;world;0.000438156;0.037129268;0.000284382;-0.000217257;-0.000328109;0.001771651;0.999998331
2024/05/03/12:51:16.723495;61479;1714765876;723183531;world;0.000289988;0.038088176;0.000497214;-0.000153153;0.000481388;0.001235947;0.999999166
2024/05/03/12:51:16.743676;61480;1714765876;743360808;world;0.000273016;0.038905166;0.000553615;-9.27E-05;0.00082311;0.001002411;0.999999166
2024/05/03/12:51:16.763234;61481;1714765876;762856045;world;0.000264674;0.03972039;0.000514074;-0.000104198;0.000820377;0.001096818;0.999999046
2024/05/03/12:51:16.773266;61482;1714765876;772975935;world;0.0003097;0.040585514;0.000564988;6.57E-07;0.000566001;0.000894049;0.999999523
2024/05/03/12:51:16.803661;61483;1714765876;803332008;world;0.000326908;0.04092408;0.000567844;0.000120139;0.00048115;0.000909702;0.999999523
2024/05/03/12:51:16.803681;61484;1714765876;803366272;world;0.000327896;0.041482002;0.000608398;7.86E-06;0.000505634;0.001114604;0.999999285
2024/05/03/12:51:16.823382;61485;1714765876;823085707;world;0.000359112;0.042098336;0.000586242;0.000145111;0.00080503;0.001197006;0.999998927
2024/05/03/12:51:16.833429;61486;1714765876;833135316;world;0.000372913;0.042579968;0.000607933;0.000222065;0.000913928;0.001537981;0.99999845
2024/05/03/12:51:16.853575;61487;1714765876;853289625;world;0.000437257;0.043167915;0.000657955;0.000338299;0.001359407;0.001576848;0.999997854
2024/05/03/12:51:16.873195;61488;1714765876;872925806;world;0.000491011;0.043782756;0.000649758;0.000417715;0.001551512;0.00136867;0.999997854
2024/05/03/12:51:16.883627;61489;1714765876;883345568;world;0.000339843;0.044421837;0.000490303;0.000284055;0.000932308;0.001212253;0.999998808
2024/05/03/12:51:16.913158;61490;1714765876;912865816;world;0.000399666;0.044676151;0.00050924;0.000415109;0.001007721;0.001340257;0.999998569
2024/05/03/12:51:16.913191;61491;1714765876;912900000;world;0.000495445;0.045187555;0.000491217;0.000582271;0.000821687;0.001646917;0.999998212
2024/05/03/12:51:16.933246;61492;1714765876;932959171;world;0.000465825;0.045792237;0.000493119;0.000620246;0.000711993;0.001678271;0.999998212
2024/05/03/12:51:16.943879;61493;1714765876;943432184;world;0.000490684;0.046710983;0.000351511;9.35E-05;0.000111043;0.001081743;0.999999404
2024/05/03/12:51:16.963535;61494;1714765876;963281198;world;0.00069214;0.04757743;0.000354325;0.000165716;-3.27E-05;0.000665877;0.999999762
2024/05/03/12:51:16.973650;61495;1714765876;973357198;world;0.000642741;0.048129395;0.000315383;4.06E-05;-7.38E-05;0.001174927;0.999999285
2024/05/03/12:51:16.993413;61496;1714765876;993122360;world;0.000599198;0.048552345;0.000276396;-5.45E-05;-0.00024017;0.001776934;0.99999845
2024/05/03/12:51:17.013655;61497;1714765877;13388620;world;0.000570334;0.049094789;0.000259672;2.53E-05;5.07E-05;0.002138645;0.999997735
2024/05/03/12:51:17.023668;61498;1714765877;23380121;world;0.000586744;0.049455836;0.000304717;6.27E-05;0.000228968;0.002143877;0.999997735
2024/05/03/12:51:17.043493;61499;1714765877;43205755;world;0.000595503;0.050177366;0.000329545;-7.44E-05;0.000512614;0.002354229;0.999997139
2024/05/03/12:51:17.053611;61500;1714765877;53253529;world;0.000401445;0.051082905;0.000484253;0.000166534;0.000795581;0.001518581;0.999998569
2024/05/03/12:51:17.083423;61501;1714765877;83035268;world;0.000295853;0.052020419;0.000547151;0.000343071;0.000995748;0.000973672;0.999999046
2024/05/03/12:51:17.083451;61502;1714765877;83069693;world;0.000299448;0.052644234;0.000517965;0.000317356;0.001036826;0.00118438;0.999998689
2024/05/03/12:51:17.124316;61503;1714765877;124028571;world;0.000368161;0.053466029;0.000560845;0.000372389;0.001122058;0.001269749;0.999998569
2024/05/03/12:51:17.124353;61504;1714765877;124071411;world;0.000418239;0.054287873;0.000591848;0.000275532;0.001234976;0.001290164;0.99999845
2024/05/03/12:51:17.133353;61505;1714765877;133054612;world;0.000487342;0.05518784;0.000660916;0.000171408;0.001345689;0.0012226;0.999998331
2024/05/03/12:51:17.153223;61506;1714765877;152925231;world;0.000549648;0.055890664;0.000737445;0.000313568;0.001710128;0.001284955;0.999997735
2024/05/03/12:51:17.163251;61507;1714765877;163013742;world;0.000580355;0.056628525;0.000745306;0.000526058;0.001717869;0.001425322;0.999997377
2024/05/03/12:51:17.183853;61508;1714765877;183428796;world;0.000582993;0.057006337;0.000729555;0.000803853;0.001845788;0.001591191;0.999996781
2024/05/03/12:51:17.193283;61509;1714765877;192986458;world;0.000545094;0.05774615;0.000676456;0.001140423;0.001670484;0.001932752;0.999996066
2024/05/03/12:51:17.223569;61510;1714765877;223085449;world;0.00047335;0.058646135;0.000623611;0.001167853;0.001138948;0.002157092;0.999996424
2024/05/03/12:51:17.223595;61511;1714765877;223119032;world;0.000548869;0.059661996;0.000545206;0.000761455;0.000701574;0.002040737;0.999997377
2024/05/03/12:51:17.243989;61512;1714765877;243734116;world;0.000834057;0.060816452;0.000402426;5.53E-05;0.000363175;0.001246631;0.999999166
2024/05/03/12:51:17.254593;61513;1714765877;254192831;world;0.000870332;0.061857097;0.000340988;-0.000354481;0.000274009;0.00097111;0.999999404
2024/05/03/12:51:17.283678;61514;1714765877;283312810;world;0.000886206;0.062103093;0.000235037;-0.000410207;-0.000151483;0.001806031;0.999998331
2024/05/03/12:51:17.293439;61515;1714765877;293112781;world;0.00080514;0.063218221;0.000291975;1.21E-05;0.000259338;0.002050873;0.999997854
2024/05/03/12:51:17.333750;61516;1714765877;333228520;world;0.000794511;0.063585229;0.000328393;-8.54E-05;0.000455299;0.001995142;0.999997973
2024/05/03/12:51:17.333762;61517;1714765877;333262874;world;0.000624362;0.064609848;0.000633066;9.67E-05;0.001237652;0.001383591;0.999998331
2024/05/03/12:51:17.343771;61518;1714765877;343385531;world;0.000615811;0.065689906;0.000770767;0.000386282;0.00153071;0.001316356;0.999997973
2024/05/03/12:51:17.353410;61519;1714765877;353120839;world;0.000632714;0.066424116;0.000764201;0.000830561;0.001631965;0.001510208;0.999997258
2024/05/03/12:51:17.363246;61520;1714765877;362920029;world;0.000554111;0.066991486;0.000681045;0.001340845;0.001810611;0.001599771;0.999996185
2024/05/03/12:51:17.383754;61521;1714765877;383392786;world;0.000568841;0.06778945;0.000724997;0.001539891;0.002199196;0.001699422;0.999994993
2024/05/03/12:51:17.393358;61522;1714765877;393037506;world;0.000586752;0.068312317;0.000765202;0.001362211;0.002198861;0.0016733;0.999995232
2024/05/03/12:51:17.423586;61523;1714765877;423028847;world;0.000602486;0.069731735;0.000666054;0.000631005;0.001661228;0.001498097;0.999997377
2024/05/03/12:51:17.433268;61524;1714765877;432958147;world;0.000625741;0.070135884;0.000626993;0.000493844;0.001496745;0.001598416;0.999997497
2024/05/03/12:51:17.453417;61525;1714765877;453114129;world;0.000602642;0.071184859;0.000555806;3.01E-05;0.000792147;0.00159785;0.99999845
2024/05/03/12:51:17.463768;61526;1714765877;463238644;world;0.000671584;0.072271064;0.000723132;8.50E-05;0.001423471;0.001407428;0.999997973
2024/05/03/12:51:17.493320;61527;1714765877;493033925;world;0.000704417;0.073071189;0.000719624;0.000289634;0.001506901;0.001502355;0.999997735
2024/05/03/12:51:17.493349;61528;1714765877;493072287;world;0.000741336;0.073880441;0.000739391;0.000143677;0.00167733;0.001408851;0.999997616
2024/05/03/12:51:17.533490;61529;1714765877;533016846;world;0.000777418;0.074783519;0.000828518;0.000221599;0.001772918;0.001345727;0.999997497
2024/05/03/12:51:17.533515;61530;1714765877;533043836;world;0.00073576;0.075345963;0.000755478;8.10E-05;0.001537408;0.001255789;0.999998093
2024/05/03/12:51:17.543245;61531;1714765877;542942642;world;0.000699572;0.076478407;0.000545701;2.94E-05;0.000757476;0.001368056;0.999998808
2024/05/03/12:51:17.553802;61532;1714765877;553155066;world;0.00082;0.076835483;0.00050287;0.000163762;0.000515356;0.001670887;0.99999845
2024/05/03/12:51:17.573224;61533;1714765877;572911500;world;0.000763282;0.077739768;0.000655954;0.000353749;0.000760139;0.001670721;0.999998331
2024/05/03/12:51:17.593716;61534;1714765877;593290351;world;0.000769455;0.078675069;0.000746738;0.00051121;0.000999298;0.001601819;0.999998093
2024/05/03/12:51:17.603172;61535;1714765877;602869509;world;0.000806833;0.079457507;0.000795191;0.000837306;0.001116811;0.001873828;0.999997258
2024/05/03/12:51:17.633734;61536;1714765877;633444622;world;0.000857212;0.080165818;0.000813785;0.001348587;0.001662717;0.002110554;0.99999547
2024/05/03/12:51:17.643177;61537;1714765877;642902054;world;0.000842072;0.080747023;0.000798342;0.001724638;0.00184649;0.002592714;0.999993443
2024/05/03/12:51:17.643196;61538;1714765877;642930948;world;0.000829864;0.081135534;0.000787714;0.001751492;0.001859579;0.002700646;0.999993086
2024/05/03/12:51:17.673371;61539;1714765877;673059023;world;0.000785327;0.082594395;0.000832977;0.001057036;0.002345722;0.001997131;0.999994755
2024/05/03/12:51:17.693531;61540;1714765877;693148534;world;0.000725774;0.083816275;0.000683253;0.000220427;0.000963992;0.001321349;0.999998689
2024/05/03/12:51:17.693570;61541;1714765877;693188088;world;0.000722269;0.084275149;0.000710924;-0.000140008;0.001009762;0.001124959;0.999998927
2024/05/03/12:51:17.713576;61542;1714765877;713242940;world;0.000749854;0.085045449;0.000826272;-3.50E-06;0.001667417;0.001045862;0.999998093
2024/05/03/12:51:17.723241;61543;1714765877;722925411;world;0.000773851;0.085814878;0.000843574;0.000106681;0.001685623;0.001183105;0.999997854
2024/05/03/12:51:17.743703;61544;1714765877;743358282;world;0.000802259;0.086599104;0.000902817;9.40E-05;0.001603148;0.001197679;0.999997973
2024/05/03/12:51:17.753292;61545;1714765877;752992884;world;0.000826283;0.087395489;0.000959828;0.000142665;0.001562643;0.001370758;0.999997854
2024/05/03/12:51:17.773224;61546;1714765877;772887168;world;0.000836323;0.087775365;0.000946485;0.000172159;0.001588651;0.001318073;0.999997854
2024/05/03/12:51:17.793381;61547;1714765877;793033342;world;0.000820231;0.088897705;0.000842456;0.000396991;0.001926276;0.001083852;0.999997497
2024/05/03/12:51:17.803345;61548;1714765877;803002860;world;0.000943424;0.089571945;0.000772871;0.000791797;0.001664807;0.001592504;0.99999702
2024/05/03/12:51:17.823256;61549;1714765877;822901653;world;0.000953134;0.09045773;0.000775984;0.00100272;0.001733868;0.00165364;0.999996662
2024/05/03/12:51:17.833505;61550;1714765877;833265258;world;0.000947634;0.090847872;0.000805059;0.001013755;0.001786074;0.001539058;0.999996781
2024/05/03/12:51:17.853537;61551;1714765877;853239492;world;0.000834659;0.091704346;0.000814197;0.000882817;0.002014849;0.001682409;0.999996185
2024/05/03/12:51:17.863795;61552;1714765877;863479026;world;0.000779869;0.092582405;0.00078799;0.000573201;0.001673173;0.001832925;0.999996781
2024/05/03/12:51:17.883298;61553;1714765877;883021870;world;0.000838235;0.093659043;0.00081545;0.000431347;0.001507111;0.001730751;0.999997258
2024/05/03/12:51:17.903611;61554;1714765877;903296733;world;0.000945723;0.094725057;0.000813759;-0.000152617;0.001005414;0.001806442;0.999997854
2024/05/03/12:51:17.913312;61555;1714765877;913057450;world;0.001009941;0.095321499;0.000785224;-0.0004382;0.000973386;0.001692598;0.999997973
2024/05/03/12:51:17.933412;61556;1714765877;933156617;world;0.001111535;0.096238881;0.000825233;-0.000358901;0.001012231;0.001359062;0.999998569
2024/05/03/12:51:17.943382;61557;1714765877;943132342;world;0.000983356;0.096949324;0.001071027;-1.58E-05;0.001496579;0.00156555;0.999997735
2024/05/03/12:51:17.963297;61558;1714765877;963055037;world;0.000967637;0.097674131;0.001104517;0.000306808;0.001583434;0.001585717;0.999997497
2024/05/03/12:51:17.973404;61559;1714765877;973153909;world;0.000955543;0.098388642;0.001093437;0.000264844;0.001555387;0.001550811;0.999997616
2024/05/03/12:51:18.003444;61560;1714765878;3072412;world;0.000952154;0.099136561;0.001101868;3.99E-05;0.001667283;0.001508741;0.999997497
2024/05/03/12:51:18.013692;61561;1714765878;13210057;world;0.000891354;0.099934854;0.001115461;-1.45E-05;0.001540675;0.001615355;0.999997497
2024/05/03/12:51:18.033144;61562;1714765878;32812373;world;0.000893829;0.100343861;0.001109155;0.000201469;0.001649449;0.001715953;0.999997139
2024/05/03/12:51:18.043346;61563;1714765878;43062257;world;0.000859806;0.101551682;0.001065651;0.000498508;0.001817006;0.001864975;0.999996543
2024/05/03/12:51:18.053867;61564;1714765878;53226358;world;0.000884875;0.101987347;0.001059255;0.00049521;0.00182296;0.00178628;0.999996662
2024/05/03/12:51:18.073343;61565;1714765878;73094674;world;0.000884589;0.102858275;0.001066608;0.000555387;0.002054217;0.00142937;0.999996781
2024/05/03/12:51:18.084699;61566;1714765878;84237551;world;0.000917576;0.103602439;0.001000973;0.00079929;0.001992975;0.00157065;0.999996543
2024/05/03/12:51:18.103313;61567;1714765878;103051520;world;0.000847097;0.104466856;0.000958852;0.000739848;0.001668168;0.001838254;0.999996662
2024/05/03/12:51:18.113527;61568;1714765878;113266658;world;0.000837089;0.105465919;0.001038401;0.000607532;0.001730165;0.001762512;0.999996781
2024/05/03/12:51:18.143232;61569;1714765878;142873530;world;0.000837278;0.106301732;0.001060561;0.000576091;0.001825054;0.001921428;0.999996305
2024/05/03/12:51:18.153335;61570;1714765878;153055064;world;0.00088609;0.107049502;0.0011129;0.000652494;0.001682108;0.002164704;0.999996066
2024/05/03/12:51:18.163605;61571;1714765878;163345785;world;0.000939816;0.107311487;0.001091929;0.000812747;0.001644173;0.00239711;0.99999547
2024/05/03/12:51:18.183253;61572;1714765878;182941550;world;0.001176361;0.108511865;0.000907619;0.000775483;0.001101776;0.002764183;0.999995351
2024/05/03/12:51:18.203564;61573;1714765878;203287014;world;0.001244953;0.108997643;0.000880095;0.000724548;0.001114736;0.002737991;0.999995351
2024/05/03/12:51:18.213510;61574;1714765878;213225157;world;0.001226075;0.109829262;0.000931573;0.000564987;0.000980355;0.002609978;0.999995947
2024/05/03/12:51:18.233113;61575;1714765878;232874713;world;0.000947753;0.110827453;0.001201123;0.000563489;0.001551448;0.001807156;0.99999702
2024/05/03/12:51:18.243265;61576;1714765878;242964307;world;0.000949237;0.111720622;0.001207865;0.00071382;0.001905815;0.00176075;0.999996424
2024/05/03/12:51:18.253388;61577;1714765878;253045369;world;0.000987254;0.112495773;0.001250895;0.000891426;0.001997754;0.001983448;0.999995708
2024/05/03/12:51:18.273552;61578;1714765878;273233407;world;0.001019062;0.11290513;0.001277423;0.000972803;0.001992587;0.001969635;0.999995589
2024/05/03/12:51:18.293287;61579;1714765878;292994481;world;0.001087537;0.113636978;0.001288502;0.001037651;0.00215174;0.002123541;0.999994874
2024/05/03/12:51:18.303315;61580;1714765878;303017068;world;0.001047902;0.114412539;0.001300047;0.001386267;0.001964029;0.002600522;0.999993801
2024/05/03/12:51:18.323346;61581;1714765878;323166389;world;0.001041338;0.11530374;0.001377644;0.001666157;0.002462081;0.002793452;0.999991655
2024/05/03/12:51:18.343320;61582;1714765878;343032542;world;0.000934055;0.116268516;0.001269391;0.001341034;0.002033556;0.00245897;0.99999404
2024/05/03/12:51:18.353150;61583;1714765878;352936466;world;0.001007682;0.117220096;0.001048027;0.000702019;0.001087099;0.002153345;0.999996901
2024/05/03/12:51:18.363826;61584;1714765878;363650519;world;0.000908784;0.118737385;0.001115412;-0.000220748;0.000821596;0.000817683;0.999999285
2024/05/03/12:51:18.383806;61585;1714765878;383570481;world;0.001030244;0.119738542;0.001335814;0.000397848;0.001766836;0.0005078;0.999998212
2024/05/03/12:51:18.413357;61586;1714765878;413054761;world;0.000964571;0.120126553;0.001331039;0.000354374;0.001686277;0.000594963;0.999998331
2024/05/03/12:51:18.413366;61587;1714765878;413088724;world;0.000954962;0.120832816;0.001336938;0.000209104;0.001572587;0.00098259;0.999998331
2024/05/03/12:51:18.443335;61588;1714765878;443052144;world;0.001024745;0.121171162;0.001399131;0.000678808;0.001759554;0.001905932;0.999996424
2024/05/03/12:51:18.443359;61589;1714765878;443098460;world;0.001067428;0.121577576;0.001449951;0.0012666;0.002132456;0.002450235;0.99999392
2024/05/03/12:51:18.463586;61590;1714765878;463397992;world;0.001078587;0.122294091;0.001376104;0.001923098;0.001699037;0.002595411;0.999993324
2024/05/03/12:51:18.473402;61591;1714765878;473047592;world;0.00114743;0.123188987;0.001251731;0.001932405;0.001662195;0.00229803;0.999994159
2024/05/03/12:51:18.493514;61592;1714765878;493219736;world;0.001093477;0.124097109;0.001227773;0.001535867;0.001571114;0.002346217;0.999994874
2024/05/03/12:51:18.513282;61593;1714765878;512999284;world;0.001002483;0.125018746;0.001295774;0.0013395;0.00197951;0.002059538;0.999994993
2024/05/03/12:51:18.523693;61594;1714765878;523390388;world;0.001006475;0.125481144;0.001318035;0.001385169;0.001942716;0.002194557;0.999994755
2024/05/03/12:51:18.543463;61595;1714765878;543289665;world;0.000938509;0.126592845;0.00134196;0.002174626;0.002227525;0.002789018;0.999991298
2024/05/03/12:51:18.553645;61596;1714765878;553278669;world;0.000939596;0.126933917;0.001326888;0.002676392;0.002509033;0.003117455;0.999988437
2024/05/03/12:51:18.573374;61597;1714765878;573092602;world;0.001051757;0.127915666;0.001329792;0.002838706;0.001984152;0.002640805;0.999990582
2024/05/03/12:51:18.583067;61598;1714765878;582863099;world;0.001154009;0.129299402;0.001229262;0.001495049;0.001779931;0.002241573;0.999994874
2024/05/03/12:51:18.603324;61599;1714765878;603123377;world;0.000925405;0.130317152;0.001427147;0.000735142;0.001663099;0.00171857;0.999996901
2024/05/03/12:51:18.613373;61600;1714765878;613067848;world;0.001002654;0.130846247;0.00150357;0.000875612;0.002333453;0.002002519;0.999994874
2024/05/03/12:51:18.653157;61601;1714765878;652910436;world;0.001008456;0.13159956;0.001521581;0.00085983;0.002342369;0.00166677;0.99999547
2024/05/03/12:51:18.653188;61602;1714765878;652945311;world;0.001019984;0.131967217;0.001548535;0.000994307;0.002420835;0.001704789;0.999995112
2024/05/03/12:51:18.663577;61603;1714765878;663343012;world;0.000956348;0.132780641;0.001502284;0.001255273;0.001834708;0.001921818;0.999995708
2024/05/03/12:51:18.684132;61604;1714765878;682956160;world;0.001072535;0.133484572;0.001535227;0.001272134;0.001554719;0.002168646;0.999995708
2024/05/03/12:51:18.693648;61605;1714765878;693394767;world;0.001111671;0.134365246;0.001630333;0.001118541;0.001446529;0.00218379;0.999995947
2024/05/03/12:51:18.723423;61606;1714765878;723202092;world;0.001054012;0.135301605;0.001660088;0.001164751;0.001556356;0.002193829;0.999995708
2024/05/03/12:51:18.723429;61607;1714765878;723235835;world;0.001020104;0.136181965;0.001647223;0.001172494;0.001656764;0.002152597;0.999995708
2024/05/03/12:51:18.753874;61608;1714765878;753101181;world;0.001036253;0.137050912;0.001641298;0.001304036;0.001848178;0.002190715;0.999995112
2024/05/03/12:51:18.763327;61609;1714765878;763075457;world;0.001031198;0.137750715;0.001498393;0.001327884;0.001408045;0.002398431;0.999995232
2024/05/03/12:51:18.773218;61610;1714765878;772988531;world;0.001020143;0.138128474;0.001454373;0.001542754;0.001677072;0.002534572;0.999994278
2024/05/03/12:51:18.793370;61611;1714765878;793063433;world;0.000957806;0.139501855;0.001440539;0.001680911;0.001284769;0.002851115;0.999993682
2024/05/03/12:51:18.803371;61612;1714765878;803205924;world;0.001036648;0.139882639;0.001384277;0.001883113;0.000906549;0.002934106;0.999993563
2024/05/03/12:51:18.823323;61613;1714765878;823112280;world;0.001293048;0.140866861;0.001378665;0.002187061;0.001200672;0.002703069;0.999993205
2024/05/03/12:51:18.843674;61614;1714765878;843458671;world;0.001139216;0.141676456;0.001485488;0.002077548;0.001660721;0.002373921;0.999993682
2024/05/03/12:51:18.873410;61615;1714765878;873159157;world;0.000961008;0.142526537;0.001679587;0.00175612;0.00215604;0.002325189;0.999993443
2024/05/03/12:51:18.873434;61616;1714765878;873192990;world;0.00094797;0.143306628;0.001701317;0.001629198;0.002112831;0.002193503;0.99999404
2024/05/03/12:51:18.883218;61617;1714765878;882961333;world;0.000890553;0.143973008;0.001617437;0.001748571;0.001625984;0.002405836;0.999994278
2024/05/03/12:51:18.893168;61618;1714765878;892915312;world;0.000926489;0.144249707;0.00159108;0.001843591;0.001598776;0.002449176;0.99999404
2024/05/03/12:51:18.923929;61619;1714765878;923623245;world;0.000988726;0.145016134;0.001690893;0.001895507;0.001477957;0.002492032;0.99999404
2024/05/03/12:51:18.933381;61620;1714765878;933139344;world;0.000973253;0.145824194;0.00167327;0.002195061;0.00153723;0.002561935;0.999993205
2024/05/03/12:51:18.963363;61621;1714765878;962979291;world;0.000972582;0.146781653;0.001682219;0.001786288;0.001721684;0.002590386;0.999993563
2024/05/03/12:51:18.963393;61622;1714765878;963012784;world;0.000946261;0.147782847;0.001726827;0.001628509;0.001548631;0.002568992;0.999994159
2024/05/03/12:51:18.973103;61623;1714765878;972911269;world;0.000961572;0.148634478;0.001740266;0.001573099;0.001512523;0.002522563;0.999994516
2024/05/03/12:51:18.993267;61624;1714765878;993035495;world;0.000951955;0.149466753;0.001700691;0.001542042;0.001696865;0.00236834;0.999994636
2024/05/03/12:51:19.023729;61625;1714765879;23511307;world;0.000818657;0.150270909;0.001627692;0.001393912;0.001239948;0.002440998;0.999995351
2024/05/03/12:51:19.023968;61626;1714765879;23535222;world;0.000866989;0.151321396;0.001598226;0.001373304;0.000675764;0.002725554;0.999995112
2024/05/03/12:51:19.043285;61627;1714765879;43032116;world;0.001094164;0.152353451;0.001467047;0.001272316;0.00027531;0.002799376;0.999995232
2024/05/03/12:51:19.073311;61628;1714765879;72974524;world;0.001162693;0.152881533;0.001446897;0.001304712;9.74E-05;0.002630971;0.999995708
2024/05/03/12:51:19.073339;61629;1714765879;73009289;world;0.001112847;0.153836772;0.001503154;0.001193054;0.000155708;0.002405479;0.999996424
2024/05/03/12:51:19.083433;61630;1714765879;83143336;world;0.001106739;0.154437363;0.001530792;0.001093097;-1.27E-06;0.002843703;0.999995351
2024/05/03/12:51:19.103777;61631;1714765879;103017874;world;0.001095347;0.155135393;0.001631923;0.001443625;0.000445549;0.003076819;0.999994159
2024/05/03/12:51:19.123682;61632;1714765879;123420850;world;0.001166072;0.155885637;0.001772329;0.002195932;0.001078507;0.003222521;0.999991894
2024/05/03/12:51:19.133460;61633;1714765879;133157181;world;0.000966433;0.156535104;0.001853855;0.002756672;0.001282248;0.00323826;0.999990106
2024/05/03/12:51:19.163438;61634;1714765879;163152490;world;0.000985276;0.157279581;0.001837721;0.003027564;0.001375036;0.003486504;0.999988437
2024/05/03/12:51:19.163462;61635;1714765879;163187566;world;0.001009107;0.157635182;0.001813869;0.00318176;0.001397125;0.003501018;0.999987841
2024/05/03/12:51:19.183439;61636;1714765879;183197415;world;0.001006082;0.158566415;0.001813194;0.002877888;0.001603164;0.003198022;0.99998951
2024/05/03/12:51:19.193317;61637;1714765879;192960356;world;0.001011301;0.159484401;0.001814911;0.002518643;0.001710802;0.002767659;0.999991536
2024/05/03/12:51:19.213590;61638;1714765879;213252035;world;0.001033079;0.16052039;0.001848796;0.002125458;0.001762733;0.002805226;0.999992251
2024/05/03/12:51:19.223572;61639;1714765879;223300182;world;0.001090843;0.161398247;0.00188914;0.002226201;0.001671274;0.002725807;0.99999249
2024/05/03/12:51:19.243248;61640;1714765879;242933355;world;0.000974126;0.162242323;0.001777266;0.00212418;0.00154123;0.003034838;0.999992013
2024/05/03/12:51:19.253729;61641;1714765879;253374376;world;0.000993349;0.162677556;0.001729602;0.00173329;0.00117013;0.003080212;0.999993086
2024/05/03/12:51:19.273326;61642;1714765879;273012692;world;0.001005657;0.163587973;0.001724425;0.00164209;0.000893899;0.002951989;0.99999392
2024/05/03/12:51:19.293523;61643;1714765879;293160229;world;0.000961963;0.164610922;0.001891077;0.002590088;0.001387806;0.003350285;0.999990106
2024/05/03/12:51:19.303489;61644;1714765879;303216399;world;0.001001583;0.164951846;0.00193406;0.002978534;0.001862353;0.003550676;0.999987602
2024/05/03/12:51:19.333526;61645;1714765879;333020830;world;0.001040563;0.165715113;0.001941988;0.003510589;0.00232622;0.003703321;0.999984264
2024/05/03/12:51:19.333545;61646;1714765879;333054203;world;0.001042278;0.166407898;0.001869994;0.003586791;0.002419746;0.003586825;0.999984264
2024/05/03/12:51:19.373339;61647;1714765879;373083711;world;0.001057103;0.167190015;0.001909619;0.003274522;0.002102651;0.003315565;0.999987006
2024/05/03/12:51:19.373368;61648;1714765879;373127242;world;0.001054421;0.167835414;0.001952186;0.002846876;0.001975294;0.002506764;0.99999094
2024/05/03/12:51:19.383051;61649;1714765879;382866069;world;0.000702262;0.168492824;0.001881693;0.002288979;0.000590476;0.002411153;0.999994278
2024/05/03/12:51:19.403620;61650;1714765879;403159851;world;0.000890493;0.169219881;0.002051832;0.002934401;0.000162909;0.002071213;0.999993563
2024/05/03/12:51:19.413343;61651;1714765879;412932371;world;0.000712473;0.170015588;0.002092873;0.002668946;0.000346626;0.002278466;0.999993801
2024/05/03/12:51:19.433242;61652;1714765879;433002353;world;0.000708118;0.170477808;0.002136308;0.00298434;0.000612739;0.002405945;0.99999249
2024/05/03/12:51:19.443235;61653;1714765879;442930805;world;0.000749964;0.171390072;0.002164398;0.003605437;0.001024726;0.002564508;0.999989748
2024/05/03/12:51:19.473479;61654;1714765879;473171182;world;0.000778712;0.172319874;0.002142871;0.003746271;0.001325889;0.002798692;0.999988198
2024/05/03/12:51:19.473506;61655;1714765879;473205807;world;0.00081807;0.173336923;0.002037472;0.003753524;0.001143337;0.002490795;0.999989271
2024/05/03/12:51:19.493460;61656;1714765879;493078760;world;0.000835322;0.174083337;0.002065256;0.003371335;0.001275777;0.002455962;0.999990463
2024/05/03/12:51:19.513426;61657;1714765879;513035982;world;0.000771545;0.174813971;0.002085408;0.003147876;0.000964659;0.002569193;0.999991298
2024/05/03/12:51:19.533620;61658;1714765879;533255836;world;0.000822302;0.175668761;0.002140655;0.00312572;0.000807838;0.002595673;0.999991417
2024/05/03/12:51:19.543594;61659;1714765879;543294028;world;0.000854418;0.176116586;0.002123555;0.002968574;0.00094557;0.002539544;0.999991894
2024/05/03/12:51:19.573716;61660;1714765879;573397323;world;0.000966588;0.17698732;0.002111558;0.002805767;0.001529929;0.002590134;0.999991536
2024/05/03/12:51:19.573742;61661;1714765879;573430986;world;0.000997694;0.177942798;0.002047845;0.002686022;0.001597486;0.002589955;0.999991775
2024/05/03/12:51:19.583569;61662;1714765879;583283646;world;0.001027705;0.178872436;0.002015478;0.00273078;0.001678856;0.002698928;0.999991298
2024/05/03/12:51:19.604006;61663;1714765879;603083061;world;0.001068668;0.179871649;0.002034867;0.002975316;0.001768671;0.003038491;0.99998939
2024/05/03/12:51:19.613831;61664;1714765879;613462186;world;0.000942495;0.180808857;0.001960828;0.002800318;0.001508715;0.002958974;0.999990582
2024/05/03/12:51:19.643615;61665;1714765879;642992475;world;0.000909243;0.181722477;0.002023299;0.002379522;0.001527814;0.002712735;0.999992371
2024/05/03/12:51:19.653596;61666;1714765879;653233822;world;0.000960043;0.182693884;0.002027907;0.002197591;0.001581818;0.002622958;0.999992967
2024/05/03/12:51:19.684314;61667;1714765879;683776616;world;0.000998735;0.183034942;0.001940784;0.002298432;0.001306689;0.003189383;0.999991417
2024/05/03/12:51:19.684344;61668;1714765879;683836678;world;0.00110922;0.184562683;0.002000571;0.002633193;0.001256184;0.003729404;0.999988794
2024/05/03/12:51:19.693420;61669;1714765879;693064328;world;0.001057964;0.184968531;0.001966188;0.002826482;0.001347234;0.003880623;0.999987602
2024/05/03/12:51:19.713694;61670;1714765879;713219865;world;0.001032297;0.185770303;0.002002952;0.002875057;0.001420798;0.003904189;0.999987245
2024/05/03/12:51:19.723385;61671;1714765879;723131401;world;0.000934739;0.186519533;0.002026479;0.003346188;0.001402504;0.003935245;0.999985695
2024/05/03/12:51:19.743716;61672;1714765879;743254789;world;0.000900052;0.18728672;0.002028388;0.003412685;0.001351194;0.004005691;0.999985218
2024/05/03/12:51:19.753475;61673;1714765879;753147087;world;0.000941299;0.18801184;0.001991002;0.0032905;0.001331851;0.003654233;0.999987006
2024/05/03/12:51:19.773381;61674;1714765879;773075700;world;0.000964884;0.188353792;0.00193065;0.003347105;0.001436144;0.003391885;0.999987602
2024/05/03/12:51:19.787572;61675;1714765879;787279768;world;0.001001228;0.189407691;0.002026514;0.003488058;0.001385837;0.003140428;0.999988079
2024/05/03/12:51:19.803671;61676;1714765879;803316328;world;0.000950672;0.189803243;0.002056449;0.003479718;0.001385904;0.00305389;0.999988317
2024/05/03/12:51:19.823317;61677;1714765879;823015531;world;0.000915993;0.190641552;0.002138323;0.003026925;0.001437286;0.003013477;0.999989867
2024/05/03/12:51:19.843673;61678;1714765879;843334850;world;0.000932408;0.191637382;0.002183293;0.002691648;0.001301319;0.003122728;0.999990702
2024/05/03/12:51:19.853509;61679;1714765879;853236142;world;0.000955667;0.192593291;0.002026229;0.002457111;0.000890036;0.003259166;0.999991298
2024/05/03/12:51:19.884009;61680;1714765879;883641348;world;0.001073688;0.193662301;0.002039729;0.002390179;0.001198511;0.00334292;0.999990821
2024/05/03/12:51:19.893629;61681;1714765879;893341781;world;0.001112588;0.194915727;0.002180003;0.002306042;0.00084899;0.003531237;0.999990821
2024/05/03/12:51:19.893653;61682;1714765879;893370746;world;0.001142077;0.195361674;0.002223288;0.002341999;0.000776704;0.003610361;0.999990463
2024/05/03/12:51:19.913412;61683;1714765879;913092406;world;0.001096115;0.19598712;0.002083668;0.0022018;0.000629324;0.003631728;0.999990821
2024/05/03/12:51:19.933452;61684;1714765879;933128446;world;0.001145683;0.196585447;0.001852916;0.002144394;0.000650596;0.003584245;0.999991059
2024/05/03/12:51:19.943694;61685;1714765879;943319339;world;0.00105821;0.197358876;0.001884622;0.002149071;0.000914084;0.003158555;0.999992371
2024/05/03/12:51:19.963310;61686;1714765879;962998248;world;0.001079343;0.198038965;0.001923379;0.00270717;0.00119203;0.003313495;0.999990225
2024/05/03/12:51:19.983392;61687;1714765879;983105641;world;0.001033206;0.198717713;0.002065054;0.003469762;0.001569441;0.003494569;0.999986649
2024/05/03/12:51:19.993725;61688;1714765879;993376284;world;0.000948686;0.199394867;0.002169615;0.003905533;0.001562022;0.003410028;0.999985337
2024/05/03/12:51:20.004188;61689;1714765880;3812713;world;0.00085457;0.200209439;0.002267098;0.003806946;0.001302781;0.002914535;0.999987721
2024/05/03/12:51:20.023324;61690;1714765880;23030844;world;0.000799287;0.200638086;0.002279487;0.003649712;0.00112368;0.003039216;0.999988079
2024/05/03/12:51:20.053310;61691;1714765880;52990316;world;0.000840656;0.202026904;0.002222056;0.00362194;0.001259533;0.003465622;0.999986649
2024/05/03/12:51:20.053337;61692;1714765880;53025101;world;0.000957459;0.202982008;0.002141911;0.003606199;0.001791178;0.003646196;0.999985218
2024/05/03/12:51:20.083385;61693;1714765880;83113168;world;0.001013987;0.203516066;0.002139656;0.003455317;0.002004052;0.003806747;0.99998486
2024/05/03/12:51:20.083393;61694;1714765880;83146551;world;0.001042757;0.204411611;0.002107559;0.003490053;0.001658845;0.003789428;0.999985337
2024/05/03/12:51:20.103224;61695;1714765880;102972882;world;0.001069479;0.205192611;0.002082787;0.003420365;0.00157032;0.003711563;0.999986053
2024/05/03/12:51:20.113570;61696;1714765880;113340767;world;0.00102913;0.206044361;0.002064318;0.002912635;0.001611947;0.003678549;0.999987721
2024/05/03/12:51:20.133416;61697;1714765880;133146004;world;0.001101665;0.2069868;0.001950269;0.00218092;0.000924758;0.003539691;0.99999094
2024/05/03/12:51:20.153537;61698;1714765880;153303350;world;0.001251724;0.208066195;0.001931259;0.002019709;0.000385434;0.003487938;0.999991775
2024/05/03/12:51:20.163556;61699;1714765880;163341646;world;0.001203867;0.208848074;0.002136655;0.002410565;0.001233347;0.003534053;0.999990106
2024/05/03/12:51:20.193270;61700;1714765880;192969618;world;0.001176238;0.20927994;0.002198553;0.002602717;0.001353407;0.003482133;0.999989629
2024/05/03/12:51:20.193299;61701;1714765880;193004173;world;0.001122916;0.209965706;0.002212159;0.002869785;0.001491805;0.003809352;0.999987602
2024/05/03/12:51:20.213353;61702;1714765880;213100445;world;0.001093896;0.210801393;0.002236812;0.002927691;0.001470821;0.003656616;0.99998796
2024/05/03/12:51:20.223710;61703;1714765880;223432268;world;0.001015441;0.211608216;0.002265815;0.00293499;0.001303467;0.003531536;0.999988675
2024/05/03/12:51:20.254112;61704;1714765880;253370884;world;0.000953045;0.212339208;0.002264544;0.002876015;0.001259526;0.003501838;0.999988914
2024/05/03/12:51:20.254138;61705;1714765880;253404877;world;0.000941899;0.213161051;0.002212489;0.003120166;0.001119247;0.003244473;0.999989271
2024/05/03/12:51:20.303367;61706;1714765880;303024579;world;0.000986453;0.213625818;0.002205305;0.003424025;0.001166112;0.00331594;0.99998796
2024/05/03/12:51:20.303391;61708;1714765880;303069203;world;0.001052927;0.215445235;0.002215292;0.003477696;0.001370415;0.003703094;0.999986172
2024/05/03/12:51:20.323799;61709;1714765880;323632731;world;0.001044292;0.216316164;0.002251908;0.003459447;0.00151858;0.004101452;0.999984503
2024/05/03/12:51:20.363426;61710;1714765880;363161146;world;0.001025032;0.217396289;0.002282794;0.003460236;0.001326379;0.004449511;0.999983311
2024/05/03/12:51:20.363458;61712;1714765880;363213113;world;0.001164056;0.218896508;0.001998775;0.002055256;0.000518938;0.003424951;0.999991894
2024/05/03/12:51:20.383499;61713;1714765880;383189650;world;0.001122188;0.219584242;0.002146778;0.002971727;0.001559953;0.003711583;0.999987483
2024/05/03/12:51:20.393689;61714;1714765880;393222397;world;0.001110509;0.220064476;0.002269275;0.003253477;0.00170251;0.003620992;0.999986768
2024/05/03/12:51:20.413450;61715;1714765880;413172235;world;0.001096547;0.221328571;0.002272462;0.003677886;0.001913377;0.003787873;0.999984264
2024/05/03/12:51:20.433130;61716;1714765880;432889728;world;0.001120538;0.221731693;0.002272641;0.003711899;0.001887404;0.003685663;0.999984622
2024/05/03/12:51:20.443474;61717;1714765880;443172632;world;0.001124255;0.222622767;0.002295902;0.00318733;0.001604086;0.003375279;0.99998796
2024/05/03/12:51:20.463228;61718;1714765880;463047881;world;0.001108585;0.223527938;0.002294166;0.002992674;0.00151176;0.003405787;0.999988556
2024/05/03/12:51:20.493628;61719;1714765880;493272318;world;0.001057245;0.224318057;0.002321317;0.002868248;0.001380935;0.003392268;0.999989152
2024/05/03/12:51:20.493640;61720;1714765880;493308626;world;0.001115318;0.225055099;0.002416908;0.003084815;0.001808785;0.002971417;0.999989271
2024/05/03/12:51:20.513487;61721;1714765880;513153467;world;0.00099608;0.225623086;0.00245273;0.003119432;0.001458749;0.002647987;0.999990582
2024/05/03/12:51:20.523556;61722;1714765880;523187706;world;0.001005737;0.225966588;0.002523517;0.003361704;0.001189229;0.002480077;0.999990582
2024/05/03/12:51:20.543634;61723;1714765880;543372776;world;0.000934187;0.227302313;0.002394801;0.003424399;0.000905696;0.002744713;0.999989986
2024/05/03/12:51:20.563407;61724;1714765880;563053800;world;0.000970855;0.227764681;0.00239756;0.003545046;0.00095961;0.00290669;0.999989033
2024/05/03/12:51:20.573231;61725;1714765880;572901120;world;0.00097217;0.228649899;0.002420762;0.003543695;0.000781728;0.003001588;0.999988914
2024/05/03/12:51:20.593180;61726;1714765880;592848331;world;0.001019638;0.229465902;0.002468404;0.003592071;0.000319636;0.002832007;0.99998951
2024/05/03/12:51:20.603459;61727;1714765880;603138250;world;0.001084507;0.230271995;0.002532901;0.00381749;0.000809216;0.002955452;0.999988079
2024/05/03/12:51:20.613636;61728;1714765880;613279501;world;0.001030743;0.231154829;0.002572582;0.003763011;0.00156394;0.003327903;0.999986172
2024/05/03/12:51:20.633270;61729;1714765880;632941871;world;0.001089823;0.232122242;0.002454584;0.00366538;0.001640068;0.003185409;0.999986887
2024/05/03/12:51:20.653324;61730;1714765880;653002957;world;0.001065984;0.232860819;0.002407427;0.003256391;0.001432801;0.003184941;0.999988675
2024/05/03/12:51:20.663605;61731;1714765880;663235317;world;0.00103727;0.233295634;0.002462091;0.003224204;0.001166474;0.00325076;0.999988914
2024/05/03/12:51:20.704315;61732;1714765880;703662000;world;0.000966936;0.234102368;0.002518618;0.003343173;0.000965424;0.002909292;0.999989748
2024/05/03/12:51:20.704319;61733;1714765880;703707946;world;0.000987496;0.234954029;0.002534315;0.003529566;0.000821388;0.002621079;0.999989986
2024/05/03/12:51:20.713226;61734;1714765880;712916199;world;0.000988621;0.235823989;0.002508889;0.003451855;0.001023609;0.002489012;0.999990463
2024/05/03/12:51:20.723641;61735;1714765880;723362681;world;0.001089463;0.236698776;0.002510496;0.003482791;0.001425491;0.00251818;0.999989748
2024/05/03/12:51:20.743667;61736;1714765880;743395238;world;0.001113158;0.237581238;0.002484847;0.003287478;0.001625935;0.002750203;0.99998951
2024/05/03/12:51:20.763244;61737;1714765880;762935103;world;0.001126749;0.238491192;0.002482655;0.003224921;0.001745776;0.00308602;0.999988556
2024/05/03/12:51:20.773212;61738;1714765880;772918447;world;0.001147894;0.238903478;0.002429267;0.003122227;0.001657671;0.003255516;0.999988437
2024/05/03/12:51:20.803342;61739;1714765880;802969502;world;0.001233058;0.240250766;0.002466742;0.003383341;0.001768633;0.003316612;0.999987245
2024/05/03/12:51:20.803367;61740;1714765880;803012602;world;0.00116777;0.240736485;0.002376625;0.003071997;0.001240133;0.003152743;0.999989629
2024/05/03/12:51:20.823870;61741;1714765880;823422820;world;0.001282241;0.241580129;0.002281354;0.002860274;0.000856772;0.003135868;0.999990702
2024/05/03/12:51:20.833363;61742;1714765880;833055519;world;0.001491215;0.242545292;0.002327555;0.00297634;0.000602961;0.002624911;0.999992013
2024/05/03/12:51:20.853318;61743;1714765880;852996992;world;0.0014541;0.243386358;0.002359797;0.00297605;0.000533174;0.002613607;0.999992013
2024/05/03/12:51:20.863425;61744;1714765880;863182004;world;0.001378074;0.244031757;0.002382047;0.003143712;0.000785112;0.002981392;0.999990344
2024/05/03/12:51:20.883570;61745;1714765880;883280098;world;0.001218254;0.24469842;0.002556067;0.003586505;0.001798298;0.003020562;0.999987364
2024/05/03/12:51:20.904067;61746;1714765880;903830782;world;0.001169769;0.245056286;0.002625806;0.003748686;0.001955248;0.003017877;0.999986529
2024/05/03/12:51:20.923752;61747;1714765880;923207145;world;0.001120351;0.246169239;0.002727733;0.003963328;0.001827565;0.003012326;0.999985933
2024/05/03/12:51:20.933422;61748;1714765880;933104419;world;0.00109832;0.246594071;0.002750274;0.003892192;0.00176453;0.002951426;0.999986529
2024/05/03/12:51:20.943325;61749;1714765880;943044364;world;0.001075454;0.247520804;0.002646286;0.003794793;0.001456322;0.002827227;0.999987721
2024/05/03/12:51:20.973637;61750;1714765880;973338345;world;0.001112744;0.248463541;0.002644085;0.003736223;0.00128984;0.00274688;0.999988437
2024/05/03/12:51:20.973662;61751;1714765880;973374272;world;0.00113707;0.249359742;0.002678931;0.003761447;0.001476554;0.002792824;0.99998796
2024/05/03/12:51:21.003619;61752;1714765881;3157544;world;0.001144519;0.250286013;0.002664933;0.003679106;0.001475869;0.003053952;0.999987483
2024/05/03/12:51:21.003648;61753;1714765881;3191418;world;0.001151385;0.251164734;0.002537643;0.003077025;0.000968317;0.003005493;0.999990344
2024/05/03/12:51:21.024373;61754;1714765881;23428302;world;0.001162108;0.251631528;0.002497282;0.00266056;0.00055986;0.002903436;0.999992132
2024/05/03/12:51:21.033235;61755;1714765881;32935900;world;0.001277056;0.252500504;0.002409484;0.002522852;0.000512405;0.0030383;0.999992132
2024/05/03/12:51:21.053295;61756;1714765881;53001745;world;0.001305955;0.253896326;0.002524933;0.00309553;0.001490261;0.003470961;0.999988079
2024/05/03/12:51:21.073683;61757;1714765881;73334862;world;0.001360621;0.25484705;0.002541802;0.003015274;0.001712803;0.003423243;0.999988198
2024/05/03/12:51:21.083690;61758;1714765881;83419982;world;0.00136248;0.255281925;0.002523259;0.003018503;0.001858824;0.003453252;0.999987841
2024/05/03/12:51:21.103523;61759;1714765881;103220304;world;0.001377987;0.256135225;0.002555527;0.003107788;0.002014384;0.003416443;0.999987364
2024/05/03/12:51:21.113420;61760;1714765881;113076961;world;0.001399919;0.256896526;0.002513821;0.002994427;0.001963094;0.003623446;0.999987006
2024/05/03/12:51:21.133213;61761;1714765881;132967463;world;0.001394752;0.257650167;0.002420044;0.002901461;0.001714037;0.003753766;0.999987364
2024/05/03/12:51:21.153751;61762;1714765881;152962429;world;0.00135304;0.258415252;0.002474399;0.00287353;0.001595678;0.003628967;0.999988079
2024/05/03/12:51:21.173771;61763;1714765881;173280026;world;0.001228301;0.259135067;0.00269796;0.003249859;0.002041919;0.003661618;0.999985933
2024/05/03/12:51:21.183355;61764;1714765881;183031146;world;0.00125685;0.25990963;0.002848161;0.003853472;0.002050917;0.003493184;0.999984384
2024/05/03/12:51:21.213405;61765;1714765881;213053374;world;0.001247089;0.260303289;0.002873534;0.00383545;0.001997387;0.003425668;0.99998486
2024/05/03/12:51:21.213429;61766;1714765881;213087237;world;0.001148701;0.261195749;0.002809887;0.003616307;0.00158371;0.003317067;0.999986768
2024/05/03/12:51:21.223470;61767;1714765881;223199213;world;0.001174949;0.262152821;0.002797486;0.003509565;0.001661487;0.003216445;0.999987364
2024/05/03/12:51:21.243570;61768;1714765881;243211518;world;0.001335911;0.263067335;0.002643449;0.002847471;0.001074263;0.003097149;0.999990582
2024/05/03/12:51:21.253240;61769;1714765881;252908567;world;0.001438938;0.263993919;0.002619851;0.003043864;0.001586637;0.003264089;0.999988794
2024/05/03/12:51:21.273618;61770;1714765881;273293951;world;0.001445545;0.264452487;0.002726374;0.003120523;0.001885074;0.003189808;0.999988317
2024/05/03/12:51:21.293282;61771;1714765881;292955024;world;0.001414835;0.265680224;0.002691845;0.003307691;0.001863938;0.003683858;0.999986053
2024/05/03/12:51:21.313419;61772;1714765881;313116521;world;0.001433775;0.266485214;0.002728882;0.003323948;0.001992247;0.003864505;0.999985099
2024/05/03/12:51:21.324572;61773;1714765881;324304041;world;0.001418736;0.266885817;0.002751327;0.003519039;0.002157011;0.003962448;0.999983668
2024/05/03/12:51:21.333377;61774;1714765881;333055068;world;0.001402542;0.267658979;0.002716101;0.003475414;0.002273017;0.003804323;0.999984145
2024/05/03/12:51:21.353488;61775;1714765881;353192868;world;0.001407756;0.268650055;0.002786263;0.003025459;0.001932833;0.003755911;0.999986529
2024/05/03/12:51:21.363369;61776;1714765881;363069583;world;0.001417214;0.26960206;0.002808997;0.003092488;0.001951174;0.003841226;0.999985933
2024/05/03/12:51:21.384352;61777;1714765881;383303854;world;0.001423398;0.270433694;0.00285592;0.003027652;0.001904098;0.003842436;0.999986291
2024/05/03/12:51:21.413239;61778;1714765881;412922937;world;0.001395363;0.270859241;0.002831536;0.002947312;0.001954074;0.00397572;0.999985933
2024/05/03/12:51:21.413264;61779;1714765881;412964054;world;0.00145882;0.27177316;0.002779013;0.003064699;0.001893233;0.004213111;0.999984622
2024/05/03/12:51:21.433198;61780;1714765881;432900697;world;0.001456197;0.272570133;0.002863693;0.003439624;0.002337079;0.004045076;0.999983191
2024/05/03/12:51:21.443659;61781;1714765881;442936681;world;0.001365211;0.273271024;0.002840472;0.003722429;0.002411186;0.004011955;0.999982119
2024/05/03/12:51:21.463328;61782;1714765881;463047210;world;0.00133523;0.27412197;0.002839127;0.003650819;0.002176686;0.004008762;0.999982953
2024/05/03/12:51:21.483780;61783;1714765881;483465635;world;0.001324255;0.275092989;0.002782934;0.003142819;0.001567774;0.003951845;0.999986053
2024/05/03/12:51:21.493504;61784;1714765881;493208153;world;0.001290474;0.276029289;0.002843591;0.002975997;0.001697782;0.003566949;0.999987841
