time;.header.seq;.header.stamp.secs;.header.stamp.nsecs;.header.frame_id;.pose.position.x;.pose.position.y;.pose.position.z;.pose.orientation.x;.pose.orientation.y;.pose.orientation.z;.pose.orientation.w
2024/05/03/12:39:07.104474;14792;1714765147;103389862;world;-6.62E-05;-4.52E-05;2.28E-05;-0.000151483;3.84E-05;2.55E-05;1
2024/05/03/12:39:07.123578;14793;1714765147;122888922;world;-7.01E-05;-4.52E-05;1.20E-05;-0.000205476;8.69E-05;6.37E-05;1
2024/05/03/12:39:07.133332;14794;1714765147;132989091;world;-7.97E-05;-4.42E-05;1.59E-05;-0.000175101;7.67E-05;7.90E-05;1
2024/05/03/12:39:07.163507;14795;1714765147;163018876;world;-8.46E-05;-4.28E-05;1.05E-05;-0.000241409;9.68E-05;8.82E-05;1
2024/05/03/12:39:07.173867;14796;1714765147;173357996;world;-6.78E-05;-4.02E-05;1.32E-05;-0.00013282;4.15E-05;6.02E-05;1
2024/05/03/12:39:07.183533;14797;1714765147;183117254;world;-7.59E-05;-4.96E-05;5.52E-06;-0.000178911;6.00E-05;7.25E-05;1
2024/05/03/12:39:07.203243;14798;1714765147;202905860;world;-7.09E-05;-4.87E-05;1.26E-05;-0.000149427;6.98E-05;8.52E-05;1
2024/05/03/12:39:07.213341;14799;1714765147;213037476;world;-7.30E-05;-4.75E-05;2.43E-05;-0.000170972;9.62E-05;0.000105407;1
2024/05/03/12:39:07.233703;14800;1714765147;233317211;world;-7.00E-05;-4.79E-05;1.70E-05;-0.000156329;7.63E-05;5.46E-05;1
2024/05/03/12:39:07.243343;14801;1714765147;243120220;world;-8.05E-05;-5.09E-05;1.78E-05;-0.000135971;8.79E-05;8.76E-05;1
2024/05/03/12:39:07.273654;14802;1714765147;273275047;world;-6.92E-05;-4.43E-05;1.88E-05;-0.000171357;7.64E-05;8.20E-05;1
2024/05/03/12:39:07.283808;14803;1714765147;283421667;world;-7.97E-05;-5.21E-05;3.06E-05;-0.00010274;0.000115754;0.000106109;1
2024/05/03/12:39:07.293333;14804;1714765147;293042683;world;-7.86E-05;-4.72E-05;2.32E-05;-0.000129682;0.000116302;0.000108103;1
2024/05/03/12:39:07.303394;14805;1714765147;303101725;world;-7.18E-05;-5.58E-05;1.58E-05;-0.0001812;0.000103744;0.000111862;1
2024/05/03/12:39:07.323195;14806;1714765147;322872349;world;-7.58E-05;-5.53E-05;1.39E-05;-0.000200575;0.000137146;0.000109193;1
2024/05/03/12:39:07.343704;14807;1714765147;343197486;world;-6.37E-05;-5.48E-05;1.99E-05;-0.000146624;0.000101891;8.85E-05;1
2024/05/03/12:39:07.373395;14808;1714765147;372998448;world;-6.23E-05;-5.64E-05;3.07E-05;-0.000104638;0.000125579;0.000114205;1
2024/05/03/12:39:07.373419;14809;1714765147;373052318;world;-5.79E-05;-6.14E-05;2.64E-05;-5.93E-05;0.000106837;9.82E-05;1
2024/05/03/12:39:07.383565;14810;1714765147;383267548;world;-5.25E-05;-5.14E-05;1.41E-05;-8.93E-05;0.00017431;0.000134027;1
2024/05/03/12:39:07.404263;14811;1714765147;403287221;world;-5.52E-05;-5.82E-05;1.83E-05;-0.000146153;0.00016706;0.00012458;1
2024/05/03/12:39:07.413471;14812;1714765147;413162734;world;-6.50E-05;-5.63E-05;4.37E-05;-0.000111339;0.000135332;0.000117568;1
2024/05/03/12:39:07.434006;14813;1714765147;433677172;world;-5.36E-05;-5.71E-05;3.44E-05;-0.000102626;0.000155515;0.000121352;1
2024/05/03/12:39:07.443843;14814;1714765147;443518472;world;-4.95E-05;-6.37E-05;2.81E-05;-0.00010821;0.000133366;0.000116262;1
2024/05/03/12:39:07.473238;14815;1714765147;472909465;world;-6.60E-05;-6.26E-05;3.34E-05;-7.32E-05;0.000152747;0.000117851;1
2024/05/03/12:39:07.483416;14816;1714765147;483110981;world;-4.79E-05;-5.49E-05;4.12E-05;-1.12E-05;0.000137322;0.000115243;1
2024/05/03/12:39:07.493372;14817;1714765147;493064418;world;-5.21E-05;-5.58E-05;3.38E-05;-8.26E-05;0.000149179;0.00014454;1
2024/05/03/12:39:07.513606;14818;1714765147;513338633;world;-3.68E-05;-5.08E-05;3.23E-05;-4.89E-05;0.000151503;0.000114965;1
2024/05/03/12:39:07.523685;14819;1714765147;523375646;world;-4.51E-05;-5.93E-05;3.50E-05;-6.82E-05;0.00013955;0.000130827;1
2024/05/03/12:39:07.544344;14820;1714765147;543293790;world;-5.74E-05;-6.46E-05;3.98E-05;-9.99E-06;0.000149672;0.00012815;1
2024/05/03/12:39:07.553292;14821;1714765147;552921104;world;-3.05E-05;-4.97E-05;3.55E-05;1.83E-06;0.000184522;0.000135382;1
2024/05/03/12:39:07.573808;14822;1714765147;573117113;world;-2.25E-05;-5.88E-05;4.85E-05;2.79E-05;0.000165765;0.000125672;1
2024/05/03/12:39:07.583589;14823;1714765147;582981416;world;-3.06E-05;-5.45E-05;3.46E-05;4.26E-05;0.000160221;0.000121142;1
2024/05/03/12:39:07.604218;14824;1714765147;603279094;world;-2.25E-05;-4.48E-05;4.28E-05;4.31E-05;0.000156282;0.000144407;1
2024/05/03/12:39:07.623214;14825;1714765147;622945132;world;-2.01E-05;-5.57E-05;3.75E-05;8.57E-06;0.000165634;0.000147178;1
2024/05/03/12:39:07.644733;14826;1714765147;643296429;world;-3.15E-05;-5.43E-05;2.91E-05;-3.03E-05;0.000155003;0.000113079;1
2024/05/03/12:39:07.653590;14827;1714765147;653291634;world;-3.51E-05;-4.70E-05;3.12E-05;-1.08E-05;0.000157097;0.000112613;1
2024/05/03/12:39:07.673573;14828;1714765147;673274278;world;-6.25E-05;-5.91E-05;2.66E-05;-8.04E-05;0.000107602;0.000111313;1
2024/05/03/12:39:07.684349;14829;1714765147;683293898;world;-7.12E-05;-5.70E-05;2.30E-05;-0.000120275;0.000100099;9.85E-05;1
2024/05/03/12:39:07.703806;14830;1714765147;703290438;world;-5.15E-05;-5.21E-05;3.11E-05;-0.000136021;0.000101209;0.000101017;1
2024/05/03/12:39:07.713878;14831;1714765147;713494689;world;-6.45E-05;-5.46E-05;1.75E-05;-0.000146955;8.40E-05;8.65E-05;1
2024/05/03/12:39:07.733255;14832;1714765147;732996896;world;-7.38E-05;-5.33E-05;1.80E-05;-0.000103471;6.47E-05;5.28E-05;1
2024/05/03/12:39:07.753700;14833;1714765147;753420586;world;-7.17E-05;-3.36E-05;9.60E-06;-0.00012985;6.01E-05;7.58E-05;1
2024/05/03/12:39:07.763741;14834;1714765147;763416911;world;-5.91E-05;-4.64E-05;1.67E-05;-0.000162966;4.15E-05;3.20E-05;1
2024/05/03/12:39:07.783483;14835;1714765147;783170402;world;-6.81E-05;-3.59E-05;-5.65E-06;-0.000141339;3.48E-05;6.56E-05;1
2024/05/03/12:39:07.793409;14836;1714765147;793104142;world;-7.86E-05;-3.10E-05;-3.58E-06;-0.00020867;5.32E-05;6.08E-05;1
2024/05/03/12:39:07.813920;14837;1714765147;813136570;world;-9.15E-05;-2.62E-05;5.46E-06;-0.000204209;3.73E-05;3.82E-05;1
2024/05/03/12:39:07.824015;14838;1714765147;823363241;world;-7.62E-05;-3.52E-05;-1.02E-05;-0.000190639;2.47E-05;5.06E-05;1
2024/05/03/12:39:07.843655;14839;1714765147;843213842;world;-8.68E-05;-1.83E-05;-1.43E-05;-0.000224119;2.52E-05;4.85E-05;1
2024/05/03/12:39:07.853619;14840;1714765147;853274104;world;-8.43E-05;-2.78E-05;-1.35E-05;-0.00019613;-7.82E-06;4.77E-05;1
2024/05/03/12:39:07.873509;14841;1714765147;873212126;world;-0.000104246;-3.34E-05;-1.48E-05;-0.000283993;9.78E-06;3.45E-05;1
2024/05/03/12:39:07.883578;14842;1714765147;883264264;world;-9.17E-05;-2.92E-05;-2.49E-05;-0.000268021;-8.37E-06;3.55E-05;1
2024/05/03/12:39:07.913608;14843;1714765147;913258104;world;-9.39E-05;-4.00E-05;-1.77E-05;-0.00023124;-3.89E-05;5.31E-05;1
2024/05/03/12:39:07.923770;14844;1714765147;923366237;world;-8.89E-05;-4.17E-05;-2.77E-05;-0.000245917;-3.76E-05;3.85E-05;1
2024/05/03/12:39:07.933487;14845;1714765147;933165599;world;-9.57E-05;-3.45E-05;-3.68E-05;-0.000250028;-5.12E-05;7.49E-05;1
2024/05/03/12:39:07.953220;14846;1714765147;952912858;world;-0.000101308;-3.72E-05;-2.49E-05;-0.000278994;6.61E-06;8.16E-05;1
2024/05/03/12:39:07.963311;14847;1714765147;962962774;world;-0.000112733;-5.20E-05;-2.82E-05;-0.00029759;-5.84E-06;0.000113002;1
2024/05/03/12:39:07.983469;14848;1714765147;982872523;world;-0.000108524;-4.73E-05;-4.09E-05;-0.000315296;-2.30E-05;0.000128512;1
2024/05/03/12:39:07.993330;14849;1714765147;993022504;world;-0.00010732;-4.14E-05;-3.26E-05;-0.000267068;-1.58E-05;0.000103767;1
2024/05/03/12:39:08.013328;14850;1714765148;12898873;world;-0.000102018;-5.38E-05;-2.42E-05;-0.000287953;-1.63E-05;0.000108712;1
2024/05/03/12:39:08.023566;14851;1714765148;23198592;world;-0.000108208;-7.57E-05;-1.78E-05;-0.00033979;-7.98E-05;3.39E-05;1
2024/05/03/12:39:08.043618;14852;1714765148;42972542;world;-0.000113187;-5.13E-05;-4.19E-05;-0.000349195;-1.58E-05;0.000122641;1
2024/05/03/12:39:08.063956;14853;1714765148;63363073;world;-0.000114333;-5.80E-05;-2.39E-05;-0.000321683;6.87E-06;0.000145788;1
2024/05/03/12:39:08.083584;14854;1714765148;83218595;world;-0.000112839;-5.55E-05;-2.26E-05;-0.000333876;-3.35E-06;0.000143328;1
2024/05/03/12:39:08.093192;14855;1714765148;92888117;world;-0.00011222;-5.97E-05;-2.51E-05;-0.000337302;8.00E-06;0.000121153;1
2024/05/03/12:39:08.103193;14856;1714765148;102872331;world;-0.000100832;-6.15E-05;-2.88E-05;-0.000249297;8.36E-07;0.000153069;1
2024/05/03/12:39:08.123817;14857;1714765148;123515800;world;-8.51E-05;-5.98E-05;-1.29E-05;-0.000207444;-3.67E-05;0.00014208;1
2024/05/03/12:39:08.133711;14858;1714765148;133238282;world;-0.000108572;-6.14E-05;-3.04E-05;-0.0003186;4.40E-06;0.00015481;1
2024/05/03/12:39:08.153697;14859;1714765148;153368571;world;-9.06E-05;-6.82E-05;-2.75E-05;-0.000291988;-3.33E-05;0.00015537;1
2024/05/03/12:39:08.173670;14860;1714765148;173344633;world;-9.05E-05;-6.00E-05;-1.83E-05;-0.000250241;6.51E-06;0.000147692;1
2024/05/03/12:39:08.193245;14861;1714765148;192950783;world;-8.73E-05;-6.60E-05;-2.74E-05;-0.000249097;-3.02E-05;0.000146647;1
2024/05/03/12:39:08.193273;14862;1714765148;192983423;world;-8.81E-05;-6.03E-05;-2.22E-05;-0.000256222;-2.93E-06;0.000115182;1
2024/05/03/12:39:08.224147;14863;1714765148;223824492;world;-8.80E-05;-6.98E-05;-2.44E-05;-0.000282166;-1.52E-05;0.000129938;1
2024/05/03/12:39:08.233760;14864;1714765148;233365713;world;-9.07E-05;-5.76E-05;-1.99E-05;-0.000261923;-1.35E-05;0.000131657;1
2024/05/03/12:39:08.243532;14865;1714765148;243213309;world;-9.00E-05;-6.14E-05;-2.13E-05;-0.000304498;-1.34E-05;0.000120144;1
2024/05/03/12:39:08.263299;14866;1714765148;262995073;world;-8.95E-05;-5.83E-05;-1.95E-05;-0.000235346;-2.68E-05;0.000124146;1
2024/05/03/12:39:08.273584;14867;1714765148;273199305;world;-7.72E-05;-5.52E-05;-2.96E-05;-0.000260064;-7.34E-05;0.000130561;1
2024/05/03/12:39:08.293279;14868;1714765148;292873362;world;-8.13E-05;-5.86E-05;-1.86E-05;-0.00024722;-3.31E-05;0.000108991;1
2024/05/03/12:39:08.313561;14869;1714765148;313175449;world;-7.90E-05;-6.11E-05;-2.29E-05;-0.000234319;-1.87E-05;0.000115649;1
2024/05/03/12:39:08.333530;14870;1714765148;333216974;world;-8.56E-05;-6.11E-05;-1.71E-05;-0.000240864;-1.43E-05;1.00E-04;1
2024/05/03/12:39:08.343898;14871;1714765148;343473141;world;-7.74E-05;-5.80E-05;-2.68E-05;-0.000207294;-3.78E-05;0.000118261;1
2024/05/03/12:39:08.353557;14872;1714765148;353180975;world;-8.25E-05;-6.44E-05;-1.95E-05;-0.000257174;-3.37E-05;0.000101838;1
2024/05/03/12:39:08.373931;14873;1714765148;372968937;world;-8.34E-05;-6.03E-05;-2.80E-05;-0.000270233;-1.08E-06;0.000133351;1
2024/05/03/12:39:08.393615;14874;1714765148;393204334;world;-7.67E-05;-5.88E-05;-1.59E-05;-0.000213649;-2.60E-05;0.000117936;1
2024/05/03/12:39:08.403491;14875;1714765148;403184090;world;-8.62E-05;-6.08E-05;-2.98E-05;-0.000239216;-1.65E-05;0.000120103;1
2024/05/03/12:39:08.423484;14876;1714765148;423019966;world;-8.62E-05;-6.34E-05;-3.08E-05;-0.000254424;-2.58E-05;0.000140022;1
2024/05/03/12:39:08.433195;14877;1714765148;432910632;world;-9.15E-05;-6.89E-05;-1.51E-05;-0.00024559;-2.20E-05;0.000110206;1
2024/05/03/12:39:08.453666;14878;1714765148;453117274;world;-9.17E-05;-6.45E-05;-1.92E-05;-0.000279023;-2.60E-05;0.000128075;1
2024/05/03/12:39:08.463360;14879;1714765148;463037565;world;-0.000103618;-6.50E-05;-3.02E-05;-0.000268117;-1.12E-05;0.000149695;1
2024/05/03/12:39:08.484004;14880;1714765148;483719346;world;-8.43E-05;-7.18E-05;-2.17E-05;-0.000218;-2.09E-05;0.000145124;1
2024/05/03/12:39:08.493559;14881;1714765148;493227550;world;-8.73E-05;-6.37E-05;-2.55E-05;-0.000225498;-1.17E-05;0.000138799;1
2024/05/03/12:39:08.513225;14882;1714765148;512923988;world;-8.59E-05;-6.67E-05;-2.02E-05;-0.000264717;-3.37E-05;0.000138001;1
2024/05/03/12:39:08.533675;14883;1714765148;533384562;world;-9.08E-05;-6.23E-05;-3.28E-05;-0.000193958;-4.04E-05;0.000164232;1
2024/05/03/12:39:08.543825;14884;1714765148;543228110;world;-9.81E-05;-7.24E-05;-3.13E-05;-0.000287436;-2.29E-05;0.000126822;1
2024/05/03/12:39:08.563550;14885;1714765148;563236354;world;-9.34E-05;-6.77E-05;-1.87E-05;-0.000291835;-2.70E-05;0.000145336;1
2024/05/03/12:39:08.573283;14886;1714765148;572937867;world;-0.00011069;-6.99E-05;-1.84E-05;-0.000308536;1.53E-06;0.000150908;1
2024/05/03/12:39:08.603317;14887;1714765148;602919946;world;-9.83E-05;-6.18E-05;-3.26E-05;-0.000253769;-2.21E-05;0.000145457;1
2024/05/03/12:39:08.603351;14888;1714765148;602961533;world;-8.67E-05;-6.88E-05;-2.73E-05;-0.00026478;-2.07E-05;0.00012089;1
2024/05/03/12:39:08.633567;14889;1714765148;633200620;world;-8.74E-05;-6.87E-05;-1.66E-05;-0.000262577;-9.67E-06;0.000136114;1
2024/05/03/12:39:08.633594;14890;1714765148;633236827;world;-9.48E-05;-6.32E-05;-2.12E-05;-0.000214538;-1.29E-05;0.000127287;1
2024/05/03/12:39:08.653777;14891;1714765148;653123596;world;-8.88E-05;-6.15E-05;-2.48E-05;-0.000259525;3.03E-06;0.000135531;1
2024/05/03/12:39:08.664030;14892;1714765148;663334158;world;-8.56E-05;-5.99E-05;-1.67E-05;-0.000235787;-4.37E-05;9.67E-05;1
2024/05/03/12:39:08.683707;14893;1714765148;683324607;world;-9.82E-05;-6.37E-05;-1.84E-05;-0.000254948;-4.82E-06;0.000154961;1
2024/05/03/12:39:08.703644;14894;1714765148;703310287;world;-0.000106449;-6.35E-05;-2.59E-05;-0.00028152;-2.17E-05;0.000119514;1
2024/05/03/12:39:08.713472;14895;1714765148;713206499;world;-9.53E-05;-6.80E-05;-2.76E-05;-0.000294035;-2.31E-05;0.000121004;1
2024/05/03/12:39:08.733520;14896;1714765148;733098878;world;-8.44E-05;-6.33E-05;-1.40E-05;-0.000191658;-3.03E-05;0.000142044;1
2024/05/03/12:39:08.743403;14897;1714765148;743061664;world;-8.62E-05;-6.43E-05;-1.24E-05;-0.000258781;-5.25E-05;0.000106642;1
2024/05/03/12:39:08.763798;14898;1714765148;763115107;world;-8.83E-05;-5.50E-05;-2.22E-05;-0.00020264;-1.28E-05;0.000140045;1
2024/05/03/12:39:08.783639;14899;1714765148;783244126;world;-0.000105004;-6.37E-05;-2.65E-05;-0.0003013;-1.90E-05;0.000131744;1
2024/05/03/12:39:08.803288;14900;1714765148;802897392;world;-9.81E-05;-5.74E-05;-2.29E-05;-0.000270552;-4.53E-05;0.000142779;1
2024/05/03/12:39:08.813616;14901;1714765148;813299380;world;-0.000101885;-5.94E-05;-2.52E-05;-0.000276898;9.93E-06;0.000142357;1
2024/05/03/12:39:08.823284;14902;1714765148;822970225;world;-9.67E-05;-5.90E-05;-2.09E-05;-0.00025149;-2.61E-05;0.000108583;1
2024/05/03/12:39:08.843576;14903;1714765148;842861050;world;-8.55E-05;-5.59E-05;-2.26E-05;-0.000274895;-3.23E-05;0.000133255;1
2024/05/03/12:39:08.853921;14904;1714765148;852913049;world;-8.72E-05;-4.89E-05;-2.13E-05;-0.000203298;-2.90E-05;0.000125269;1
2024/05/03/12:39:08.873451;14905;1714765148;873093021;world;-9.10E-05;-7.23E-05;-2.90E-05;-0.000259444;-1.79E-05;0.000107315;1
2024/05/03/12:39:08.893336;14906;1714765148;892996191;world;-9.50E-05;-5.49E-05;-2.13E-05;-0.000279527;1.07E-05;0.000138079;1
2024/05/03/12:39:08.904058;14907;1714765148;903575317;world;-8.14E-05;-4.70E-05;-2.17E-05;-0.000201504;1.25E-05;0.000122763;1
2024/05/03/12:39:08.923537;14908;1714765148;923210680;world;-8.85E-05;-5.99E-05;-2.65E-05;-0.000212108;-2.77E-05;0.00015298;1
2024/05/03/12:39:08.933192;14909;1714765148;932892766;world;-0.000104845;-6.49E-05;-3.07E-05;-0.000232666;-1.80E-05;0.00012923;1
2024/05/03/12:39:08.953326;14910;1714765148;953008680;world;-9.15E-05;-5.75E-05;-1.11E-05;-0.000235676;-4.79E-06;0.00013523;1
2024/05/03/12:39:08.963343;14911;1714765148;963017980;world;-9.43E-05;-6.65E-05;-2.29E-05;-0.00027889;-4.69E-06;0.000135339;1
2024/05/03/12:39:08.983317;14912;1714765148;983013671;world;-9.68E-05;-5.76E-05;-3.99E-05;-0.000291557;-1.13E-05;0.000133498;1
2024/05/03/12:39:08.993571;14913;1714765148;993264861;world;-0.000105805;-6.64E-05;-2.04E-05;-0.000271538;-2.94E-05;0.000139048;1
2024/05/03/12:39:09.013469;14914;1714765149;12798228;world;-0.000101896;-6.60E-05;-2.04E-05;-0.00028491;7.80E-06;0.000151844;1
2024/05/03/12:39:09.023470;14915;1714765149;23166002;world;-9.97E-05;-5.85E-05;-1.96E-05;-0.000273268;9.46E-07;0.000124095;1
2024/05/03/12:39:09.043694;14916;1714765149;43403674;world;-9.01E-05;-6.77E-05;-2.41E-05;-0.000306835;-4.98E-05;0.000102058;1
2024/05/03/12:39:09.064094;14917;1714765149;63267831;world;-0.000102521;-7.31E-05;-2.10E-05;-0.000280721;-2.18E-05;0.000134873;1
2024/05/03/12:39:09.073721;14918;1714765149;73411352;world;-8.71E-05;-5.27E-05;-1.99E-05;-0.000200262;-2.92E-05;0.00017323;1
2024/05/03/12:39:09.093682;14919;1714765149;93053479;world;-9.86E-05;-6.15E-05;-2.17E-05;-0.000276935;1.02E-06;0.000129174;1
2024/05/03/12:39:09.113446;14920;1714765149;113138337;world;-9.64E-05;-7.00E-05;-3.41E-05;-0.000303441;-9.87E-06;0.000142233;1
2024/05/03/12:39:09.123998;14921;1714765149;123714368;world;-9.51E-05;-6.77E-05;-2.27E-05;-0.000327607;-4.75E-05;0.000126363;1
2024/05/03/12:39:09.133212;14922;1714765149;132941993;world;-9.59E-05;-5.95E-05;-3.09E-05;-0.000291307;-1.84E-05;0.000119584;1
2024/05/03/12:39:09.153820;14923;1714765149;152960839;world;-9.87E-05;-5.95E-05;-2.11E-05;-0.000287843;-9.58E-06;0.000171786;1
2024/05/03/12:39:09.174620;14924;1714765149;174387760;world;-8.16E-05;-6.04E-05;-2.84E-05;-0.000239689;-4.35E-05;0.00013996;1
2024/05/03/12:39:09.183689;14925;1714765149;183343212;world;-0.000106389;-6.31E-05;-2.94E-05;-0.000305489;1.79E-05;0.000151696;1
2024/05/03/12:39:09.203808;14926;1714765149;203198586;world;-8.79E-05;-6.07E-05;-2.12E-05;-0.000306414;-1.58E-05;0.000116131;1
2024/05/03/12:39:09.213644;14927;1714765149;213249716;world;-8.63E-05;-6.17E-05;-1.37E-05;-0.000240929;-6.32E-05;0.000114782;1
2024/05/03/12:39:09.233466;14928;1714765149;233158559;world;-9.23E-05;-6.41E-05;-2.73E-05;-0.000304435;-3.51E-05;0.000166977;1
2024/05/03/12:39:09.253426;14929;1714765149;253046290;world;-9.35E-05;-6.30E-05;-2.17E-05;-0.000276803;-1.24E-05;0.000143857;1
2024/05/03/12:39:09.263783;14930;1714765149;263399869;world;-8.32E-05;-5.78E-05;-1.16E-05;-0.000223679;-1.54E-05;0.000112247;1
2024/05/03/12:39:09.283394;14931;1714765149;283031438;world;-8.99E-05;-6.24E-05;-2.00E-05;-0.000289124;-1.16E-05;0.000129012;1
2024/05/03/12:39:09.293573;14932;1714765149;293270914;world;-9.22E-05;-5.55E-05;-2.92E-05;-0.000243406;2.13E-05;0.000142406;1
2024/05/03/12:39:09.313524;14933;1714765149;313181724;world;-8.57E-05;-7.25E-05;-1.23E-05;-0.000239376;1.33E-05;0.000145124;1
2024/05/03/12:39:09.333428;14934;1714765149;333081178;world;-8.09E-05;-5.43E-05;-1.75E-05;-0.000211745;-4.54E-05;0.000121828;1
2024/05/03/12:39:09.353327;14935;1714765149;353017169;world;-7.67E-05;-5.77E-05;-9.79E-06;-0.000184897;-4.04E-05;0.000113441;1
2024/05/03/12:39:09.353350;14936;1714765149;353049760;world;-9.56E-05;-6.81E-05;-2.23E-05;-0.000291156;-3.07E-05;0.000131117;1
2024/05/03/12:39:09.373269;14937;1714765149;372929828;world;-9.00E-05;-6.22E-05;-2.47E-05;-0.00024692;3.05E-06;0.000136826;1
2024/05/03/12:39:09.383632;14938;1714765149;383283578;world;-8.33E-05;-6.69E-05;-1.52E-05;-0.000249702;-3.55E-05;0.000108193;1
2024/05/03/12:39:09.403448;14939;1714765149;403101852;world;-7.73E-05;-6.32E-05;-1.89E-05;-0.000265275;-1.61E-05;0.000117372;1
2024/05/03/12:39:09.423733;14940;1714765149;423312190;world;-8.46E-05;-6.07E-05;-2.06E-05;-0.000287049;1.47E-05;0.00014075;1
2024/05/03/12:39:09.433219;14941;1714765149;432930549;world;-0.00010293;-6.56E-05;-2.95E-05;-0.000327449;-1.28E-05;0.000122722;1
2024/05/03/12:39:09.453339;14942;1714765149;453021717;world;-7.89E-05;-6.66E-05;-2.27E-05;-0.000216809;4.54E-06;0.000152421;1
2024/05/03/12:39:09.463850;14943;1714765149;463476384;world;-8.12E-05;-5.98E-05;-1.22E-05;-0.000245071;-1.21E-06;0.000126304;1
2024/05/03/12:39:09.483617;14944;1714765149;483191245;world;-9.15E-05;-5.63E-05;-1.62E-05;-0.000252272;-6.21E-05;0.000146948;1
2024/05/03/12:39:09.493942;14945;1714765149;493377124;world;-9.58E-05;-6.51E-05;-3.91E-05;-0.000258136;1.14E-05;0.000146339;1
2024/05/03/12:39:09.523534;14946;1714765149;522905577;world;-8.07E-05;-6.48E-05;-1.13E-05;-0.000230523;-2.04E-05;0.000142434;1
2024/05/03/12:39:09.523564;14947;1714765149;522939559;world;-9.29E-05;-6.76E-05;-1.66E-05;-0.000300823;1.66E-05;0.000120918;1
2024/05/03/12:39:09.543333;14948;1714765149;543080671;world;-8.52E-05;-6.03E-05;-2.00E-05;-0.00020917;-1.53E-05;0.000145946;1
2024/05/03/12:39:09.564902;14949;1714765149;563361118;world;-8.70E-05;-6.67E-05;-2.35E-05;-0.000271718;-1.23E-05;0.00013089;1
2024/05/03/12:39:09.573792;14950;1714765149;573512500;world;-9.21E-05;-7.45E-05;-1.46E-05;-0.000253075;-1.48E-05;0.000122215;1
2024/05/03/12:39:09.593361;14951;1714765149;593037636;world;-7.83E-05;-5.89E-05;-1.30E-05;-0.00021091;-1.17E-05;0.00015513;1
2024/05/03/12:39:09.603430;14952;1714765149;603083767;world;-7.75E-05;-6.10E-05;-1.17E-05;-0.00026575;-3.55E-05;0.00012526;1
2024/05/03/12:39:09.623455;14953;1714765149;623131277;world;-0.00010295;-6.38E-05;-2.30E-05;-0.00026782;5.22E-06;0.000144588;1
2024/05/03/12:39:09.633188;14954;1714765149;632916855;world;-8.23E-05;-6.38E-05;-1.43E-05;-0.000265311;6.55E-07;0.000144381;1
2024/05/03/12:39:09.663720;14955;1714765149;663047692;world;-8.36E-05;-6.19E-05;-1.69E-05;-0.000285332;-1.12E-05;0.00014133;1
2024/05/03/12:39:09.673266;14956;1714765149;672921945;world;-7.82E-05;-5.97E-05;-5.99E-06;-0.000210163;-7.56E-05;8.76E-05;1
2024/05/03/12:39:09.683635;14957;1714765149;683343767;world;-6.89E-05;-5.45E-05;-2.67E-05;-0.000211119;-6.72E-05;0.000125302;1
2024/05/03/12:39:09.703402;14958;1714765149;703010776;world;-8.97E-05;-5.50E-05;-2.43E-05;-0.000201725;-3.28E-05;0.000151614;1
2024/05/03/12:39:09.713496;14959;1714765149;713089345;world;-8.83E-05;-6.60E-05;-1.35E-05;-0.000226065;-6.12E-05;0.000108664;1
2024/05/03/12:39:09.733504;14960;1714765149;733187478;world;-9.02E-05;-6.31E-05;-2.37E-05;-0.000256114;5.03E-06;0.000156324;1
2024/05/03/12:39:09.743697;14961;1714765149;743063271;world;-9.64E-05;-6.05E-05;-2.75E-05;-0.000261469;-2.87E-05;0.000137971;1
2024/05/03/12:39:09.764124;14962;1714765149;763182463;world;-9.34E-05;-6.51E-05;-2.62E-05;-0.000305494;-3.51E-06;0.000114521;1
2024/05/03/12:39:09.783520;14963;1714765149;783169078;world;-8.34E-05;-6.08E-05;-2.14E-05;-0.000291931;1.59E-05;0.000139905;1
2024/05/03/12:39:09.793429;14964;1714765149;793148089;world;-8.67E-05;-6.24E-05;-1.62E-05;-0.000275158;-1.33E-05;0.000105735;1
2024/05/03/12:39:09.813367;14965;1714765149;813020108;world;-9.54E-05;-7.01E-05;-3.04E-05;-0.000283656;-1.45E-05;0.000130449;1
2024/05/03/12:39:09.833376;14966;1714765149;833049881;world;-8.40E-05;-6.01E-05;-2.89E-05;-0.000233355;1.94E-06;0.000117809;1
2024/05/03/12:39:09.843786;14967;1714765149;843112553;world;-8.90E-05;-6.50E-05;-1.73E-05;-0.000286538;-1.09E-05;0.000111331;1
2024/05/03/12:39:09.863309;14968;1714765149;862980941;world;-8.31E-05;-6.03E-05;-1.92E-05;-0.000227257;-2.05E-05;0.000127319;1
2024/05/03/12:39:09.873545;14969;1714765149;873242851;world;-8.01E-05;-7.14E-05;-2.33E-05;-0.000262413;-2.86E-05;0.00010776;1
2024/05/03/12:39:09.883597;14970;1714765149;883278261;world;-7.77E-05;-5.66E-05;-2.27E-05;-0.000240648;-2.78E-05;0.00014735;1
2024/05/03/12:39:09.903749;14971;1714765149;903342210;world;-7.96E-05;-6.20E-05;-3.37E-05;-0.000280832;1.87E-05;0.000162172;1
2024/05/03/12:39:09.913383;14972;1714765149;913064682;world;-7.57E-05;-6.34E-05;-9.57E-06;-0.000217975;-2.55E-05;0.0001462;1
2024/05/03/12:39:09.934333;14973;1714765149;933315436;world;-9.11E-05;-6.07E-05;-3.31E-05;-0.000271026;7.56E-06;0.000168475;1
2024/05/03/12:39:09.953269;14974;1714765149;952940021;world;-9.21E-05;-5.95E-05;-2.15E-05;-0.000250957;-2.67E-05;0.000143495;1
2024/05/03/12:39:09.973561;14975;1714765149;972940011;world;-7.91E-05;-6.07E-05;-2.21E-05;-0.000232909;-3.73E-05;0.00012798;1
2024/05/03/12:39:09.983649;14976;1714765149;983321602;world;-7.88E-05;-5.83E-05;-1.20E-05;-0.000201305;-1.07E-05;0.000119667;1
2024/05/03/12:39:09.993623;14977;1714765149;993319034;world;-7.10E-05;-6.12E-05;-1.78E-05;-0.000241151;-2.68E-05;0.000104162;1
2024/05/03/12:39:10.013504;14978;1714765150;13062792;world;-9.15E-05;-7.03E-05;-2.68E-05;-0.000232881;-1.40E-05;0.000128313;1
2024/05/03/12:39:10.033471;14979;1714765150;33120010;world;-8.15E-05;-6.44E-05;-2.41E-05;-0.000201663;-3.22E-05;0.000121545;1
2024/05/03/12:39:10.043344;14980;1714765150;43000585;world;-8.01E-05;-6.96E-05;-1.06E-05;-0.000240596;-2.46E-05;0.00012097;1
2024/05/03/12:39:10.063681;14981;1714765150;63034549;world;-8.24E-05;-6.66E-05;-1.00E-05;-0.000250009;-1.75E-05;0.000112741;1
2024/05/03/12:39:10.073690;14982;1714765150;73362332;world;-7.70E-05;-6.11E-05;-3.11E-05;-0.000253825;-2.19E-05;0.000141789;1
2024/05/03/12:39:10.093620;14983;1714765150;93268612;world;-8.66E-05;-7.15E-05;-2.59E-05;-0.000246221;-4.50E-05;0.000146127;1
2024/05/03/12:39:10.103601;14984;1714765150;103348095;world;-8.31E-05;-6.64E-05;-3.80E-06;-0.000235412;-2.62E-05;0.000129952;1
2024/05/03/12:39:10.123776;14985;1714765150;122969065;world;-6.49E-05;-6.18E-05;-2.44E-05;-0.000253707;-3.74E-06;0.000145915;1
2024/05/03/12:39:10.143932;14986;1714765150;143303005;world;-8.36E-05;-7.28E-05;-3.37E-05;-0.000254577;-9.98E-06;0.000126861;1
2024/05/03/12:39:10.153242;14987;1714765150;152934900;world;-5.63E-05;-6.54E-05;-8.91E-06;-0.000224061;-5.33E-05;0.000102383;1
2024/05/03/12:39:10.173231;14988;1714765150;172914453;world;-8.53E-05;-6.46E-05;-1.53E-05;-0.000272407;3.18E-05;0.000112886;1
2024/05/03/12:39:10.183652;14989;1714765150;183336811;world;-7.08E-05;-7.39E-05;-1.40E-05;-0.000244613;-5.40E-06;0.00012052;1
2024/05/03/12:39:10.203796;14990;1714765150;203140890;world;-7.01E-05;-7.07E-05;-1.75E-05;-0.00021881;-4.98E-05;0.000114136;1
2024/05/03/12:39:10.213608;14991;1714765150;213073221;world;-7.58E-05;-7.16E-05;-1.25E-05;-0.000237247;1.61E-05;0.000134618;1
2024/05/03/12:39:10.243784;14992;1714765150;243232110;world;-7.97E-05;-6.08E-05;-4.39E-06;-0.000205229;-2.68E-05;0.000136866;1
2024/05/03/12:39:10.243805;14993;1714765150;243268728;world;-6.85E-05;-6.67E-05;-1.17E-05;-0.000197242;-3.45E-05;0.000117201;1
2024/05/03/12:39:10.263247;14994;1714765150;262917654;world;-8.07E-05;-7.02E-05;-1.97E-05;-0.000262874;-1.82E-05;0.000111149;1
2024/05/03/12:39:10.283854;14995;1714765150;283286239;world;-7.41E-05;-6.05E-05;-2.17E-05;-0.000245081;-8.40E-06;0.000122786;1
2024/05/03/12:39:10.293754;14996;1714765150;293506816;world;-7.32E-05;-6.21E-05;-1.52E-05;-0.000198894;-5.33E-06;0.000136836;1
2024/05/03/12:39:10.313504;14997;1714765150;313063437;world;-5.95E-05;-6.85E-05;-3.58E-06;-0.000175566;-5.22E-05;0.000107892;1
2024/05/03/12:39:10.323452;14998;1714765150;323112294;world;-6.46E-05;-6.29E-05;-1.03E-05;-0.000180405;-4.82E-05;0.000106791;1
2024/05/03/12:39:10.343283;14999;1714765150;342981734;world;-8.08E-05;-6.46E-05;-2.26E-05;-0.000240462;-7.27E-06;0.000126555;1
2024/05/03/12:39:10.353184;15000;1714765150;352859753;world;-6.94E-05;-6.35E-05;-5.14E-06;-0.000189783;-3.90E-05;0.00011739;1
2024/05/03/12:39:10.383582;15001;1714765150;383185344;world;-9.40E-05;-5.76E-05;-8.88E-06;-0.000277369;7.27E-07;0.000156404;1
2024/05/03/12:39:10.383611;15002;1714765150;383235326;world;-8.51E-05;-5.81E-05;-2.73E-05;-0.000300296;-6.16E-05;0.000113876;1
2024/05/03/12:39:10.403578;15003;1714765150;403252008;world;-8.13E-05;-7.53E-05;-2.44E-05;-0.000269437;-5.16E-06;0.00015109;1
2024/05/03/12:39:10.413518;15004;1714765150;413211620;world;-9.15E-05;-5.91E-05;-2.23E-05;-0.000295244;-1.93E-05;0.000131905;1
2024/05/03/12:39:10.443399;15005;1714765150;443028921;world;-8.82E-05;-6.42E-05;-8.82E-06;-0.000274004;-1.26E-05;0.00010141;1
2024/05/03/12:39:10.453217;15006;1714765150;452885401;world;-8.77E-05;-6.95E-05;-2.59E-05;-0.000238764;-2.12E-05;0.000121009;1
2024/05/03/12:39:10.473579;15007;1714765150;473188684;world;-8.48E-05;-6.64E-05;-3.10E-05;-0.000299002;-8.66E-06;0.00010427;1
2024/05/03/12:39:10.483266;15008;1714765150;482936764;world;-8.06E-05;-5.80E-05;-1.09E-05;-0.000215415;-1.46E-05;0.000108149;1
2024/05/03/12:39:10.493277;15009;1714765150;492969240;world;-8.17E-05;-6.85E-05;-2.43E-05;-0.000256733;-2.17E-05;0.000149475;1
2024/05/03/12:39:10.513443;15010;1714765150;513141140;world;-9.80E-05;-5.86E-05;-2.82E-05;-0.000310632;-5.99E-06;0.000128224;1
2024/05/03/12:39:10.523159;15011;1714765150;522873680;world;-0.0001034;-6.58E-05;-3.76E-05;-0.000372559;1.51E-05;0.000120603;1
2024/05/03/12:39:10.543707;15012;1714765150;543334736;world;-9.38E-05;-7.03E-05;-2.63E-05;-0.000257889;-2.66E-05;0.000127871;1
2024/05/03/12:39:10.563924;15013;1714765150;563402304;world;-0.000111325;-5.21E-05;-1.92E-05;-0.000258254;-2.14E-05;0.000153566;1
2024/05/03/12:39:10.583813;15014;1714765150;583489778;world;-0.000105995;-5.60E-05;-2.01E-05;-0.000257918;-4.55E-05;0.000128681;1
2024/05/03/12:39:10.593346;15015;1714765150;593009676;world;-9.04E-05;-6.55E-05;-3.80E-05;-0.000348333;-9.12E-06;0.000148384;1
2024/05/03/12:39:10.603553;15016;1714765150;603200244;world;-9.61E-05;-5.74E-05;-2.55E-05;-0.000259032;-1.42E-05;0.0001503;1
2024/05/03/12:39:10.623598;15017;1714765150;623224162;world;-0.000109359;-5.51E-05;-2.72E-05;-0.000288023;1.77E-05;0.000157924;1
2024/05/03/12:39:10.643613;15018;1714765150;643278815;world;-0.000119104;-5.24E-05;-3.21E-05;-0.000307254;-1.73E-05;0.000120682;1
2024/05/03/12:39:10.653933;15019;1714765150;653359149;world;-9.03E-05;-5.38E-05;-3.73E-05;-0.00030117;-2.48E-05;0.00011855;1
2024/05/03/12:39:10.683909;15020;1714765150;683228782;world;-8.46E-05;-5.43E-05;-1.87E-05;-0.000226603;-5.92E-05;9.56E-05;1
2024/05/03/12:39:10.693419;15021;1714765150;693058157;world;-0.000106795;-6.08E-05;-1.95E-05;-0.000264103;-4.59E-05;0.00011057;1
2024/05/03/12:39:10.703785;15022;1714765150;703330025;world;-0.00011717;-6.27E-05;-3.05E-05;-0.000316726;1.45E-05;0.000131887;1
2024/05/03/12:39:10.713257;15023;1714765150;712907239;world;-9.82E-05;-6.30E-05;-3.16E-05;-0.000324824;3.12E-06;0.000127138;1
2024/05/03/12:39:10.733556;15024;1714765150;733127448;world;-9.94E-05;-5.05E-05;-1.79E-05;-0.000293702;-1.30E-05;9.49E-05;1
2024/05/03/12:39:10.753439;15025;1714765150;753050679;world;-0.000107287;-6.89E-05;-1.54E-05;-0.000250024;-4.19E-05;0.000130153;1
2024/05/03/12:39:10.763767;15026;1714765150;763388129;world;-0.000106706;-7.38E-05;-1.91E-05;-0.00033933;1.31E-05;0.000115491;1
2024/05/03/12:39:10.793308;15027;1714765150;793088664;world;-9.41E-05;-6.03E-05;-1.95E-05;-0.000279963;-1.78E-05;0.00013269;1
2024/05/03/12:39:10.793345;15028;1714765150;793114963;world;-8.87E-05;-6.63E-05;-1.70E-05;-0.000255207;-1.34E-05;0.000131377;1
2024/05/03/12:39:10.803808;15029;1714765150;803263249;world;-8.94E-05;-5.90E-05;-1.04E-05;-0.000211717;-1.03E-05;0.000108055;1
2024/05/03/12:39:10.824066;15030;1714765150;823316746;world;-0.000101143;-6.54E-05;-2.47E-05;-0.000265804;1.24E-06;0.000142379;1
2024/05/03/12:39:10.833571;15031;1714765150;833248281;world;-8.69E-05;-7.20E-05;-1.36E-05;-0.000236596;-5.08E-05;0.000120389;1
2024/05/03/12:39:10.853296;15032;1714765150;852993386;world;-8.03E-05;-5.51E-05;-1.78E-05;-0.000209413;-6.15E-05;0.000117495;1
2024/05/03/12:39:10.883470;15033;1714765150;883083947;world;-9.03E-05;-6.28E-05;-2.76E-05;-0.000266896;-2.44E-05;0.000132486;1
2024/05/03/12:39:10.883496;15034;1714765150;883119011;world;-8.57E-05;-6.38E-05;-1.05E-05;-0.000206245;-6.67E-05;0.000127541;1
2024/05/03/12:39:10.903390;15035;1714765150;903061321;world;-7.67E-05;-6.39E-05;-2.30E-05;-0.000240715;-4.98E-06;0.000129037;1
2024/05/03/12:39:10.913661;15036;1714765150;913323010;world;-7.91E-05;-6.28E-05;-2.57E-05;-0.000226198;-3.40E-05;9.68E-05;1
2024/05/03/12:39:10.933564;15037;1714765150;933163487;world;-8.30E-05;-6.35E-05;-1.66E-05;-0.000231241;-3.22E-05;0.000147997;1
2024/05/03/12:39:10.953463;15038;1714765150;953146069;world;-8.02E-05;-5.39E-05;-2.77E-06;-0.000215951;-3.52E-05;0.000115903;1
2024/05/03/12:39:10.963667;15039;1714765150;963266607;world;-8.52E-05;-6.95E-05;-2.17E-05;-0.000233187;-3.35E-05;0.000136074;1
2024/05/03/12:39:10.994104;15040;1714765150;993246918;world;-7.52E-05;-6.00E-05;-2.98E-05;-0.000251089;-1.46E-05;0.00011041;1
2024/05/03/12:39:10.994122;15041;1714765150;993285890;world;-9.33E-05;-6.72E-05;-1.09E-05;-0.000242576;1.40E-05;9.04E-05;1
2024/05/03/12:39:11.013747;15042;1714765151;13252835;world;-9.40E-05;-6.47E-05;-1.19E-05;-0.000221489;-2.25E-05;0.000119083;1
2024/05/03/12:39:11.023722;15043;1714765151;23388421;world;-7.79E-05;-5.91E-05;-1.90E-05;-0.000287016;2.71E-05;0.000120569;1
2024/05/03/12:39:11.043690;15044;1714765151;43396420;world;-7.34E-05;-5.08E-05;-1.72E-05;-0.000174975;-5.02E-05;9.89E-05;1
2024/05/03/12:39:11.063389;15045;1714765151;63067105;world;-7.77E-05;-7.56E-05;-1.32E-05;-0.000244924;-2.94E-05;0.000113516;1
2024/05/03/12:39:11.073614;15046;1714765151;73260381;world;-8.80E-05;-5.38E-05;-1.05E-05;-0.000254006;-3.02E-06;0.000122409;1
2024/05/03/12:39:11.093331;15047;1714765151;93053094;world;-8.54E-05;-5.55E-05;-1.91E-05;-0.000218402;-3.18E-05;0.000100918;1
2024/05/03/12:39:11.113496;15048;1714765151;112978250;world;-6.84E-05;-6.34E-05;-1.09E-05;-0.000233811;-6.03E-05;0.000128847;1
2024/05/03/12:39:11.123768;15049;1714765151;123324257;world;-8.76E-05;-6.02E-05;-1.80E-05;-0.000261254;3.42E-05;0.000146727;1
2024/05/03/12:39:11.133609;15050;1714765151;133283928;world;-8.87E-05;-6.00E-05;-1.24E-06;-0.000227008;-2.76E-06;0.00011839;1
2024/05/03/12:39:11.163579;15051;1714765151;163292686;world;-7.73E-05;-5.75E-05;-7.54E-06;-0.00023086;-2.30E-05;0.000148154;1
2024/05/03/12:39:11.163610;15052;1714765151;163349351;world;-7.96E-05;-6.34E-05;-1.62E-05;-0.000279566;-5.77E-06;0.000122572;1
2024/05/03/12:39:11.193591;15053;1714765151;193159591;world;-8.48E-05;-6.53E-05;-1.74E-05;-0.000250007;-1.33E-05;0.000122816;1
2024/05/03/12:39:11.203413;15054;1714765151;203145983;world;-7.68E-05;-6.72E-05;-5.75E-06;-0.000188074;-6.19E-05;0.00011368;1
2024/05/03/12:39:11.213418;15055;1714765151;213005917;world;-9.04E-05;-6.19E-05;-4.81E-06;-0.000280368;6.21E-06;0.000132133;1
2024/05/03/12:39:11.233598;15056;1714765151;233317621;world;-8.95E-05;-6.43E-05;-5.27E-06;-0.000265395;-4.23E-05;8.25E-05;1
2024/05/03/12:39:11.263736;15057;1714765151;263456588;world;-7.72E-05;-4.69E-05;-1.42E-05;-0.000258996;-1.22E-05;0.000149407;1
2024/05/03/12:39:11.263761;15058;1714765151;263493527;world;-7.95E-05;-6.37E-05;-1.08E-05;-0.000241717;-1.42E-05;0.000106691;1
2024/05/03/12:39:11.283136;15059;1714765151;282897880;world;-8.19E-05;-7.15E-05;-5.54E-06;-0.000205846;-4.37E-05;9.27E-05;1
2024/05/03/12:39:11.303282;15060;1714765151;303021121;world;-8.63E-05;-6.25E-05;-1.75E-05;-0.000297975;-2.79E-05;0.000113193;1
2024/05/03/12:39:11.313424;15061;1714765151;313141891;world;-7.12E-05;-5.89E-05;-1.32E-05;-0.000173078;-2.98E-05;9.53E-05;1
2024/05/03/12:39:11.323183;15062;1714765151;322936839;world;-8.33E-05;-6.11E-05;4.83E-06;-0.000212966;-2.07E-05;0.000136207;1
2024/05/03/12:39:11.343659;15063;1714765151;343382027;world;-7.07E-05;-5.58E-05;-5.79E-06;-0.000204137;-5.89E-05;0.000119013;1
2024/05/03/12:39:11.363609;15064;1714765151;363277346;world;-8.13E-05;-6.19E-05;-6.09E-06;-0.000238448;1.25E-07;9.99E-05;1
2024/05/03/12:39:11.373734;15065;1714765151;373401653;world;-8.19E-05;-5.97E-05;-1.35E-05;-0.000240212;-6.32E-06;0.000116762;1
2024/05/03/12:39:11.393525;15066;1714765151;393188624;world;-7.73E-05;-5.75E-05;-7.01E-06;-0.000202114;-3.55E-05;0.000110349;1
2024/05/03/12:39:11.403640;15067;1714765151;403324392;world;-7.95E-05;-7.07E-05;-5.33E-06;-0.000225197;-1.62E-05;8.64E-05;1
2024/05/03/12:39:11.413998;15068;1714765151;413367620;world;-8.61E-05;-6.50E-05;-1.01E-05;-0.000235473;-2.90E-05;8.65E-05;1
2024/05/03/12:39:11.443480;15069;1714765151;443216660;world;-7.38E-05;-5.97E-05;-1.00E-05;-0.0002118;-3.88E-05;0.000101395;1
2024/05/03/12:39:11.453625;15070;1714765151;453363900;world;-7.61E-05;-5.52E-05;-8.93E-06;-0.00018272;-1.77E-06;0.000122896;1
2024/05/03/12:39:11.464261;15071;1714765151;463486793;world;-8.47E-05;-5.66E-05;-6.32E-06;-0.000248069;-1.02E-05;0.000103135;1
2024/05/03/12:39:11.483456;15072;1714765151;483124508;world;-8.45E-05;-6.12E-05;-1.58E-05;-0.000216846;-2.66E-05;0.000115732;1
2024/05/03/12:39:11.503310;15073;1714765151;503031922;world;-7.89E-05;-5.10E-05;-1.02E-05;-0.000222291;-5.48E-05;8.23E-05;1
2024/05/03/12:39:11.513673;15074;1714765151;513323569;world;-7.71E-05;-4.86E-05;-6.55E-06;-0.000263851;-5.28E-05;0.000107738;1
2024/05/03/12:39:11.523417;15075;1714765151;523165074;world;-9.27E-05;-5.32E-05;-5.72E-06;-0.000240349;-1.62E-05;0.000108706;1
2024/05/03/12:39:11.543906;15076;1714765151;543432812;world;-8.74E-05;-5.34E-05;-8.53E-06;-0.000235929;-6.99E-06;9.10E-05;1
2024/05/03/12:39:11.573328;15077;1714765151;573004322;world;-9.55E-05;-5.79E-05;-2.11E-05;-0.000262776;-1.05E-05;9.62E-05;1
2024/05/03/12:39:11.573354;15078;1714765151;573044677;world;-7.29E-05;-5.99E-05;-1.04E-05;-0.000252987;-6.73E-05;7.20E-05;1
2024/05/03/12:39:11.603488;15079;1714765151;603038559;world;0.0003192;-5.97E-05;2.41E-05;-8.71E-05;-0.000100673;-3.32E-05;1
2024/05/03/12:39:11.613794;15080;1714765151;613310320;world;0.001403799;-9.22E-05;6.71E-05;-0.000162116;-0.000208194;-0.000233155;1
2024/05/03/12:39:11.623250;15081;1714765151;622956842;world;0.002852487;-0.000110189;4.52E-05;-0.000563987;-3.12E-05;-6.40E-05;0.999999881
2024/05/03/12:39:11.633444;15082;1714765151;633118560;world;0.003674022;-9.66E-05;4.16E-05;-0.000563349;-0.000242324;-0.000203038;0.999999762
2024/05/03/12:39:11.653401;15083;1714765151;653054504;world;0.005305271;-8.93E-05;4.80E-05;-0.00081227;-0.000250923;-0.000246451;0.999999642
2024/05/03/12:39:11.673245;15084;1714765151;672970682;world;0.008297659;-0.000114514;0.000100228;-0.000282328;-0.000215851;2.07E-05;1
2024/05/03/12:39:11.683365;15085;1714765151;683064734;world;0.009340744;-0.000128337;9.96E-05;-0.000344561;-5.82E-05;9.20E-05;1
2024/05/03/12:39:11.703510;15086;1714765151;703184381;world;0.011343854;-0.000145105;0.000158004;-0.000315398;-1.14E-05;-4.03E-05;1
2024/05/03/12:39:11.713382;15087;1714765151;712922153;world;0.013434049;-0.00016977;0.00019338;-0.000316423;-6.43E-06;3.32E-07;1
2024/05/03/12:39:11.733731;15088;1714765151;733151709;world;0.015505167;-0.000161571;0.000236535;-0.00029714;-0.000433999;0.000117911;0.999999881
2024/05/03/12:39:11.743342;15089;1714765151;743010348;world;0.017581042;-0.000136452;0.000180654;-0.000522249;-0.000518277;0.000182965;0.999999762
2024/05/03/12:39:11.773470;15090;1714765151;773229468;world;0.019662004;-0.000174246;0.000263877;-0.000483002;-0.000246684;0.000287319;0.999999881
2024/05/03/12:39:11.773494;15091;1714765151;773263151;world;0.020670565;-0.00021708;0.000251606;-0.00040044;-0.00018641;0.00039604;0.999999881
2024/05/03/12:39:11.793347;15092;1714765151;793029628;world;0.023814674;-0.000222699;0.000265623;-0.000175119;-0.000373133;0.000402452;0.999999881
2024/05/03/12:39:11.813245;15093;1714765151;812979094;world;0.024826191;-0.000251733;0.00028901;-0.000301301;-0.000339917;0.000521452;0.999999762
2024/05/03/12:39:11.823316;15094;1714765151;822966760;world;0.026820125;-0.000231008;0.000337212;-0.000212098;-0.000238992;0.000606221;0.999999762
2024/05/03/12:39:11.843622;15095;1714765151;843352369;world;0.028828487;-0.0002158;0.000328229;-4.77E-05;-0.000405682;0.000442232;0.999999881
2024/05/03/12:39:11.853409;15096;1714765151;853072757;world;0.030706275;-0.000202627;0.000363742;-0.000130814;-0.000452862;0.0005588;0.999999762
2024/05/03/12:39:11.873385;15097;1714765151;873130186;world;0.032348756;-0.000226055;0.000307862;-0.000442542;-0.000497808;0.000729136;0.999999523
2024/05/03/12:39:11.883506;15098;1714765151;883185276;world;0.033166043;-0.00021372;0.000308955;-0.000384234;-0.000418801;0.000794058;0.999999523
2024/05/03/12:39:11.913517;15099;1714765151;913242017;world;0.035469934;-0.000215052;0.000412192;-9.77E-06;-0.000366978;0.000656539;0.999999762
2024/05/03/12:39:11.913549;15100;1714765151;913284295;world;0.036190171;-0.000196196;0.000402757;6.52E-05;-0.000268159;0.000589832;0.999999762
2024/05/03/12:39:11.933601;15101;1714765151;933286247;world;0.037564822;-0.000210302;0.000438168;6.80E-05;-0.000360486;0.000465152;0.999999881
2024/05/03/12:39:11.943774;15102;1714765151;943484883;world;0.038803414;-0.000201366;0.000470242;0.000124942;-0.000357464;0.000490263;0.999999881
2024/05/03/12:39:11.983697;15103;1714765151;983338080;world;0.039966282;-0.000191045;0.00045915;-3.39E-05;-0.000520256;0.000393752;0.999999762
2024/05/03/12:39:11.983703;15104;1714765151;983380408;world;0.041018128;-0.000187821;0.00043985;-0.000129973;-0.000627213;0.000382557;0.999999762
2024/05/03/12:39:12.013706;15105;1714765152;13025422;world;0.041945674;-0.000185021;0.000405611;-0.000308344;-0.000584908;0.000450307;0.999999762
2024/05/03/12:39:12.013731;15106;1714765152;13062591;world;0.042383224;-0.000213979;0.000412226;-0.00033131;-0.000591927;0.000510684;0.999999642
2024/05/03/12:39:12.023376;15107;1714765152;23119815;world;0.043197852;-0.000233205;0.000379871;-0.000411931;-0.000588278;0.000511281;0.999999642
2024/05/03/12:39:12.043792;15108;1714765152;43333285;world;0.044034764;-0.000261586;0.000407995;-0.00042811;-0.000588272;0.000520051;0.999999642
2024/05/03/12:39:12.063352;15109;1714765152;63006238;world;0.044814996;-0.00028232;0.000441799;-0.000211382;-0.000663922;0.000507623;0.999999642
2024/05/03/12:39:12.083358;15110;1714765152;83045825;world;0.045567989;-0.000287668;0.000496644;0.000109196;-0.00068597;0.000463973;0.999999642
2024/05/03/12:39:12.093355;15111;1714765152;93045704;world;0.046255346;-0.00025242;0.000498621;0.000370222;-0.000516432;0.000573123;0.999999642
2024/05/03/12:39:12.113573;15112;1714765152;113211455;world;0.046878844;-0.00025978;0.00050388;0.000430287;-0.000491754;0.000615068;0.999999642
2024/05/03/12:39:12.123248;15113;1714765152;122972903;world;0.047454104;-0.000254589;0.000484675;0.000308866;-0.000427813;0.000624928;0.999999642
2024/05/03/12:39:12.143523;15114;1714765152;143091237;world;0.048019003;-0.000264139;0.000497493;0.000373138;-0.00047146;0.000644475;0.999999642
2024/05/03/12:39:12.153314;15115;1714765152;152972537;world;0.048617743;-0.00027486;0.00052094;0.000448886;-0.000542959;0.00062736;0.999999642
2024/05/03/12:39:12.163426;15116;1714765152;163157688;world;0.04889049;-0.000267102;0.000527347;0.000344811;-0.000591794;0.000591049;0.999999642
2024/05/03/12:39:12.183218;15117;1714765152;182968552;world;0.049472161;-0.000268608;0.00055632;0.000398332;-0.000679857;0.000567893;0.999999523
2024/05/03/12:39:12.233963;15118;1714765152;233274745;world;0.050035324;-0.000278376;0.000548781;0.00033294;-0.000697707;0.000591655;0.999999523
2024/05/03/12:39:12.233990;15120;1714765152;233310010;world;0.051260196;-0.000263021;0.000521393;0.000121301;-0.000815946;0.000436129;0.999999642
2024/05/03/12:39:12.243687;15121;1714765152;243094981;world;0.05188005;-0.000265794;0.0005169;0.000124752;-0.000760756;0.000428562;0.999999642
2024/05/03/12:39:12.263558;15122;1714765152;262951692;world;0.052518394;-0.000287782;0.000466569;-7.01E-05;-0.000511024;0.000384252;0.999999881
2024/05/03/12:39:12.283287;15123;1714765152;283028382;world;0.053171851;-0.000276951;0.000487362;-8.07E-05;-0.000510651;0.000373027;0.999999881
2024/05/03/12:39:12.293357;15124;1714765152;292992297;world;0.05349623;-0.0002848;0.000477321;-0.000287224;-0.000491022;0.00037191;0.999999762
2024/05/03/12:39:12.343300;15125;1714765152;343028156;world;0.05423769;-0.000264256;0.000485667;-0.000107767;-0.00055188;0.000389893;0.999999762
2024/05/03/12:39:12.353610;15126;1714765152;353191436;world;0.054982014;-0.000262132;0.000523961;0.000147366;-0.000565729;0.000386189;0.999999762
2024/05/03/12:39:12.353635;15128;1714765152;353255295;world;0.056378789;-0.000287398;0.000521108;4.49E-05;-0.000524084;0.000591324;0.999999762
2024/05/03/12:39:12.373431;15129;1714765152;373132394;world;0.057106212;-0.000280236;0.000538536;9.60E-05;-0.000435065;0.00065873;0.999999762
2024/05/03/12:39:12.383441;15130;1714765152;383231116;world;0.057482462;-0.000293346;0.000545332;0.000148199;-0.000412015;0.000633682;0.999999762
2024/05/03/12:39:12.403239;15131;1714765152;402958028;world;0.05823255;-0.000296373;0.000548055;0.000139462;-0.000475244;0.000580228;0.999999762
2024/05/03/12:39:12.423376;15132;1714765152;423138207;world;0.059471007;-0.000281729;0.000556723;0.00031529;-0.000534418;0.000602924;0.999999642
2024/05/03/12:39:12.433444;15133;1714765152;433102364;world;0.059898242;-0.000275924;0.000570984;0.000294989;-0.000453073;0.000642014;0.999999642
2024/05/03/12:39:12.453444;15134;1714765152;453119155;world;0.060746793;-0.000286671;0.000572382;0.000193798;-0.000611378;0.000531894;0.999999642
2024/05/03/12:39:12.463767;15135;1714765152;463201917;world;0.061579984;-0.000310172;0.000598212;5.34E-05;-0.000685267;0.000543905;0.999999642
2024/05/03/12:39:12.494009;15136;1714765152;493302043;world;0.062441055;-0.000291986;0.000620534;-2.12E-08;-0.000706152;0.000541187;0.999999642
2024/05/03/12:39:12.494031;15137;1714765152;493341837;world;0.063389637;-0.000282912;0.00061404;5.32E-05;-0.000913961;0.000432464;0.999999523
2024/05/03/12:39:12.533293;15138;1714765152;533026360;world;0.063830741;-0.000285678;0.00062494;0.000117087;-0.00086918;0.000466687;0.999999523
2024/05/03/12:39:12.533324;15139;1714765152;533068157;world;0.065141864;-0.000254913;0.000586356;8.26E-05;-0.00068651;0.000621951;0.999999642
2024/05/03/12:39:12.544017;15140;1714765152;543420711;world;0.065583244;-0.000261221;0.000593726;9.92E-05;-0.000645574;0.000624347;0.999999642
2024/05/03/12:39:12.563684;15141;1714765152;563386077;world;0.066487335;-0.000265822;0.00057207;-4.08E-05;-0.000693994;0.000651627;0.999999523
2024/05/03/12:39:12.573419;15142;1714765152;573063053;world;0.06738022;-0.000271998;0.000604733;-0.00015656;-0.000671485;0.0007769;0.999999523
2024/05/03/12:39:12.593141;15143;1714765152;592920729;world;0.068287626;-0.000287038;0.000617991;-4.49E-05;-0.000746875;0.000829834;0.999999404
2024/05/03/12:39:12.603673;15144;1714765152;603411975;world;0.069167927;-0.000310551;0.000615133;-7.59E-05;-0.000817953;0.000800859;0.999999404
2024/05/03/12:39:12.633616;15145;1714765152;633393986;world;0.069995135;-0.000330573;0.000612938;5.72E-05;-0.000694212;0.000841018;0.999999404
2024/05/03/12:39:12.633631;15146;1714765152;633423691;world;0.070418395;-0.000347611;0.00060081;0.000150527;-0.000646561;0.000873813;0.999999404
2024/05/03/12:39:12.653374;15147;1714765152;653078298;world;0.071291015;-0.000345361;0.000624167;0.000258537;-0.000673652;0.000837468;0.999999404
2024/05/03/12:39:12.663608;15148;1714765152;663384142;world;0.072160065;-0.00033213;0.000659088;0.000223313;-0.00072039;0.000809692;0.999999404
2024/05/03/12:39:12.693585;15149;1714765152;693208803;world;0.073064543;-0.000325127;0.000702955;0.000129231;-0.000750409;0.000797757;0.999999404
2024/05/03/12:39:12.703657;15150;1714765152;703318454;world;0.073977754;-0.000292735;0.000733596;0.000189495;-0.00069226;0.000797278;0.999999404
2024/05/03/12:39:12.733566;15151;1714765152;733153645;world;0.074887507;-0.000284039;0.000751845;0.000237739;-0.000705205;0.000810679;0.999999404
2024/05/03/12:39:12.733578;15152;1714765152;733195973;world;0.075845726;-0.000276534;0.000740794;0.00041677;-0.000947269;0.000694772;0.999999285
2024/05/03/12:39:12.753378;15153;1714765152;753025910;world;0.076692857;-0.000295361;0.000724967;0.000254796;-0.000832678;0.000680398;0.999999404
2024/05/03/12:39:12.763576;15154;1714765152;763135932;world;0.077504337;-0.000299268;0.000719726;0.000207023;-0.000828247;0.000739147;0.999999404
2024/05/03/12:39:12.773457;15155;1714765152;773107763;world;0.077924542;-0.000313096;0.000704655;6.77E-05;-0.000801914;0.000755054;0.999999404
2024/05/03/12:39:12.794663;15156;1714765152;794381646;world;0.078793511;-0.000285916;0.000682224;5.25E-05;-0.000950479;0.000749352;0.999999285
2024/05/03/12:39:12.803463;15157;1714765152;803100589;world;0.07965973;-0.000289248;0.000717968;0.000217953;-0.001004484;0.000665204;0.999999285
2024/05/03/12:39:12.843833;15158;1714765152;843335056;world;0.080498397;-0.000282653;0.000745654;0.000146977;-0.000980206;0.000697606;0.999999285
2024/05/03/12:39:12.843846;15159;1714765152;843369049;world;0.081350259;-0.000263514;0.000743327;0.000249957;-0.00091575;0.000871855;0.999999166
2024/05/03/12:39:12.853393;15160;1714765152;853024882;world;0.082202815;-0.000258907;0.000804848;0.000381899;-0.000826635;0.000840513;0.999999285
2024/05/03/12:39:12.873395;15161;1714765152;873176618;world;0.083016321;-0.000279328;0.00080356;0.000344052;-0.00086031;0.000818692;0.999999285
2024/05/03/12:39:12.883601;15162;1714765152;883301110;world;0.083410397;-0.00027988;0.000808198;0.000413142;-0.000854674;0.000836137;0.999999285
2024/05/03/12:39:12.903632;15163;1714765152;903355891;world;0.084273443;-0.000296918;0.000820736;0.000506107;-0.000818508;0.000732408;0.999999285
2024/05/03/12:39:12.933555;15164;1714765152;933115006;world;0.085574932;-0.000283258;0.000822411;0.000287942;-0.000664571;0.000765961;0.999999523
2024/05/03/12:39:12.933563;15165;1714765152;933159669;world;0.085997842;-0.000270301;0.000833926;0.00034895;-0.000679134;0.000790212;0.999999404
2024/05/03/12:39:12.953604;15166;1714765152;953349645;world;0.086924106;-0.00020988;0.000853802;0.000533426;-0.001016265;0.000689982;0.999999166
2024/05/03/12:39:12.963471;15167;1714765152;963172250;world;0.087728426;-0.000213652;0.000816412;0.00045327;-0.001044515;0.000729917;0.999999166
2024/05/03/12:39:12.983606;15168;1714765152;983267567;world;0.088535562;-0.000214342;0.000818898;0.000340938;-0.001052033;0.000728471;0.999999166
2024/05/03/12:39:13.003176;15169;1714765153;2948632;world;0.089327477;-0.000207796;0.000783995;0.000176439;-0.000969834;0.000801639;0.999999166
2024/05/03/12:39:13.013338;15170;1714765153;13148099;world;0.09014041;-0.000200526;0.000799164;0.000347237;-0.000956453;0.00080175;0.999999166
2024/05/03/12:39:13.043551;15171;1714765153;43296381;world;0.090959944;-0.000246591;0.000879913;0.00039902;-0.000907328;0.000912449;0.999999166
2024/05/03/12:39:13.043581;15172;1714765153;43335453;world;0.091389738;-0.000248231;0.000897162;0.000521517;-0.000841543;0.000908132;0.999999166
2024/05/03/12:39:13.053313;15173;1714765153;53001193;world;0.092319578;-0.000244136;0.000883943;0.000645503;-0.000914754;0.000886466;0.999999046
2024/05/03/12:39:13.073224;15174;1714765153;72898370;world;0.093145624;-0.000271332;0.000900528;0.000648688;-0.000783271;0.000897098;0.999999166
2024/05/03/12:39:13.093477;15175;1714765153;93161460;world;0.093941972;-0.000278659;0.000887248;0.000549662;-0.000683648;0.000861538;0.999999285
2024/05/03/12:39:13.103360;15176;1714765153;103111453;world;0.094716817;-0.000285297;0.000920912;0.000452604;-0.000722561;0.00090465;0.999999285
2024/05/03/12:39:13.133406;15177;1714765153;133110133;world;0.095535062;-0.000304373;0.000910136;0.000348626;-0.000650067;0.000968775;0.999999285
2024/05/03/12:39:13.133433;15178;1714765153;133144987;world;0.096385852;-0.000322723;0.000932611;0.000351094;-0.000676293;0.001026863;0.999999166
2024/05/03/12:39:13.153408;15179;1714765153;153060053;world;0.097195178;-0.00033204;0.000944054;0.000382573;-0.000753621;0.000999219;0.999999166
2024/05/03/12:39:13.173714;15180;1714765153;173113786;world;0.098051645;-0.000326454;0.000978811;0.000491978;-0.00079734;0.000955104;0.999999166
2024/05/03/12:39:13.183666;15181;1714765153;183338726;world;0.098468781;-0.000321973;0.000988891;0.000514784;-0.000790512;0.000995459;0.999999046
2024/05/03/12:39:13.213314;15182;1714765153;213008121;world;0.099389791;-0.000278222;0.000965635;0.000597964;-0.000896218;0.000883027;0.999999046
2024/05/03/12:39:13.213334;15183;1714765153;213039269;world;0.100277953;-0.000270247;0.001003503;0.000727903;-0.000807827;0.000843633;0.999999046
2024/05/03/12:39:13.243488;15184;1714765153;243166081;world;0.101135373;-0.000274978;0.000981798;0.000592113;-0.000574191;0.000804108;0.999999404
2024/05/03/12:39:13.243518;15185;1714765153;243212757;world;0.102012277;-0.000264044;0.001037239;0.000931814;-0.000662567;0.000729963;0.999999166
2024/05/03/12:39:13.263466;15186;1714765153;263120518;world;0.102382064;-0.000288913;0.001032822;0.000758049;-0.000665756;0.000722594;0.999999285
2024/05/03/12:39:13.273662;15187;1714765153;273345438;world;0.103586942;-0.000315791;0.001017439;0.000371857;-0.0005883;0.000784657;0.999999523
2024/05/03/12:39:13.293830;15188;1714765153;293475053;world;0.103988543;-0.000323363;0.001007757;0.000257166;-0.000599271;0.000816772;0.999999523
2024/05/03/12:39:13.314161;15189;1714765153;313843806;world;0.104806431;-0.00031448;0.00100761;0.000320976;-0.000901443;0.000784792;0.999999285
2024/05/03/12:39:13.343772;15190;1714765153;343425180;world;0.105627947;-0.000308617;0.001024566;0.000481581;-0.00090539;0.000774908;0.999999166
2024/05/03/12:39:13.343782;15191;1714765153;343461407;world;0.106444217;-0.000302054;0.001038349;0.000546159;-0.000878914;0.000919473;0.999999046
2024/05/03/12:39:13.353615;15192;1714765153;353335047;world;0.107302316;-0.000277432;0.001010008;0.00060251;-0.000809535;0.00105975;0.999998927
2024/05/03/12:39:13.373403;15193;1714765153;373071324;world;0.108144596;-0.000294128;0.001032149;0.000575485;-0.00080612;0.001043008;0.999999046
2024/05/03/12:39:13.393690;15194;1714765153;393397874;world;0.109010704;-0.000300433;0.001083048;0.000541713;-0.000762591;0.000982571;0.999999166
2024/05/03/12:39:13.413593;15195;1714765153;413225122;world;0.109467365;-0.000291027;0.001077041;0.000608319;-0.0005872;0.001039242;0.999999166
2024/05/03/12:39:13.423547;15196;1714765153;423232165;world;0.110847011;-0.000293847;0.001071104;0.000582743;-0.000811469;0.000985799;0.999999046
2024/05/03/12:39:13.453393;15197;1714765153;453011770;world;0.111252353;-0.000314175;0.001088674;0.000518894;-0.000883967;0.000976191;0.999999046
2024/05/03/12:39:13.453421;15198;1714765153;453050151;world;0.112103261;-0.000288227;0.001101462;0.000586482;-0.000887825;0.00089733;0.999999046
2024/05/03/12:39:13.463737;15199;1714765153;463330352;world;0.112934344;-0.000280414;0.00108243;0.000703875;-0.000807492;0.000909093;0.999999046
2024/05/03/12:39:13.483678;15200;1714765153;483244051;world;0.113741703;-0.000275965;0.001097872;0.000606334;-0.000705315;0.000993833;0.999999046
2024/05/03/12:39:13.493722;15201;1714765153;493397253;world;0.114563242;-0.000287483;0.001101342;0.000521055;-0.000609398;0.00105004;0.999999166
2024/05/03/12:39:13.513204;15202;1714765153;512835752;world;0.115403384;-0.000294186;0.001108782;0.000487343;-0.000570587;0.001035877;0.999999166
2024/05/03/12:39:13.553669;15203;1714765153;553328375;world;0.116280593;-0.000294577;0.001177979;0.000540426;-0.000664828;0.001055703;0.999999046
2024/05/03/12:39:13.553705;15204;1714765153;553368620;world;0.116694473;-0.000288834;0.00118978;0.000470769;-0.000667542;0.00107459;0.999999166
2024/05/03/12:39:13.563436;15205;1714765153;563140420;world;0.117586032;-0.00024818;0.001169927;0.00064947;-0.00083996;0.001097993;0.999998808
2024/05/03/12:39:13.573870;15206;1714765153;573585061;world;0.11843732;-0.000293509;0.00117927;0.000526172;-0.000655278;0.001101392;0.999999046
2024/05/03/12:39:13.593494;15207;1714765153;593241955;world;0.119247019;-0.000306765;0.001212686;0.000498469;-0.000585367;0.001032679;0.999999166
2024/05/03/12:39:13.613202;15208;1714765153;612947257;world;0.120051384;-0.00028453;0.001229111;0.000444971;-0.000620119;0.001051738;0.999999166
2024/05/03/12:39:13.623599;15209;1714765153;623295843;world;0.120908305;-0.000260002;0.001238907;0.000424646;-0.000737975;0.00105337;0.999999166
2024/05/03/12:39:13.653545;15210;1714765153;653170366;world;0.121741086;-0.000214887;0.00121643;0.00048777;-0.000933698;0.000977639;0.999999046
2024/05/03/12:39:13.653548;15211;1714765153;653204139;world;0.122183897;-0.000198511;0.001189046;0.000419932;-0.001053621;0.000996372;0.999998927
2024/05/03/12:39:13.663274;15212;1714765153;662963528;world;0.123405978;-0.000172082;0.001158919;0.000338957;-0.001022271;0.001048028;0.999998927
2024/05/03/12:39:13.683515;15213;1714765153;683266833;world;0.123822682;-0.00014363;0.001172998;0.000347621;-0.00098465;0.000956596;0.999999046
2024/05/03/12:39:13.703428;15214;1714765153;703119408;world;0.124677025;-0.000148599;0.001233089;0.000459127;-0.001167438;0.001015034;0.999998689
2024/05/03/12:39:13.723305;15215;1714765153;722983985;world;0.125516176;-0.000152603;0.001240909;0.000513343;-0.001114078;0.001080636;0.999998689
2024/05/03/12:39:13.733547;15216;1714765153;733177828;world;0.126345351;-0.000160482;0.001260561;0.00047609;-0.001060718;0.001101815;0.999998689
2024/05/03/12:39:13.753458;15217;1714765153;753137926;world;0.127209544;-0.000169914;0.001251574;0.000539513;-0.00108888;0.001070797;0.999998689
2024/05/03/12:39:13.763198;15218;1714765153;762933583;world;0.127656057;-0.000154959;0.001282074;0.00058663;-0.001055088;0.001068699;0.999998689
2024/05/03/12:39:13.773656;15219;1714765153;773343675;world;0.128486484;-0.000139681;0.001310459;0.000592558;-0.001032695;0.001106554;0.999998689
2024/05/03/12:39:13.794324;15220;1714765153;793451604;world;0.129344121;-0.000139898;0.001303612;0.000504914;-0.001141535;0.001087114;0.999998689
2024/05/03/12:39:13.803413;15221;1714765153;803138009;world;0.130108073;-0.000152005;0.001288948;0.000340901;-0.001114127;0.001114157;0.999998689
2024/05/03/12:39:13.823732;15222;1714765153;823420012;world;0.130975068;-0.000116365;0.001320091;0.000375218;-0.001145781;0.001088814;0.999998689
2024/05/03/12:39:13.863572;15223;1714765153;863283391;world;0.131816179;-0.000111328;0.001319266;0.000279796;-0.001111737;0.001154574;0.999998689
2024/05/03/12:39:13.863595;15224;1714765153;863323956;world;0.132672191;-0.00013497;0.001324188;0.000367811;-0.00109369;0.001289939;0.999998569
2024/05/03/12:39:13.873629;15225;1714765153;873338056;world;0.133472189;-0.000134108;0.001324789;0.000353258;-0.001180171;0.001323682;0.99999845
2024/05/03/12:39:13.893270;15226;1714765153;892873143;world;0.134378314;-0.000127333;0.001310124;0.000522179;-0.001412831;0.00123302;0.999998093
2024/05/03/12:39:13.904675;15227;1714765153;904354393;world;0.13479133;-0.000120815;0.001324864;0.000485379;-0.001379377;0.001230097;0.999998212
2024/05/03/12:39:13.923658;15228;1714765153;923324465;world;0.135654792;-0.000111801;0.001353332;0.000507253;-0.001363266;0.001120712;0.999998331
2024/05/03/12:39:13.933362;15229;1714765153;933110800;world;0.136456788;-0.000104812;0.001353922;0.000466982;-0.001344676;0.001165411;0.999998331
2024/05/03/12:39:13.963427;15230;1714765153;963196450;world;0.137270689;-8.24E-05;0.001384203;0.000444089;-0.00118293;0.001123343;0.999998569
2024/05/03/12:39:13.963432;15231;1714765153;963228860;world;0.138162002;-7.98E-05;0.001463883;0.00049845;-0.001227167;0.001217496;0.99999845
2024/05/03/12:39:13.983382;15232;1714765153;982967850;world;0.139010847;-0.000100825;0.001488178;0.000428142;-0.001285142;0.001306175;0.999998212
2024/05/03/12:39:13.993244;15233;1714765153;992936310;world;0.139840811;-0.000106436;0.001515368;0.000593234;-0.001234358;0.001400571;0.999998093
2024/05/03/12:39:14.013845;15234;1714765154;13479063;world;0.140631303;-0.000113297;0.001489231;0.000401809;-0.001232745;0.001474289;0.999998093
2024/05/03/12:39:14.033357;15235;1714765154;33107235;world;0.141405806;-0.000136119;0.001499768;0.000328207;-0.001097463;0.001499948;0.999998212
2024/05/03/12:39:14.063956;15236;1714765154;63062682;world;0.141820788;-0.000133491;0.001509549;0.000259575;-0.001121352;0.001502169;0.999998212
2024/05/03/12:39:14.063985;15237;1714765154;63095292;world;0.142694578;-0.000134319;0.001469871;0.000133807;-0.001280337;0.001417782;0.999998212
2024/05/03/12:39:14.083355;15238;1714765154;83008427;world;0.143519893;-0.000137564;0.001478106;4.95E-05;-0.001310407;0.001410826;0.999998212
2024/05/03/12:39:14.093518;15239;1714765154;93229030;world;0.144324422;-0.000132937;0.00148758;-4.98E-05;-0.001204655;0.001424923;0.999998331
2024/05/03/12:39:14.113620;15240;1714765154;113365758;world;0.145140991;-0.000124358;0.00149682;-2.78E-05;-0.001290678;0.001555937;0.999997973
2024/05/03/12:39:14.133798;15241;1714765154;133451151;world;0.146097481;-9.23E-05;0.001493672;0.000415112;-0.00127383;0.001481728;0.999998093
2024/05/03/12:39:14.133824;15242;1714765154;133473362;world;0.146546721;-9.16E-05;0.001523399;0.000466341;-0.001313026;0.001460031;0.999997973
2024/05/03/12:39:14.173428;15243;1714765154;173136288;world;0.147819459;-6.49E-05;0.001590181;0.0006112;-0.001353771;0.001554245;0.999997735
