time;.header.seq;.header.stamp.secs;.header.stamp.nsecs;.header.frame_id;.pose.position.x;.pose.position.y;.pose.position.z;.pose.orientation.x;.pose.orientation.y;.pose.orientation.z;.pose.orientation.w
2024/05/03/12:47:01.893383;45173;1714765621;892974571;world;2.16E-05;3.30E-06;1.32E-05;-0.000104244;2.65E-05;5.21E-05;1
2024/05/03/12:47:01.903246;45174;1714765621;902949053;world;2.18E-05;4.84E-06;1.69E-05;-9.19E-05;-2.03E-05;6.08E-05;1
2024/05/03/12:47:01.923825;45175;1714765621;923414988;world;2.24E-05;1.50E-05;2.62E-05;-8.87E-05;-1.19E-05;3.39E-05;1
2024/05/03/12:47:01.933258;45176;1714765621;932988261;world;2.85E-05;1.23E-05;1.21E-05;-0.000116716;-1.18E-05;0.000121254;1
2024/05/03/12:47:01.943427;45177;1714765621;943195670;world;2.12E-05;3.06E-05;-3.59E-06;-1.36E-05;3.72E-05;6.10E-05;1
2024/05/03/12:47:01.963535;45178;1714765621;963136571;world;1.20E-05;-3.85E-05;1.86E-05;-1.80E-05;3.47E-05;0.000233716;1
2024/05/03/12:47:01.973417;45179;1714765621;973110104;world;2.16E-05;-5.62E-06;2.42E-05;1.13E-05;1.65E-05;8.97E-05;1
2024/05/03/12:47:02.003444;45180;1714765622;3148598;world;3.52E-05;1.64E-05;1.79E-05;-6.89E-05;2.07E-05;0.000107538;1
2024/05/03/12:47:02.003474;45181;1714765622;3188973;world;3.94E-05;1.09E-05;5.40E-08;-1.34E-05;3.13E-05;0.000130353;1
2024/05/03/12:47:02.023487;45182;1714765622;23168389;world;2.93E-05;2.79E-05;1.16E-05;-3.24E-05;4.26E-05;4.95E-05;1
2024/05/03/12:47:02.043262;45183;1714765622;42985650;world;2.53E-05;1.54E-05;1.43E-05;3.11E-06;8.98E-05;6.12E-05;1
2024/05/03/12:47:02.053545;45184;1714765622;52965032;world;2.44E-05;1.02E-06;1.91E-05;-6.39E-05;9.42E-06;0.00010031;1
2024/05/03/12:47:02.073568;45185;1714765622;73055664;world;2.21E-05;1.23E-05;1.04E-05;-2.08E-05;1.19E-05;-3.04E-05;1
2024/05/03/12:47:02.103393;45186;1714765622;102952565;world;3.07E-05;3.86E-05;1.20E-05;-9.40E-05;9.32E-06;5.29E-05;1
2024/05/03/12:47:02.103415;45187;1714765622;102989695;world;2.62E-05;4.65E-05;7.77E-06;-3.14E-05;5.50E-05;2.24E-05;1
2024/05/03/12:47:02.123231;45188;1714765622;122939700;world;3.61E-05;7.84E-06;1.03E-05;-9.57E-06;4.65E-05;5.12E-05;1
2024/05/03/12:47:02.133361;45189;1714765622;132963791;world;2.12E-05;-3.19E-06;2.92E-06;-6.29E-05;3.12E-05;9.40E-05;1
2024/05/03/12:47:02.153400;45190;1714765622;153124584;world;2.73E-05;1.77E-05;9.46E-06;-3.30E-05;1.93E-05;0.000115921;1
2024/05/03/12:47:02.163678;45191;1714765622;163141747;world;-7.82E-08;-2.84E-05;1.50E-05;-6.31E-05;5.09E-05;0.000110769;1
2024/05/03/12:47:02.183085;45192;1714765622;182889629;world;4.06E-05;1.70E-05;2.00E-05;-3.42E-05;4.20E-05;7.15E-05;1
2024/05/03/12:47:02.203664;45193;1714765622;202930264;world;6.28E-06;2.14E-05;7.27E-06;-4.78E-05;2.52E-06;3.39E-05;1
2024/05/03/12:47:02.213300;45194;1714765622;212977708;world;2.64E-05;3.97E-05;-6.16E-07;-0.000109376;2.23E-05;0.000135903;1
2024/05/03/12:47:02.223763;45195;1714765622;223351177;world;2.79E-05;2.13E-05;2.13E-05;-8.36E-05;-2.94E-05;8.07E-05;1
2024/05/03/12:47:02.243794;45196;1714765622;243177115;world;2.21E-05;3.19E-06;2.39E-05;-3.84E-05;6.49E-05;0.00011603;1
2024/05/03/12:47:02.263546;45197;1714765622;262867820;world;2.01E-05;1.75E-05;-6.62E-06;-3.71E-05;2.26E-05;0.000103647;1
2024/05/03/12:47:02.273698;45198;1714765622;273333568;world;1.33E-05;2.62E-05;-2.11E-07;-4.39E-05;1.22E-05;7.99E-05;1
2024/05/03/12:47:02.303794;45199;1714765622;303044856;world;1.67E-06;-3.10E-06;2.20E-05;-5.84E-05;2.51E-05;0.000115207;1
2024/05/03/12:47:02.303828;45200;1714765622;303090381;world;-9.75E-06;-1.31E-05;2.63E-05;-8.92E-05;-1.16E-05;0.000131759;1
2024/05/03/12:47:02.333266;45201;1714765622;332949401;world;1.95E-05;3.84E-05;1.95E-05;-5.09E-05;2.71E-05;6.36E-05;1
2024/05/03/12:47:02.333297;45202;1714765622;332986841;world;3.70E-05;1.89E-05;-3.81E-07;-2.72E-05;2.41E-05;8.01E-05;1
2024/05/03/12:47:02.353490;45203;1714765622;353206530;world;1.84E-05;2.65E-05;7.37E-06;-3.21E-05;3.80E-05;8.78E-05;1
2024/05/03/12:47:02.373705;45204;1714765622;373436744;world;3.44E-05;2.82E-05;1.28E-05;-1.99E-05;7.01E-05;6.71E-05;1
2024/05/03/12:47:02.383267;45205;1714765622;382964516;world;2.50E-05;4.37E-05;1.82E-05;-3.63E-05;2.21E-05;6.91E-05;1
2024/05/03/12:47:02.403610;45206;1714765622;403305435;world;5.68E-06;3.48E-05;6.26E-06;-0.000120393;5.56E-06;2.98E-06;1
2024/05/03/12:47:02.413214;45207;1714765622;412881904;world;1.94E-05;1.82E-05;2.50E-05;-4.80E-05;4.24E-05;6.45E-05;1
2024/05/03/12:47:02.443805;45208;1714765622;443195116;world;5.93E-06;-5.77E-08;3.61E-05;4.90E-05;-4.01E-05;8.12E-05;1
2024/05/03/12:47:02.443834;45209;1714765622;443233006;world;1.72E-05;1.78E-05;1.54E-05;-2.95E-05;-9.66E-06;9.48E-05;1
2024/05/03/12:47:02.463607;45210;1714765622;463231144;world;-8.80E-06;-4.83E-06;3.82E-06;-0.000105339;-5.99E-05;0.000113409;1
2024/05/03/12:47:02.473497;45211;1714765622;473023157;world;2.67E-05;2.86E-05;1.60E-05;-6.02E-05;-6.65E-06;8.21E-05;1
2024/05/03/12:47:02.493399;45212;1714765622;493047145;world;2.14E-05;8.85E-06;1.87E-05;-5.11E-05;3.23E-05;5.49E-05;1
2024/05/03/12:47:02.513369;45213;1714765622;512962269;world;2.45E-05;-1.35E-06;1.44E-05;-2.47E-05;-2.49E-05;0.000116617;1
2024/05/03/12:47:02.523585;45214;1714765622;523285535;world;2.67E-05;3.08E-05;1.60E-05;-8.68E-05;3.65E-05;9.94E-05;1
2024/05/03/12:47:02.543472;45215;1714765622;543136218;world;3.11E-05;4.05E-05;4.78E-06;-8.66E-05;4.26E-05;7.63E-05;1
2024/05/03/12:47:02.554338;45216;1714765622;553344269;world;3.02E-05;8.81E-06;1.06E-05;-2.57E-05;2.70E-05;5.51E-05;1
2024/05/03/12:47:02.573824;45217;1714765622;573379358;world;2.92E-05;-4.81E-07;1.19E-05;-5.82E-05;3.56E-06;0.000138666;1
2024/05/03/12:47:02.583596;45218;1714765622;583203710;world;1.33E-05;5.75E-06;1.79E-05;-8.97E-05;-3.86E-06;8.06E-05;1
2024/05/03/12:47:02.613464;45219;1714765622;613081826;world;5.81E-06;4.38E-05;2.35E-05;-3.73E-05;2.96E-05;-2.04E-06;1
2024/05/03/12:47:02.613494;45220;1714765622;613131239;world;2.09E-05;2.09E-05;1.51E-05;-3.28E-05;2.32E-05;7.50E-06;1
2024/05/03/12:47:02.644150;45221;1714765622;643791283;world;2.08E-05;1.55E-05;1.46E-05;-3.08E-05;6.67E-05;8.02E-05;1
2024/05/03/12:47:02.653158;45222;1714765622;652890379;world;2.07E-05;3.57E-05;2.37E-05;-9.29E-05;6.23E-06;4.90E-05;1
2024/05/03/12:47:02.663508;45223;1714765622;663070278;world;2.01E-05;4.53E-05;2.01E-07;-7.63E-05;5.03E-05;1.64E-05;1
2024/05/03/12:47:02.683298;45224;1714765622;682984099;world;1.63E-05;1.56E-05;5.03E-06;-8.84E-05;-9.14E-06;3.40E-05;1
2024/05/03/12:47:02.693326;45225;1714765622;692888616;world;1.44E-05;1.88E-05;-1.12E-06;-2.81E-05;4.32E-05;5.13E-05;1
2024/05/03/12:47:02.713626;45226;1714765622;713313212;world;1.84E-05;2.70E-05;4.04E-05;2.04E-05;-4.38E-06;-1.32E-05;1
2024/05/03/12:47:02.723519;45227;1714765622;723166440;world;2.60E-05;1.90E-05;1.64E-05;-3.76E-05;5.02E-06;4.13E-05;1
2024/05/03/12:47:02.753901;45228;1714765622;753397746;world;1.01E-05;1.28E-05;2.32E-06;1.08E-05;2.91E-05;5.45E-05;1
2024/05/03/12:47:02.753925;45229;1714765622;753439324;world;2.99E-05;2.92E-05;2.52E-05;-4.04E-05;-2.21E-05;3.49E-05;1
2024/05/03/12:47:02.773685;45230;1714765622;773104139;world;2.35E-05;2.73E-05;1.76E-05;-2.81E-05;0.00010463;9.71E-05;1
2024/05/03/12:47:02.793563;45231;1714765622;793231672;world;2.76E-05;2.26E-05;2.89E-06;-4.00E-05;5.93E-05;0.000111454;1
2024/05/03/12:47:02.803246;45232;1714765622;802945928;world;1.79E-05;2.23E-05;-7.84E-06;-9.50E-05;1.49E-05;6.96E-05;1
2024/05/03/12:47:02.823558;45233;1714765622;823177394;world;1.86E-05;2.72E-05;2.50E-05;-3.65E-05;-6.04E-05;6.46E-05;1
2024/05/03/12:47:02.863854;45234;1714765622;863411243;world;8.27E-06;1.32E-05;2.51E-05;-0.000105849;-2.45E-06;5.69E-05;1
2024/05/03/12:47:02.863870;45236;1714765622;863458421;world;2.65E-05;2.03E-05;3.83E-06;-2.52E-05;5.65E-06;7.22E-05;1
2024/05/03/12:47:02.883262;45237;1714765622;882934647;world;4.02E-06;9.20E-06;1.61E-05;2.10E-05;9.93E-06;4.89E-05;1
2024/05/03/12:47:02.893410;45238;1714765622;893045637;world;1.87E-05;2.16E-05;2.05E-05;-6.28E-05;9.56E-06;-1.51E-06;1
2024/05/03/12:47:02.923602;45239;1714765622;923214867;world;3.38E-05;4.15E-05;1.59E-05;-3.44E-05;3.73E-05;6.77E-05;1
2024/05/03/12:47:02.923626;45240;1714765622;923253169;world;3.51E-05;1.90E-05;8.64E-06;1.89E-05;6.09E-05;9.83E-05;1
2024/05/03/12:47:02.953418;45241;1714765622;953083526;world;2.00E-05;-3.54E-06;2.69E-05;-7.54E-05;2.58E-05;5.94E-05;1
2024/05/03/12:47:02.963564;45242;1714765622;963293730;world;3.40E-05;8.73E-06;1.77E-05;1.16E-06;2.01E-05;0.00015575;1
2024/05/03/12:47:02.973839;45243;1714765622;973397736;world;2.51E-05;4.25E-05;2.78E-05;-7.27E-05;-4.59E-05;1.49E-05;1
2024/05/03/12:47:02.993452;45244;1714765622;993184039;world;1.63E-05;5.13E-05;8.30E-06;-0.000113305;3.81E-05;2.86E-05;1
2024/05/03/12:47:03.004293;45245;1714765623;3457831;world;8.10E-06;3.18E-05;1.67E-05;-4.05E-05;5.34E-05;5.10E-05;1
2024/05/03/12:47:03.023416;45246;1714765623;23129192;world;4.22E-06;-4.43E-05;1.99E-05;-6.77E-05;-4.28E-05;0.000143464;1
2024/05/03/12:47:03.053323;45247;1714765623;52983082;world;1.20E-05;1.31E-05;2.37E-05;-8.49E-05;6.36E-06;0.000149799;1
2024/05/03/12:47:03.053350;45248;1714765623;53018889;world;1.69E-05;2.18E-05;5.26E-06;-8.71E-05;-3.89E-06;7.71E-05;1
2024/05/03/12:47:03.073315;45249;1714765623;72982124;world;2.24E-05;5.40E-06;9.11E-06;-3.73E-05;9.84E-06;5.03E-05;1
2024/05/03/12:47:03.083405;45250;1714765623;82978508;world;-1.04E-05;1.17E-05;4.25E-05;-6.24E-05;-8.88E-07;-7.28E-06;1
2024/05/03/12:47:03.103433;45251;1714765623;103067998;world;1.33E-05;3.22E-05;2.27E-05;-0.000103596;3.91E-06;4.59E-05;1
2024/05/03/12:47:03.124027;45252;1714765623;123614422;world;3.75E-05;3.96E-05;1.26E-05;-5.00E-05;2.75E-05;7.36E-05;1
2024/05/03/12:47:03.133491;45253;1714765623;133155176;world;1.60E-06;1.45E-05;1.67E-05;-6.43E-05;2.29E-05;4.20E-05;1
2024/05/03/12:47:03.163379;45254;1714765623;163039123;world;2.63E-05;-3.67E-06;2.29E-05;-1.57E-05;4.90E-05;0.000137467;1
2024/05/03/12:47:03.163416;45255;1714765623;163076883;world;3.85E-05;4.04E-05;1.81E-05;-0.000101566;1.26E-05;5.19E-05;1
2024/05/03/12:47:03.183743;45256;1714765623;183326464;world;2.05E-05;4.94E-05;5.27E-06;-4.03E-05;4.40E-05;8.99E-05;1
2024/05/03/12:47:03.193378;45257;1714765623;192987320;world;1.50E-05;4.77E-06;-5.27E-07;-0.000107012;3.13E-05;0.000139576;1
2024/05/03/12:47:03.213618;45258;1714765623;213289038;world;7.69E-06;1.42E-06;2.11E-05;-4.98E-05;8.04E-06;0.000168995;1
2024/05/03/12:47:03.223901;45259;1714765623;223421757;world;2.26E-05;-4.40E-06;2.45E-05;-4.47E-05;6.23E-06;0.000101062;1
2024/05/03/12:47:03.243596;45260;1714765623;243312275;world;1.74E-05;4.33E-05;1.52E-05;-7.28E-05;-2.94E-05;8.78E-05;1
2024/05/03/12:47:03.263738;45261;1714765623;263059485;world;1.68E-05;2.93E-05;1.00E-05;-6.66E-05;5.93E-05;9.28E-05;1
2024/05/03/12:47:03.273813;45262;1714765623;273373735;world;2.85E-05;1.66E-05;1.65E-05;-4.41E-05;8.90E-05;0.000130366;1
2024/05/03/12:47:03.293613;45263;1714765623;293267610;world;2.68E-05;1.74E-05;1.38E-05;-5.64E-05;-4.20E-06;6.45E-05;1
2024/05/03/12:47:03.303257;45264;1714765623;302939818;world;1.84E-05;6.18E-05;4.35E-06;-6.39E-05;4.95E-05;1.16E-05;1
2024/05/03/12:47:03.333735;45265;1714765623;333270191;world;2.67E-06;3.48E-05;6.57E-06;-7.34E-05;4.09E-05;3.00E-05;1
2024/05/03/12:47:03.333765;45266;1714765623;333310466;world;9.37E-06;-2.50E-06;2.31E-05;-8.23E-06;1.31E-06;9.77E-05;1
2024/05/03/12:47:03.363367;45267;1714765623;363043081;world;1.82E-05;-5.85E-06;2.35E-05;-1.88E-05;1.60E-05;0.000142043;1
2024/05/03/12:47:03.363402;45268;1714765623;363080080;world;2.20E-05;5.55E-05;1.88E-05;-0.000108686;3.03E-05;1.63E-05;1
2024/05/03/12:47:03.383411;45269;1714765623;383099819;world;1.66E-05;3.40E-05;9.99E-06;-5.86E-05;6.70E-05;8.54E-05;1
2024/05/03/12:47:03.403271;45270;1714765623;402942489;world;2.55E-05;6.16E-06;2.38E-06;-5.39E-05;7.69E-05;6.11E-05;1
2024/05/03/12:47:03.413484;45271;1714765623;413139518;world;3.35E-05;6.81E-06;2.89E-05;-5.71E-05;2.72E-06;8.93E-05;1
2024/05/03/12:47:03.433540;45272;1714765623;433291547;world;1.59E-05;4.16E-05;1.90E-05;-9.22E-05;-1.49E-05;4.02E-05;1
2024/05/03/12:47:03.443683;45273;1714765623;443339768;world;2.09E-05;2.31E-05;2.79E-06;-3.70E-05;8.88E-06;3.70E-05;1
2024/05/03/12:47:03.473384;45274;1714765623;473032357;world;1.80E-05;1.60E-05;2.61E-06;-0.000100786;1.49E-05;0.000121981;1
2024/05/03/12:47:03.473405;45275;1714765623;473069657;world;3.47E-05;-3.60E-06;2.20E-05;-2.43E-05;7.58E-06;0.000139232;1
2024/05/03/12:47:03.493548;45276;1714765623;493257481;world;2.57E-05;5.67E-05;2.66E-05;-2.82E-05;2.40E-05;2.04E-05;1
2024/05/03/12:47:03.503646;45277;1714765623;503182112;world;8.25E-06;4.49E-05;-5.32E-06;-8.19E-05;3.86E-05;6.36E-05;1
2024/05/03/12:47:03.533574;45278;1714765623;533212994;world;2.43E-05;2.31E-05;2.56E-05;-7.19E-05;5.25E-05;8.64E-05;1
2024/05/03/12:47:03.543567;45279;1714765623;543231230;world;3.86E-05;1.23E-05;2.63E-05;1.94E-06;4.23E-05;6.96E-05;1
2024/05/03/12:47:03.573380;45280;1714765623;572990646;world;-1.14E-06;4.42E-05;1.02E-05;-2.60E-05;1.07E-05;5.27E-05;1
2024/05/03/12:47:03.573407;45281;1714765623;573016504;world;5.55E-06;2.72E-05;4.19E-06;-0.000137607;-1.81E-05;7.26E-05;1
2024/05/03/12:47:03.583270;45282;1714765623;582929302;world;2.12E-05;2.97E-05;1.56E-05;-4.15E-05;-8.79E-06;9.38E-05;1
2024/05/03/12:47:03.603642;45283;1714765623;603248492;world;4.21E-05;3.21E-05;2.56E-05;-1.89E-05;4.80E-05;4.46E-05;1
2024/05/03/12:47:03.613677;45284;1714765623;613276241;world;1.33E-05;1.80E-05;2.06E-05;-9.45E-06;-4.14E-06;-1.00E-05;1
2024/05/03/12:47:03.633569;45285;1714765623;633023085;world;2.71E-05;2.56E-05;-5.09E-06;-0.000105217;7.57E-05;0.000141693;1
2024/05/03/12:47:03.643429;45286;1714765623;643014330;world;3.40E-06;3.01E-05;6.18E-06;-7.90E-05;4.01E-05;4.25E-05;1
2024/05/03/12:47:03.683454;45287;1714765623;683176720;world;1.55E-05;2.97E-05;3.15E-05;-4.85E-05;1.19E-05;8.65E-05;1
2024/05/03/12:47:03.683490;45288;1714765623;683215683;world;2.85E-05;2.15E-05;2.15E-05;-9.02E-05;8.48E-06;6.98E-05;1
2024/05/03/12:47:03.694298;45289;1714765623;693328575;world;1.71E-05;5.73E-05;1.45E-05;-8.22E-05;-1.82E-06;3.90E-05;1
2024/05/03/12:47:03.714005;45290;1714765623;713664055;world;1.78E-05;5.72E-05;1.01E-05;-9.01E-05;1.05E-05;-9.82E-06;1
2024/05/03/12:47:03.733587;45291;1714765623;733190783;world;1.08E-05;4.46E-05;7.91E-06;-7.21E-05;7.04E-05;8.21E-05;1
2024/05/03/12:47:03.743919;45292;1714765623;743535554;world;1.59E-05;2.20E-05;1.43E-05;-5.40E-05;3.84E-05;0.000110016;1
2024/05/03/12:47:03.763286;45293;1714765623;762980083;world;1.20E-05;4.07E-05;7.31E-06;-0.000110279;3.58E-05;3.67E-05;1
2024/05/03/12:47:03.783324;45294;1714765623;783007187;world;2.54E-05;1.89E-05;4.88E-06;-6.50E-05;4.79E-06;0.000113999;1
2024/05/03/12:47:03.793617;45295;1714765623;793321778;world;1.66E-05;4.76E-05;3.48E-05;-0.000112501;2.52E-05;3.28E-05;1
2024/05/03/12:47:03.803697;45296;1714765623;803338677;world;1.90E-05;1.52E-05;9.21E-06;-3.86E-05;-1.97E-05;8.01E-05;1
2024/05/03/12:47:03.823854;45297;1714765623;823187140;world;7.24E-06;1.39E-05;1.40E-05;-5.33E-05;-2.28E-05;4.45E-05;1
2024/05/03/12:47:03.843503;45298;1714765623;843132851;world;1.62E-05;4.80E-05;2.25E-05;-5.45E-05;1.47E-05;1.50E-05;1
2024/05/03/12:47:03.853454;45299;1714765623;853129206;world;2.37E-05;3.13E-05;1.89E-05;-5.05E-05;3.78E-06;5.49E-05;1
2024/05/03/12:47:03.863272;45300;1714765623;862957666;world;5.94E-06;1.17E-05;1.05E-05;-2.39E-05;-6.17E-06;8.60E-05;1
2024/05/03/12:47:03.883798;45301;1714765623;883209119;world;1.34E-05;2.81E-05;2.29E-05;-2.77E-05;4.67E-05;9.34E-05;1
2024/05/03/12:47:03.893750;45302;1714765623;893396441;world;2.75E-05;4.25E-05;2.28E-05;-0.000127542;2.46E-05;0.000106516;1
2024/05/03/12:47:03.913485;45303;1714765623;913114026;world;3.08E-05;2.25E-05;1.45E-05;-6.60E-05;-2.86E-06;8.48E-05;1
2024/05/03/12:47:03.933998;45304;1714765623;933356829;world;3.72E-05;2.04E-05;3.44E-06;-2.48E-06;4.34E-05;0.000126291;1
2024/05/03/12:47:03.953660;45305;1714765623;953348862;world;1.49E-05;2.05E-05;2.15E-05;-9.70E-05;-1.50E-05;5.03E-05;1
2024/05/03/12:47:03.973862;45306;1714765623;973401683;world;1.14E-05;1.80E-05;9.65E-06;-3.69E-05;3.51E-05;7.08E-05;1
2024/05/03/12:47:03.983372;45307;1714765623;983031768;world;2.33E-05;1.76E-05;1.15E-05;-5.46E-05;5.35E-05;0.000145992;1
2024/05/03/12:47:03.993715;45308;1714765623;993316694;world;2.13E-05;2.84E-05;1.13E-05;-3.63E-05;3.56E-05;0.000140389;1
2024/05/03/12:47:04.003710;45309;1714765624;3352100;world;2.69E-05;8.12E-06;1.68E-05;-6.27E-05;-4.41E-06;8.03E-05;1
2024/05/03/12:47:04.023339;45310;1714765624;23008536;world;4.07E-05;3.37E-05;-5.90E-07;-9.50E-05;2.71E-05;0.000178931;1
2024/05/03/12:47:04.043378;45311;1714765624;43107300;world;2.31E-05;3.58E-05;2.15E-05;-4.38E-05;2.17E-05;8.00E-05;1
2024/05/03/12:47:04.053447;45312;1714765624;53157910;world;1.96E-05;1.69E-05;1.28E-05;-8.37E-05;1.97E-05;0.000108245;1
2024/05/03/12:47:04.073187;45313;1714765624;72935257;world;8.84E-06;2.19E-05;1.40E-05;-7.34E-05;-2.12E-05;7.62E-05;1
2024/05/03/12:47:04.083400;45314;1714765624;83134281;world;1.66E-05;1.87E-05;1.71E-05;-9.63E-05;-2.92E-05;6.58E-05;1
2024/05/03/12:47:04.103222;45315;1714765624;102960529;world;1.55E-05;4.02E-05;2.88E-05;-7.03E-05;-2.26E-06;1.33E-05;1
2024/05/03/12:47:04.113559;45316;1714765624;113160015;world;1.48E-05;4.34E-05;1.49E-05;-8.23E-06;6.94E-06;2.91E-05;1
2024/05/03/12:47:04.133617;45317;1714765624;133129742;world;1.50E-05;2.24E-05;1.58E-05;-4.64E-05;6.77E-06;6.86E-05;1
2024/05/03/12:47:04.153525;45318;1714765624;153107724;world;2.07E-05;2.66E-05;1.80E-05;-5.88E-05;3.26E-05;0.000117511;1
2024/05/03/12:47:04.193425;45319;1714765624;192968822;world;2.73E-05;2.97E-05;1.61E-05;2.01E-06;-9.94E-06;8.68E-05;1
2024/05/03/12:47:04.193435;45321;1714765624;193064370;world;1.06E-05;3.90E-05;1.09E-05;-6.52E-05;-6.34E-06;4.69E-05;1
2024/05/03/12:47:04.213327;45322;1714765624;212976905;world;2.24E-05;1.02E-06;1.78E-05;-0.000101961;1.99E-05;0.000115937;1
2024/05/03/12:47:04.223504;45323;1714765624;223150921;world;2.77E-05;3.47E-05;3.28E-05;-2.95E-05;3.11E-05;5.74E-05;1
2024/05/03/12:47:04.253951;45324;1714765624;253768857;world;3.46E-05;3.75E-05;6.90E-06;-5.23E-06;4.78E-05;0.00013326;1
2024/05/03/12:47:04.264699;45325;1714765624;263918863;world;2.04E-05;2.93E-05;9.39E-06;-2.96E-05;5.29E-05;4.99E-05;1
2024/05/03/12:47:04.283791;45326;1714765624;283414113;world;1.37E-05;2.49E-05;2.57E-05;8.79E-06;3.92E-05;0.000134059;1
2024/05/03/12:47:04.293311;45327;1714765624;293004770;world;8.96E-06;4.51E-05;1.51E-05;-1.85E-05;1.81E-05;3.81E-05;1
2024/05/03/12:47:04.303430;45328;1714765624;303161678;world;-1.08E-05;-1.02E-05;2.13E-05;-6.97E-05;-3.09E-05;7.11E-05;1
2024/05/03/12:47:04.323598;45329;1714765624;323353200;world;1.32E-05;1.81E-05;1.91E-05;-9.16E-05;-8.79E-06;2.65E-05;1
2024/05/03/12:47:04.333490;45330;1714765624;333247415;world;1.94E-05;2.03E-05;3.03E-05;-0.000116644;1.51E-06;6.96E-05;1
2024/05/03/12:47:04.353326;45331;1714765624;353095143;world;1.81E-05;3.96E-05;3.20E-05;-3.56E-05;-1.77E-05;5.48E-05;1
2024/05/03/12:47:04.363339;45332;1714765624;363049550;world;7.51E-06;4.51E-05;1.00E-05;-7.65E-05;-1.26E-05;1.26E-05;1
2024/05/03/12:47:04.413288;45333;1714765624;413011578;world;1.98E-05;3.01E-05;2.28E-05;-5.14E-05;3.54E-05;2.64E-05;1
2024/05/03/12:47:04.413311;45335;1714765624;413058696;world;1.76E-05;3.29E-05;2.00E-05;3.19E-05;6.70E-05;3.16E-05;1
2024/05/03/12:47:04.433566;45336;1714765624;433324361;world;1.95E-05;2.88E-05;1.03E-05;-3.27E-05;1.51E-05;6.13E-05;1
2024/05/03/12:47:04.454227;45337;1714765624;453221017;world;1.10E-05;5.36E-05;2.61E-05;-5.77E-05;-1.81E-05;2.74E-05;1
2024/05/03/12:47:04.463114;45338;1714765624;462905607;world;1.17E-05;2.66E-05;9.95E-06;-2.57E-05;7.68E-05;8.28E-05;1
2024/05/03/12:47:04.483831;45339;1714765624;483421857;world;2.39E-05;9.34E-06;1.96E-05;-0.000118258;3.50E-05;5.24E-05;1
2024/05/03/12:47:04.493625;45340;1714765624;493365563;world;6.70E-06;3.30E-05;2.05E-05;-4.66E-05;1.19E-05;0.000127268;1
2024/05/03/12:47:04.504120;45341;1714765624;503693376;world;1.53E-05;5.17E-05;2.62E-05;-5.13E-05;-1.88E-05;4.71E-06;1
2024/05/03/12:47:04.523514;45342;1714765624;523181853;world;-1.21E-07;2.39E-05;3.38E-05;-2.05E-05;-1.17E-05;2.38E-05;1
2024/05/03/12:47:04.543552;45343;1714765624;543195472;world;1.89E-05;5.01E-05;2.56E-05;-5.60E-05;5.95E-06;2.75E-05;1
2024/05/03/12:47:04.553571;45344;1714765624;553301063;world;1.00E-05;5.66E-05;3.01E-05;-4.55E-05;1.40E-05;2.87E-05;1
2024/05/03/12:47:04.573575;45345;1714765624;573251623;world;2.21E-05;5.67E-05;2.51E-05;-9.01E-05;3.80E-05;1.97E-05;1
2024/05/03/12:47:04.593456;45346;1714765624;593166907;world;1.66E-05;3.59E-05;7.97E-06;-2.61E-05;5.50E-05;7.61E-05;1
2024/05/03/12:47:04.603282;45347;1714765624;602970881;world;3.45E-05;2.66E-05;2.44E-05;-2.61E-05;3.13E-06;3.12E-05;1
2024/05/03/12:47:04.613392;45348;1714765624;613123640;world;2.27E-05;2.36E-05;3.37E-05;-2.47E-05;-3.01E-05;9.57E-06;1
2024/05/03/12:47:04.633536;45349;1714765624;633139603;world;1.53E-05;4.70E-05;1.72E-05;-6.53E-05;4.31E-05;2.23E-05;1
2024/05/03/12:47:04.643418;45350;1714765624;643107834;world;2.67E-05;2.85E-05;-2.28E-06;-1.54E-05;1.95E-05;1.72E-05;1
2024/05/03/12:47:04.663769;45351;1714765624;663150848;world;3.04E-05;5.38E-05;2.13E-05;-3.68E-05;6.70E-05;0.000100872;1
2024/05/03/12:47:04.713312;45352;1714765624;713005706;world;2.24E-05;2.70E-05;3.56E-05;-2.85E-05;1.94E-05;0.000100455;1
2024/05/03/12:47:04.713337;45354;1714765624;713050159;world;2.27E-05;2.02E-05;1.40E-05;-9.19E-05;5.75E-05;5.67E-05;1
2024/05/03/12:47:04.723667;45355;1714765624;723335914;world;1.00E-05;9.02E-06;2.30E-05;-0.000104579;-1.86E-05;0.000116793;1
2024/05/03/12:47:04.743288;45356;1714765624;742961487;world;1.70E-05;4.61E-05;2.46E-05;-2.17E-05;5.01E-05;8.11E-05;1
2024/05/03/12:47:04.763707;45357;1714765624;763326713;world;1.75E-05;3.87E-05;2.20E-05;-0.000114137;-7.45E-06;3.43E-05;1
2024/05/03/12:47:04.773425;45358;1714765624;773086256;world;1.19E-05;4.48E-05;5.41E-06;-2.85E-06;4.88E-05;6.72E-05;1
2024/05/03/12:47:04.783737;45359;1714765624;783344399;world;9.07E-06;2.61E-05;2.90E-05;-1.01E-05;3.76E-06;6.18E-05;1
2024/05/03/12:47:04.803599;45360;1714765624;803284461;world;2.10E-05;4.09E-05;2.40E-05;-5.10E-05;3.91E-05;0.000100778;1
2024/05/03/12:47:04.823491;45361;1714765624;823070153;world;9.98E-06;4.51E-05;1.88E-05;-4.70E-05;4.59E-05;5.52E-05;1
2024/05/03/12:47:04.833421;45362;1714765624;833128956;world;3.02E-05;2.50E-05;1.36E-05;-5.83E-05;8.70E-06;4.55E-05;1
2024/05/03/12:47:04.863284;45363;1714765624;862977366;world;3.76E-06;2.27E-05;2.75E-05;-3.95E-05;6.22E-06;3.50E-05;1
2024/05/03/12:47:04.863311;45364;1714765624;863011831;world;1.61E-05;0.000192741;3.23E-05;7.60E-05;-1.05E-05;0.000189016;1
2024/05/03/12:47:04.913178;45365;1714765624;912881347;world;6.80E-05;0.000925746;0.000101391;0.000232587;7.46E-05;0.000437551;0.999999881
2024/05/03/12:47:04.913208;45367;1714765624;912925499;world;0.000310082;0.002979812;0.00026664;0.001288725;0.001354168;0.00081676;0.999997973
2024/05/03/12:47:04.923531;45368;1714765624;923291384;world;0.000310617;0.003685741;0.000324378;0.001504671;0.001533172;0.00080976;0.999997377
2024/05/03/12:47:04.943629;45369;1714765624;943345464;world;0.000341959;0.006499285;0.000271822;0.001156217;0.00102267;0.001213039;0.999998093
2024/05/03/12:47:04.963368;45370;1714765624;962955834;world;0.000201173;0.009055825;-1.96E-06;7.50E-05;-0.000338157;-0.000258687;0.999999881
2024/05/03/12:47:04.983638;45371;1714765624;982973881;world;0.000184448;0.011005128;7.63E-05;0.000122053;-8.32E-06;-0.000233049;1
2024/05/03/12:47:05.003317;45372;1714765625;3029839;world;0.000209127;0.011986211;0.00013481;0.000126636;6.36E-05;7.47E-05;1
2024/05/03/12:47:05.003353;45373;1714765625;3063652;world;0.000304962;0.013873201;0.000182321;0.00037498;3.85E-05;0.000614695;0.999999762
2024/05/03/12:47:05.023227;45374;1714765625;22940247;world;0.000410479;0.01564239;0.000402511;0.001083779;0.001238979;0.001704697;0.999997258
2024/05/03/12:47:05.033670;45375;1714765625;33236953;world;0.000584645;0.017669009;0.000477079;0.001256471;0.00181711;0.001780608;0.999995947
2024/05/03/12:47:05.073637;45376;1714765625;73294129;world;0.000715997;0.019849889;0.000282309;0.000846436;0.001012004;0.001560567;0.999997973
2024/05/03/12:47:05.073666;45377;1714765625;73336147;world;0.000420367;0.022434372;0.00020094;-0.00012772;-0.000398736;-6.19E-05;0.999999881
2024/05/03/12:47:05.123811;45378;1714765625;123451752;world;0.000432823;0.023433471;0.000225458;0.000116262;-0.000138396;-0.000182952;1
2024/05/03/12:47:05.123822;45380;1714765625;123505763;world;0.000573676;0.026764315;0.000492834;0.000393097;0.000692082;0.001584584;0.99999845
2024/05/03/12:47:05.133470;45381;1714765625;133159396;world;0.000710774;0.028434776;0.00053859;0.001138777;0.001405228;0.002137565;0.999996066
2024/05/03/12:47:05.153455;45382;1714765625;153148419;world;0.000916462;0.030174457;0.000458367;0.000918346;0.001245111;0.002288671;0.999996185
2024/05/03/12:47:05.173700;45383;1714765625;173151810;world;0.000714922;0.032147828;0.000432751;4.62E-05;0.000424059;0.000688872;0.999999702
2024/05/03/12:47:05.183485;45384;1714765625;183165799;world;0.000587535;0.033005327;0.000483687;-0.000261034;0.000336734;7.64E-05;0.999999881
2024/05/03/12:47:05.193576;45385;1714765625;193293254;world;0.000551811;0.034381192;0.000458573;-6.94E-05;-3.43E-05;0.000342841;1
2024/05/03/12:47:05.213300;45386;1714765625;213020490;world;0.000621369;0.03550598;0.000433962;0.000264491;0.00026402;0.00076317;0.999999642
2024/05/03/12:47:05.223255;45387;1714765625;222949982;world;0.000659537;0.036616772;0.000482354;0.000488878;0.000507844;0.001083457;0.999999166
2024/05/03/12:47:05.243521;45388;1714765625;243185885;world;0.000709187;0.037591286;0.000584816;0.00061455;0.000634379;0.00154984;0.99999845
2024/05/03/12:47:05.263438;45389;1714765625;263085803;world;0.00073795;0.038557362;0.000662293;0.00061606;0.000767772;0.001906777;0.999997735
2024/05/03/12:47:05.273481;45390;1714765625;273159291;world;0.000713404;0.039495341;0.000631599;0.000602565;0.000814986;0.001841098;0.999997854
2024/05/03/12:47:05.293403;45391;1714765625;293057905;world;0.000823084;0.040471129;0.000580316;0.000279169;0.000448376;0.001587273;0.999998689
2024/05/03/12:47:05.313351;45392;1714765625;312954136;world;0.000743028;0.041709166;0.0004615;-5.27E-05;-5.79E-05;0.000383505;1
2024/05/03/12:47:05.323519;45393;1714765625;323326814;world;0.000743087;0.042114697;0.000493725;2.56E-05;0.000208211;0.00036079;1
2024/05/03/12:47:05.333237;45394;1714765625;332947575;world;0.00077734;0.042782899;0.00054293;0.000167911;0.000438819;0.000374888;0.999999881
2024/05/03/12:47:05.353394;45395;1714765625;353072193;world;0.000798266;0.043444119;0.000586491;0.000357858;0.000398028;0.000358447;0.999999881
2024/05/03/12:47:05.374244;45396;1714765625;373536957;world;0.000775509;0.044042051;0.000580681;0.000150435;0.000338449;0.000573731;0.999999762
2024/05/03/12:47:05.383331;45397;1714765625;383058685;world;0.000755752;0.044672739;0.000621167;-3.76E-05;0.000206635;0.000486108;0.999999881
2024/05/03/12:47:05.423566;45398;1714765625;423296315;world;0.000733621;0.045312129;0.000610649;6.59E-05;0.00020044;0.000733799;0.999999762
2024/05/03/12:47:05.423588;45399;1714765625;423334005;world;0.000747684;0.045856912;0.000638846;9.68E-05;0.0002236;0.000779899;0.999999642
2024/05/03/12:47:05.433682;45400;1714765625;433326192;world;0.001063664;0.046076529;0.000735835;0.000581905;0.000844176;0.002146105;0.999997258
2024/05/03/12:47:05.443360;45401;1714765625;442984837;world;0.000972166;0.046685308;0.000980922;0.00106825;0.00195989;0.002193082;0.999995112
2024/05/03/12:47:05.463379;45402;1714765625;463097289;world;0.000889182;0.046856321;0.000878685;0.001186758;0.001530132;0.00254636;0.999994874
2024/05/03/12:47:05.483960;45403;1714765625;482984171;world;0.000788361;0.047524109;0.000822927;0.000915627;0.001023021;0.002154622;0.999996781
2024/05/03/12:47:05.493850;45404;1714765625;493249129;world;0.000649637;0.048366942;0.000790462;0.000663519;0.000654676;0.001281545;0.999998808
2024/05/03/12:47:05.513486;45405;1714765625;513225279;world;0.000675097;0.048865058;0.000827453;0.00076315;0.000865251;0.001558608;0.999998093
2024/05/03/12:47:05.523344;45406;1714765625;523042519;world;0.000714103;0.049375743;0.000830966;0.001064165;0.000910464;0.001882264;0.999997258
2024/05/03/12:47:05.533499;45407;1714765625;533212499;world;0.000752283;0.0499648;0.000883682;0.001334135;0.001365793;0.002054319;0.999996066
2024/05/03/12:47:05.553559;45408;1714765625;553230675;world;0.000793634;0.05029349;0.000903715;0.001417534;0.001482769;0.002115773;0.999995708
2024/05/03/12:47:05.583815;45409;1714765625;583513480;world;0.000778796;0.050939679;0.000917644;0.001296665;0.001630583;0.002015814;0.999995828
2024/05/03/12:47:05.583838;45410;1714765625;583549667;world;0.00075979;0.051588371;0.000913272;0.00132073;0.001740459;0.002067693;0.99999547
2024/05/03/12:47:05.623479;45411;1714765625;623100055;world;0.000824265;0.052176457;0.000963456;0.001638855;0.001922849;0.002351109;0.99999404
2024/05/03/12:47:05.623503;45412;1714765625;623137736;world;0.000881732;0.052968666;0.000945827;0.00128878;0.001950883;0.002398622;0.999994397
2024/05/03/12:47:05.633527;45413;1714765625;633211635;world;0.000932485;0.053771682;0.000928137;0.000956494;0.001318808;0.002372313;0.999995947
2024/05/03/12:47:05.653412;45414;1714765625;653153031;world;0.00075558;0.054937497;0.000756743;4.95E-05;-7.86E-05;0.00116531;0.999999344
2024/05/03/12:47:05.663697;45415;1714765625;663032605;world;0.000541212;0.055945925;0.000745863;0.000197886;-0.000146437;0.000174922;1
2024/05/03/12:47:05.673538;45416;1714765625;673245215;world;0.000546778;0.056316413;0.00075445;0.000436327;-1.63E-05;0.000288273;0.999999881
2024/05/03/12:47:05.693646;45417;1714765625;693367948;world;0.000605565;0.057081029;0.000767951;0.000437803;0.000209631;0.000416352;0.999999881
2024/05/03/12:47:05.723469;45418;1714765625;723116097;world;0.000606647;0.057894018;0.000818801;0.000249551;0.000301971;0.000341342;0.999999881
2024/05/03/12:47:05.733371;45419;1714765625;733120834;world;0.000875268;0.058721825;0.000894185;0.000629699;0.000895963;0.001762278;0.999997854
2024/05/03/12:47:05.743285;45420;1714765625;742964364;world;0.000961255;0.05950062;0.001100981;0.001363874;0.001887469;0.002013618;0.999995232
2024/05/03/12:47:05.763520;45421;1714765625;763184007;world;0.000904521;0.059962146;0.001181428;0.001581498;0.002073116;0.002049933;0.999994516
2024/05/03/12:47:05.773741;45422;1714765625;773336163;world;0.000637844;0.061023328;0.001026838;0.000969953;0.000792805;0.001373303;0.999998331
2024/05/03/12:47:05.793162;45423;1714765625;792895081;world;0.000781745;0.061864134;0.001067661;0.001255571;0.001248419;0.002124457;0.999996185
2024/05/03/12:47:05.803232;45424;1714765625;802948042;world;0.000771189;0.062796801;0.001099034;0.001187636;0.001566321;0.002329013;0.999995351
2024/05/03/12:47:05.823444;45425;1714765625;823162668;world;0.000776345;0.063247956;0.001105128;0.001187988;0.00157765;0.002324032;0.999995351
2024/05/03/12:47:05.833354;45426;1714765625;833065778;world;0.000843458;0.06404642;0.001082917;0.001232161;0.001733535;0.002516002;0.999994636
2024/05/03/12:47:05.853504;45427;1714765625;853165017;world;0.000886649;0.064867191;0.000949726;0.001038471;0.001063877;0.002471252;0.999995828
2024/05/03/12:47:05.863207;45428;1714765625;862925281;world;0.000720501;0.066279598;0.000842884;0.00016368;-0.000266684;0.001051369;0.999999464
2024/05/03/12:47:05.883550;45429;1714765625;883290248;world;0.000591689;0.067318879;0.000852307;-0.000106238;-0.000529171;0.000510635;0.999999762
2024/05/03/12:47:05.893584;45430;1714765625;893290795;world;0.00053532;0.068135656;0.000869757;0.00019183;-0.000372436;0.000711316;0.999999642
2024/05/03/12:47:05.934015;45431;1714765625;933663112;world;0.000571327;0.068959534;0.00094011;0.000410162;-0.000177911;0.000895966;0.999999523
2024/05/03/12:47:05.934049;45432;1714765625;933720960;world;0.000587201;0.069365472;0.000949411;0.000495671;-0.000171517;0.000954084;0.999999404
2024/05/03/12:47:05.943639;45433;1714765625;943373705;world;0.000590252;0.070259236;0.001016568;0.000545782;-0.000122089;0.001058695;0.999999285
2024/05/03/12:47:05.964130;45434;1714765625;963536661;world;0.000607427;0.071072057;0.001039019;0.000525935;6.71E-05;0.001077399;0.999999285
2024/05/03/12:47:05.973464;45435;1714765625;973067312;world;0.000632102;0.071922019;0.001057432;0.000713892;0.000285415;0.001096734;0.999999166
2024/05/03/12:47:05.993571;45436;1714765625;993229746;world;0.000756809;0.072767131;0.001118461;0.000620557;0.000262314;0.001504631;0.999998689
2024/05/03/12:47:06.033425;45437;1714765626;33139983;world;0.000683904;0.073948756;0.001139692;0.000920182;0.000666834;0.002316395;0.999996662
2024/05/03/12:47:06.033448;45438;1714765626;33174177;world;0.000624264;0.07443583;0.00121444;0.001192873;0.001136243;0.002060534;0.999996543
2024/05/03/12:47:06.043668;45439;1714765626;43397797;world;0.000600193;0.075325526;0.001208224;0.00109726;0.001526421;0.002232958;0.999995828
2024/05/03/12:47:06.053461;45440;1714765626;53156408;world;0.000796001;0.076167077;0.001126585;0.000781467;0.000818769;0.002399871;0.999996543
2024/05/03/12:47:06.073447;45441;1714765626;73126526;world;0.000730105;0.076857358;0.001049891;0.00042252;0.000317107;0.001505597;0.999998808
2024/05/03/12:47:06.093669;45442;1714765626;93408242;world;0.000682116;0.077867731;0.001004894;1.15E-05;-9.77E-05;0.000873306;0.999999642
2024/05/03/12:47:06.103613;45443;1714765626;103380156;world;0.000671405;0.079169221;0.001153222;0.000186509;-2.65E-05;0.000919668;0.999999642
2024/05/03/12:47:06.133475;45444;1714765626;133196188;world;0.000674067;0.079550445;0.001155;0.000326769;0.000114511;0.000970893;0.999999523
2024/05/03/12:47:06.133501;45445;1714765626;133230642;world;0.000694258;0.080331564;0.001150822;0.000395495;0.00013212;0.001230558;0.999999166
2024/05/03/12:47:06.153289;45446;1714765626;152955251;world;0.000708766;0.08112672;0.001205208;0.00057091;0.00017468;0.001133643;0.999999166
2024/05/03/12:47:06.163404;45447;1714765626;163098511;world;0.000675723;0.081993535;0.001099074;0.000965027;-0.000273562;0.001055927;0.999998927
2024/05/03/12:47:06.173765;45448;1714765626;173453287;world;0.000681907;0.082391158;0.00110475;0.001006827;-0.000230312;0.001162101;0.999998808
2024/05/03/12:47:06.193770;45449;1714765626;193461276;world;0.000704659;0.083557978;0.001193418;0.000805402;1.22E-05;0.001470788;0.999998569
2024/05/03/12:47:06.213244;45450;1714765626;212972205;world;0.000703521;0.083979577;0.001171218;0.00074179;0.000164709;0.001570711;0.99999845
2024/05/03/12:47:06.223676;45451;1714765626;223354161;world;0.000714047;0.084774695;0.001215651;0.000844704;0.000430848;0.002249933;0.99999702
2024/05/03/12:47:06.243917;45452;1714765626;243538321;world;0.000615915;0.0855278;0.001299042;0.001145268;0.000842793;0.002589356;0.999995708
2024/05/03/12:47:06.253529;45453;1714765626;252982452;world;0.000899659;0.086234853;0.001355815;0.001660377;0.001583241;0.003487748;0.999991298
2024/05/03/12:47:06.273514;45454;1714765626;273194472;world;0.000769459;0.087077737;0.001262962;0.001176496;0.001168679;0.002952081;0.999994278
2024/05/03/12:47:06.293647;45455;1714765626;293289695;world;0.000602413;0.088398106;0.001060478;0.000244051;-0.000321421;0.001340227;0.999999046
2024/05/03/12:47:06.303693;45456;1714765626;303411004;world;0.000607518;0.089175664;0.001107773;0.000305865;-0.000240762;0.001253452;0.999999166
2024/05/03/12:47:06.323649;45457;1714765626;323390324;world;0.000586404;0.089554161;0.001115887;0.000196235;-0.000285076;0.001269335;0.999999166
2024/05/03/12:47:06.333483;45458;1714765626;333152074;world;0.000547579;0.090834975;0.001246504;0.000352236;-0.000102965;0.001012855;0.999999404
2024/05/03/12:47:06.353404;45459;1714765626;352990657;world;0.000570936;0.09124206;0.001265887;0.000407266;-4.51E-05;0.001182492;0.999999285
2024/05/03/12:47:06.363480;45460;1714765626;363126173;world;0.000630593;0.091957957;0.001300828;0.000450108;-8.32E-05;0.001516159;0.999998808
2024/05/03/12:47:06.383498;45461;1714765626;382995872;world;0.000639365;0.092731953;0.001325028;0.000560319;7.26E-05;0.001639389;0.999998569
2024/05/03/12:47:06.403394;45462;1714765626;403041652;world;0.00068458;0.093550101;0.001356315;0.000868121;0.000278869;0.001633929;0.999998331
2024/05/03/12:47:06.413446;45463;1714765626;413127475;world;0.000769494;0.09433841;0.001401261;0.001041226;0.000247708;0.001973561;0.999997497
2024/05/03/12:47:06.443695;45464;1714765626;443265789;world;0.000853147;0.095158547;0.001331442;0.001079308;0.000599982;0.002582292;0.999995947
2024/05/03/12:47:06.453313;45465;1714765626;452980196;world;0.000932835;0.095973812;0.001359593;0.000892714;0.000781896;0.002787492;0.99999547
2024/05/03/12:47:06.463771;45466;1714765626;463363241;world;0.000864644;0.096692406;0.001479759;0.001299329;0.001682553;0.003398821;0.999992013
2024/05/03/12:47:06.473510;45467;1714765626;473077794;world;0.000832766;0.097152494;0.00151174;0.001150621;0.001718184;0.003275821;0.99999249
2024/05/03/12:47:06.493533;45468;1714765626;493184547;world;0.000747068;0.098103255;0.001465563;0.000833292;0.001342448;0.003026586;0.999994159
2024/05/03/12:47:06.503354;45469;1714765626;503003360;world;0.000871932;0.09911032;0.001326435;0.000315309;0.000675379;0.002608254;0.999996305
2024/05/03/12:47:06.553605;45470;1714765626;553288964;world;0.000807076;0.100159407;0.001349514;0.000306563;0.000376743;0.00256018;0.999996662
2024/05/03/12:47:06.553628;45472;1714765626;553332966;world;0.000697764;0.101827621;0.001406714;0.000181739;0.000132712;0.002041794;0.999997973
2024/05/03/12:47:06.573909;45473;1714765626;573552732;world;0.000639939;0.102291942;0.001413452;0.00034858;1.98E-05;0.001712179;0.99999845
2024/05/03/12:47:06.583496;45474;1714765626;583207397;world;0.000654517;0.103081979;0.001429144;0.000527928;-2.33E-05;0.001838457;0.999998212
2024/05/03/12:47:06.603457;45475;1714765626;603163505;world;0.001016017;0.103828341;0.001570232;0.001183774;0.000862656;0.003590601;0.99999249
2024/05/03/12:47:06.613971;45476;1714765626;613602853;world;0.000968491;0.104218215;0.001723845;0.001552664;0.001694195;0.003419057;0.999991536
2024/05/03/12:47:06.643467;45477;1714765626;643128702;world;0.00074956;0.105148584;0.001607409;0.001109665;0.000775938;0.002996394;0.999994636
2024/05/03/12:47:06.656651;45478;1714765626;656330571;world;0.000619978;0.106164739;0.001520162;0.000605343;0.000704629;0.002667218;0.999996066
2024/05/03/12:47:06.663306;45479;1714765626;663081468;world;0.000720896;0.106849059;0.001524606;0.000762976;0.001089267;0.003478128;0.999993086
2024/05/03/12:47:06.683371;45480;1714765626;682980143;world;0.000799708;0.107642591;0.001545226;0.001166291;0.001438401;0.003870281;0.999990821
2024/05/03/12:47:06.713318;45481;1714765626;712952446;world;0.00079364;0.108086951;0.001520596;0.001394092;0.001562674;0.003895399;0.999990225
2024/05/03/12:47:06.713345;45482;1714765626;712996649;world;0.000772133;0.109047368;0.001575133;0.00137069;0.001423301;0.004280843;0.999988914
2024/05/03/12:47:06.733337;45483;1714765626;733077273;world;0.000748342;0.110088505;0.001580476;0.00139653;0.001266038;0.003810428;0.99999094
2024/05/03/12:47:06.743284;45484;1714765626;743056917;world;0.00070128;0.111037031;0.001544071;0.000839031;0.000820191;0.003349286;0.999993682
2024/05/03/12:47:06.753818;45485;1714765626;753612444;world;0.000692684;0.111936629;0.001551645;0.000564809;0.000587303;0.002885874;0.999995589
2024/05/03/12:47:06.773374;45486;1714765626;773090005;world;0.000740952;0.112873212;0.001614431;0.000315539;0.000510292;0.002668516;0.999996305
2024/05/03/12:47:06.793210;45487;1714765626;792897068;world;0.000719561;0.113685422;0.001666944;0.0002799;0.000543795;0.002700605;0.999996185
2024/05/03/12:47:06.813719;45488;1714765626;813362071;world;0.000670058;0.114487819;0.001582057;0.000457787;0.000320591;0.002842267;0.999995828
2024/05/03/12:47:06.823612;45489;1714765626;823330375;world;0.000633384;0.115343451;0.001528978;0.000728705;8.35E-06;0.002856653;0.999995708
2024/05/03/12:47:06.853555;45490;1714765626;853030859;world;0.000622902;0.115748301;0.001545458;0.000808328;8.22E-06;0.002926355;0.99999547
2024/05/03/12:47:06.853582;45491;1714765626;853063390;world;0.000925113;0.116211966;0.001581761;0.000830965;0.000394611;0.003867809;0.999992132
2024/05/03/12:47:06.863807;45492;1714765626;863449383;world;0.000977766;0.117006473;0.001825107;0.001449498;0.001600999;0.003857278;0.999990225
2024/05/03/12:47:06.883284;45493;1714765626;882980029;world;0.000940537;0.117771432;0.001945549;0.001655827;0.002310619;0.004105533;0.999987602
2024/05/03/12:47:06.893503;45494;1714765626;893162824;world;0.000945816;0.118650474;0.001941496;0.001841037;0.002488951;0.00472407;0.999984026
2024/05/03/12:47:06.913487;45495;1714765626;913181563;world;0.000894045;0.119491637;0.001876997;0.001694769;0.002076241;0.00463945;0.999985695
2024/05/03/12:47:06.963780;45496;1714765626;963128670;world;0.000817692;0.120017588;0.001839991;0.001371509;0.001896713;0.004395775;0.999987602
2024/05/03/12:47:06.963808;45498;1714765626;963182411;world;0.000873156;0.121687226;0.001834427;0.001410377;0.001865552;0.004508544;0.999987125
2024/05/03/12:47:06.973217;45499;1714765626;972913804;world;0.000920041;0.122480698;0.001880643;0.001986889;0.002282902;0.004665467;0.999984622
2024/05/03/12:47:06.993895;45500;1714765626;993538206;world;0.000956016;0.123308957;0.001834312;0.001866277;0.001804461;0.004577221;0.999986172
2024/05/03/12:47:07.023839;45501;1714765627;23118092;world;0.000814036;0.124478266;0.001672691;0.000679914;0.00017513;0.003634408;0.999993205
2024/05/03/12:47:07.023853;45502;1714765627;23150603;world;0.000685619;0.125457972;0.001755453;0.00053346;0.000110495;0.003011723;0.999995351
2024/05/03/12:47:07.053665;45503;1714765627;53312642;world;0.000707058;0.126138195;0.001773022;0.000834746;0.000134028;0.003442726;0.999993801
2024/05/03/12:47:07.063356;45504;1714765627;63022096;world;0.000680864;0.126905873;0.001770772;0.000887551;0.000470172;0.00345474;0.999993563
2024/05/03/12:47:07.073527;45505;1714765627;73201228;world;0.000685493;0.127715796;0.001794382;0.000891509;0.000486088;0.003623998;0.999992967
2024/05/03/12:47:07.084214;45506;1714765627;83903208;world;0.000875752;0.128316596;0.001796608;0.001697926;0.001091718;0.004340645;0.999988556
2024/05/03/12:47:07.113500;45507;1714765627;113152900;world;0.000916528;0.129113689;0.001918121;0.002498949;0.00208259;0.004658803;0.999983907
2024/05/03/12:47:07.113525;45508;1714765627;113186653;world;0.00084197;0.129544541;0.001938239;0.002507368;0.002142631;0.004508951;0.999984384
2024/05/03/12:47:07.133331;45509;1714765627;133053840;world;0.000837846;0.130466446;0.00195255;0.002477362;0.002172792;0.004405623;0.99998486
2024/05/03/12:47:07.153575;45510;1714765627;153199084;world;0.000786059;0.131414771;0.001885678;0.002015958;0.001592568;0.004483919;0.999986649
2024/05/03/12:47:07.163958;45511;1714765627;163574619;world;0.000807729;0.13225992;0.001887342;0.001823078;0.001415141;0.004515153;0.999987125
2024/05/03/12:47:07.183819;45512;1714765627;183669831;world;0.000832019;0.133048549;0.001957596;0.002113756;0.001537696;0.004609258;0.999985933
2024/05/03/12:47:07.193280;45513;1714765627;193042329;world;0.001003699;0.133835435;0.00196121;0.00217284;0.001674062;0.004869297;0.999984384
2024/05/03/12:47:07.223778;45514;1714765627;223287205;world;0.001077518;0.134294167;0.00189436;0.001973433;0.001361853;0.004712028;0.999986053
2024/05/03/12:47:07.223804;45515;1714765627;223328963;world;0.000826496;0.135537654;0.001792032;0.000815874;-4.69E-05;0.003317878;0.999994159
2024/05/03/12:47:07.263309;45516;1714765627;262996885;world;0.000861112;0.136787981;0.001838217;0.000677085;0.0001825;0.003413303;0.99999392
2024/05/03/12:47:07.263331;45517;1714765627;263037190;world;0.000894854;0.137162969;0.001847148;0.000628419;0.00025251;0.003540943;0.999993563
2024/05/03/12:47:07.273699;45518;1714765627;273312502;world;0.000826202;0.137920186;0.001809274;0.000633977;0.000316431;0.003187402;0.999994755
2024/05/03/12:47:07.283592;45519;1714765627;283297445;world;0.000812216;0.13873148;0.001853959;0.000878097;0.000393115;0.002909665;0.999995351
2024/05/03/12:47:07.303569;45520;1714765627;303181352;world;0.000818999;0.139536709;0.001891621;0.001036417;0.000659678;0.0032718;0.99999392
2024/05/03/12:47:07.323658;45521;1714765627;323161550;world;0.000794711;0.140047744;0.001928487;0.001241284;0.000680763;0.003793821;0.999991775
2024/05/03/12:47:07.333476;45522;1714765627;333175097;world;0.000937153;0.140791565;0.001989414;0.001827466;0.001373075;0.004464365;0.999987483
2024/05/03/12:47:07.363228;45523;1714765627;362957636;world;0.0009568;0.141556963;0.002044373;0.002449322;0.002016599;0.004633488;0.999984264
2024/05/03/12:47:07.363251;45524;1714765627;362992962;world;0.000919145;0.142422929;0.002063631;0.002574433;0.002291055;0.004878196;0.999982238
2024/05/03/12:47:07.383309;45525;1714765627;382965446;world;0.000960408;0.143257871;0.00208897;0.002557035;0.002382937;0.004810803;0.999982357
2024/05/03/12:47:07.393397;45526;1714765627;393110338;world;0.000897203;0.144143149;0.002022721;0.002343797;0.001946106;0.004624433;0.999984741
2024/05/03/12:47:07.433419;45527;1714765627;433126918;world;0.000974406;0.145030677;0.001861864;0.001656805;0.000713299;0.004238965;0.99998939
2024/05/03/12:47:07.433446;45528;1714765627;433156323;world;0.000777824;0.146188945;0.001785812;0.000954399;-0.000266752;0.002980007;0.999995112
2024/05/03/12:47:07.463892;45529;1714765627;463487951;world;0.000831425;0.146940216;0.001797821;0.000857159;-0.000276816;0.003259032;0.999994278
2024/05/03/12:47:07.463896;45530;1714765627;463528877;world;0.000859782;0.147342116;0.001829676;0.000845877;-0.000252253;0.003494063;0.999993563
2024/05/03/12:47:07.473310;45531;1714765627;472965795;world;0.000863578;0.148166299;0.001872706;0.000861704;-0.000276641;0.003412686;0.999993801
2024/05/03/12:47:07.493331;45532;1714765627;493084682;world;0.000837423;0.149011537;0.001931133;0.001084779;-4.39E-05;0.003214;0.999994278
2024/05/03/12:47:07.513357;45533;1714765627;513117337;world;0.000819659;0.149826542;0.001990248;0.001083881;-1.02E-05;0.003183827;0.999994397
2024/05/03/12:47:07.523495;45534;1714765627;523206702;world;0.000902515;0.150813505;0.001999274;0.001181757;0.000367586;0.002958271;0.999994874
2024/05/03/12:47:07.543684;45535;1714765627;543424570;world;0.000957249;0.151598215;0.002003462;0.001150546;0.000441588;0.003564858;0.999992967
2024/05/03/12:47:07.573478;45536;1714765627;573128761;world;0.000943735;0.152397856;0.002042109;0.001280051;0.000647517;0.003827335;0.999991655
2024/05/03/12:47:07.573514;45537;1714765627;573182482;world;0.000822725;0.153175443;0.002137166;0.001951211;0.001362049;0.003917462;0.99998951
2024/05/03/12:47:07.583561;45538;1714765627;583261538;world;0.000779996;0.154038161;0.002082897;0.001864222;0.001496713;0.00425884;0.999988079
2024/05/03/12:47:07.603455;45539;1714765627;603126663;world;0.00077812;0.154435053;0.002112883;0.001851898;0.001475878;0.004245959;0.999988198
2024/05/03/12:47:07.613364;45540;1714765627;613097221;world;0.000897404;0.155154064;0.002212966;0.002192764;0.001932502;0.004445469;0.999985933
2024/05/03/12:47:07.633496;45541;1714765627;633208883;world;0.000852251;0.156023651;0.002191829;0.002172243;0.001680789;0.004315753;0.999986887
2024/05/03/12:47:07.663281;45542;1714765627;662977076;world;0.001006249;0.156872094;0.002145808;0.001960938;0.001359641;0.004238565;0.999988198
2024/05/03/12:47:07.663309;45543;1714765627;663011060;world;0.000883743;0.157996997;0.002042541;0.000885688;0.000221359;0.002970463;0.999995232
2024/05/03/12:47:07.683935;45544;1714765627;683359976;world;0.000900133;0.158812881;0.002040852;0.000811563;0.000183117;0.002886027;0.99999547
2024/05/03/12:47:07.693431;45545;1714765627;693161889;world;0.000952404;0.159662053;0.002022418;0.001000846;-0.000168198;0.003294379;0.99999404
2024/05/03/12:47:07.713434;45546;1714765627;713132417;world;0.001046846;0.159944072;0.002077098;0.001385254;0.00038983;0.003786874;0.999991775
2024/05/03/12:47:07.733493;45547;1714765627;733178077;world;0.001028582;0.160854846;0.002043926;0.001201654;0.000146642;0.003522002;0.999993086
2024/05/03/12:47:07.743555;45548;1714765627;743237977;world;0.000924667;0.161806166;0.00206625;0.001316122;0.000578731;0.003305507;0.999993563
2024/05/03/12:47:07.773269;45549;1714765627;772989874;world;0.000843141;0.16265054;0.002136576;0.001577351;0.000840622;0.003178185;0.999993324
2024/05/03/12:47:07.773303;45550;1714765627;773027294;world;0.00087283;0.16341117;0.002167485;0.001393968;0.00096032;0.003396615;0.999992847
2024/05/03/12:47:07.793655;45551;1714765627;793338069;world;0.000898451;0.164202571;0.002203058;0.001677321;0.001233232;0.003583938;0.999991417
2024/05/03/12:47:07.803799;45552;1714765627;803434653;world;0.000850018;0.164645821;0.00217069;0.001611075;0.001371961;0.003718353;0.999990821
2024/05/03/12:47:07.823671;45553;1714765627;823405358;world;0.000837671;0.165910661;0.002272947;0.001873787;0.001574141;0.003979101;0.999989152
2024/05/03/12:47:07.833517;45554;1714765627;833230492;world;0.000846609;0.16633147;0.002278172;0.002115895;0.001582892;0.004028674;0.999988437
2024/05/03/12:47:07.893217;45555;1714765627;892923666;world;0.000816146;0.167137593;0.002282178;0.002240638;0.001415416;0.003862786;0.999989033
2024/05/03/12:47:07.903640;45556;1714765627;903252753;world;0.000861228;0.168030143;0.002246198;0.001471401;0.000625147;0.003662955;0.999992013
2024/05/03/12:47:07.903669;45558;1714765627;903300182;world;0.000781012;0.169882178;0.002300679;0.001054641;0.000133099;0.002914028;0.999995232
2024/05/03/12:47:07.913409;45559;1714765627;913097815;world;0.000873042;0.170640945;0.002341733;0.001083501;0.000250256;0.003125497;0.999994516
2024/05/03/12:47:07.933804;45560;1714765627;933385698;world;0.000903726;0.171484247;0.002346033;0.001305076;0.000506226;0.003368123;0.999993324
2024/05/03/12:47:07.943743;45561;1714765627;943428861;world;0.000913829;0.171923772;0.002349132;0.001330537;0.000590347;0.003536396;0.999992728
2024/05/03/12:47:07.973232;45562;1714765627;972931967;world;0.001127152;0.172535673;0.002444326;0.002306224;0.001746711;0.004480859;0.999985814
2024/05/03/12:47:07.973258;45563;1714765627;972966332;world;0.001052067;0.173441723;0.002436809;0.002861364;0.002037572;0.004633248;0.999983072
2024/05/03/12:47:07.993616;45564;1714765627;993330347;world;0.000948561;0.174408495;0.002335334;0.002011736;0.001176348;0.004253415;0.999988317
2024/05/03/12:47:08.003433;45565;1714765628;3160150;world;0.000881357;0.175351247;0.002351743;0.001578382;0.001075879;0.003878461;0.999990702
2024/05/03/12:47:08.023420;45566;1714765628;23048506;world;0.000827201;0.176149681;0.002372324;0.001730497;0.001384923;0.003919107;0.999989867
2024/05/03/12:47:08.043208;45567;1714765628;42868614;world;0.000785204;0.176964656;0.002311361;0.001799475;0.001231765;0.003790881;0.999990463
2024/05/03/12:47:08.053393;45568;1714765628;53084400;world;0.000801085;0.177340478;0.002335711;0.001643723;0.001194877;0.003801183;0.999990702
2024/05/03/12:47:08.063495;45569;1714765628;63200098;world;0.000875581;0.17816551;0.002411432;0.001538512;0.000909056;0.00417134;0.999989748
2024/05/03/12:47:08.093507;45570;1714765628;93194776;world;0.00091207;0.178965539;0.002503105;0.002052882;0.001389497;0.004249628;0.99998796
2024/05/03/12:47:08.103520;45571;1714765628;103148563;world;0.00092715;0.179815978;0.002471761;0.001735982;0.000595057;0.00407295;0.999990106
2024/05/03/12:47:08.113374;45572;1714765628;113073195;world;0.000763457;0.181038916;0.002431303;0.001500799;-0.000349763;0.002754555;0.999994993
2024/05/03/12:47:08.143710;45573;1714765628;143351441;world;0.000747645;0.181857198;0.002487315;0.001607073;-0.000274965;0.00288008;0.999994516
2024/05/03/12:47:08.153521;45574;1714765628;153205449;world;0.000808489;0.182571605;0.00248946;0.001559661;-8.45E-05;0.003290573;0.999993443
2024/05/03/12:47:08.163889;45575;1714765628;163531390;world;0.000838196;0.183352783;0.002462384;0.001449193;0.000332624;0.003699408;0.999992132
2024/05/03/12:47:08.183933;45576;1714765628;183522169;world;0.000885936;0.184108242;0.002524721;0.00141215;0.000413879;0.003921114;0.999991298
2024/05/03/12:47:08.193508;45577;1714765628;193189320;world;0.001092274;0.184705853;0.002637783;0.002007735;0.001588715;0.004801172;0.999985218
2024/05/03/12:47:08.213274;45578;1714765628;212886943;world;0.001069549;0.185130671;0.002642554;0.002202967;0.001849641;0.004840415;0.999984145
2024/05/03/12:47:08.223311;45579;1714765628;222952553;world;0.001083853;0.185986131;0.002622908;0.002418031;0.002125129;0.004864552;0.999983072
2024/05/03/12:47:08.243660;45580;1714765628;243254401;world;0.001107784;0.18686831;0.002689335;0.002685952;0.002625643;0.004896438;0.999981046
2024/05/03/12:47:08.263817;45581;1714765628;263436106;world;0.000995887;0.188167915;0.00271634;0.003161185;0.002598945;0.005015137;0.999979138
2024/05/03/12:47:08.283193;45582;1714765628;283011205;world;0.000944046;0.188646257;0.002712649;0.002926215;0.002195897;0.004938005;0.999981165
2024/05/03/12:47:08.293462;45583;1714765628;293114201;world;0.00087861;0.189539;0.002722837;0.002823602;0.001969143;0.004604449;0.999983549
2024/05/03/12:47:08.303579;45584;1714765628;303215192;world;0.000902629;0.189937428;0.002740306;0.0026699;0.001856881;0.004617363;0.999984026
2024/05/03/12:47:08.323277;45585;1714765628;322935616;world;0.000928557;0.191106886;0.002823385;0.002583591;0.001574013;0.004844047;0.999983668
2024/05/03/12:47:08.343289;45586;1714765628;342946464;world;0.000963543;0.191471696;0.002815647;0.002313498;0.001212807;0.004866485;0.999984741
2024/05/03/12:47:08.353492;45587;1714765628;353165206;world;0.000823284;0.192582682;0.00267746;0.001501694;-7.15E-06;0.003518576;0.999992728
2024/05/03/12:47:08.363382;45588;1714765628;363123073;world;0.000722134;0.19359675;0.002622794;0.001345261;-0.000238104;0.002961081;0.999994755
2024/05/03/12:47:08.383448;45589;1714765628;383132536;world;0.000764664;0.194368541;0.002606133;0.001431858;6.27E-05;0.003429452;0.999993086
2024/05/03/12:47:08.393280;45590;1714765628;392947413;world;0.000784572;0.195124283;0.002626556;0.001488107;0.000239283;0.003884458;0.999991298
2024/05/03/12:47:08.413387;45591;1714765628;413066279;world;0.000826545;0.195956573;0.002671651;0.001695074;0.000305873;0.004160772;0.999989867
2024/05/03/12:47:08.423358;45592;1714765628;423074196;world;0.000866255;0.196772844;0.002699895;0.001717756;0.000443016;0.004309591;0.999989152
2024/05/03/12:47:08.453603;45593;1714765628;453341803;world;0.00109322;0.197465509;0.002742715;0.002168277;0.001067146;0.004929295;0.99998498
2024/05/03/12:47:08.453609;45594;1714765628;453380104;world;0.001172615;0.197856724;0.002853;0.002646736;0.001850656;0.005010863;0.999982238
2024/05/03/12:47:08.503368;45595;1714765628;503073582;world;0.001074979;0.198618874;0.002854394;0.002789609;0.002113118;0.005315383;0.999979734
2024/05/03/12:47:08.503392;45596;1714765628;503109169;world;0.001089389;0.199457616;0.002916317;0.003070618;0.002446165;0.005321587;0.999978185
2024/05/03/12:47:08.513459;45597;1714765628;513142925;world;0.001005918;0.200291783;0.002990412;0.002894033;0.002208664;0.005123214;0.99998033
2024/05/03/12:47:08.523715;45598;1714765628;523499733;world;0.000939947;0.201213062;0.002953102;0.00268225;0.001667837;0.005009347;0.999982476
2024/05/03/12:47:08.553722;45599;1714765628;553340277;world;0.00094315;0.202011138;0.002963569;0.002678547;0.00144435;0.004773044;0.999984026
2024/05/03/12:47:08.553749;45600;1714765628;553378819;world;0.001008425;0.202452034;0.002877622;0.002030258;0.000496661;0.004613329;0.999987245
2024/05/03/12:47:08.573668;45601;1714765628;573400609;world;0.000806111;0.203602478;0.002864129;0.001492522;-1.20E-05;0.003357431;0.999993324
2024/05/03/12:47:08.593342;45602;1714765628;593082780;world;0.000867261;0.204427585;0.002943687;0.001819036;0.000153804;0.003527438;0.999992132
2024/05/03/12:47:08.603630;45603;1714765628;603048788;world;0.000854755;0.205227911;0.002868317;0.001721944;0.00013544;0.004146784;0.999989986
2024/05/03/12:47:08.613274;45604;1714765628;612994208;world;0.000814283;0.206114531;0.002898998;0.001749988;0.00034704;0.004205387;0.999989629
2024/05/03/12:47:08.633294;45605;1714765628;633061479;world;0.000823051;0.206886426;0.002893036;0.001807878;0.000448833;0.004309916;0.999989033
2024/05/03/12:47:08.653576;45606;1714765628;652957679;world;0.000878021;0.207655042;0.002883422;0.001840812;0.000279883;0.004477953;0.999988317
2024/05/03/12:47:08.663450;45607;1714765628;663175368;world;0.000897642;0.208469599;0.002859128;0.002090495;0.000309523;0.004555636;0.999987364
2024/05/03/12:47:08.693329;45608;1714765628;693045913;world;0.000839962;0.209246233;0.002984375;0.002614331;0.001111838;0.004949964;0.999983788
2024/05/03/12:47:08.693359;45609;1714765628;693082091;world;0.00092595;0.210024565;0.003127392;0.003206296;0.002333215;0.00520089;0.999978662
2024/05/03/12:47:08.713551;45610;1714765628;713199545;world;0.000914783;0.210416436;0.003159828;0.003426676;0.002546284;0.005196149;0.999977469
2024/05/03/12:47:08.723572;45611;1714765628;723246407;world;0.000950433;0.211237296;0.003185573;0.003754376;0.002821514;0.005153998;0.999975681
2024/05/03/12:47:08.743171;45612;1714765628;742875777;world;0.00089865;0.212090746;0.003153132;0.003379392;0.002171661;0.005327116;0.999977827
2024/05/03/12:47:08.753468;45613;1714765628;753155942;world;0.000763359;0.213058755;0.00312126;0.002649174;0.001256017;0.00496649;0.99998343
2024/05/03/12:47:08.773417;45614;1714765628;773115111;world;0.000919301;0.213885143;0.003035474;0.002204168;0.00044155;0.004735194;0.999986291
2024/05/03/12:47:08.793485;45615;1714765628;793182196;world;0.00075965;0.214993;0.002997066;0.001693024;-0.000146544;0.003479191;0.99999249
2024/05/03/12:47:08.803358;45616;1714765628;803111200;world;0.000800798;0.215758085;0.002999722;0.001596196;-0.000298419;0.0038573;0.999991298
2024/05/03/12:47:08.823122;45617;1714765628;822879270;world;0.00078786;0.216544971;0.003018431;0.001800531;-0.000311029;0.004135006;0.999989867
2024/05/03/12:47:08.833807;45618;1714765628;833542523;world;0.00080302;0.216938138;0.003054538;0.001960425;-0.000148191;0.004203556;0.999989271
2024/05/03/12:47:08.853420;45619;1714765628;853095842;world;0.000826886;0.217829019;0.003058021;0.002237189;0.000149706;0.004473944;0.999987483
2024/05/03/12:47:08.863627;45620;1714765628;863405092;world;0.000818955;0.218721181;0.003099082;0.002269063;0.000346685;0.004521952;0.999987125
2024/05/03/12:47:08.883352;45621;1714765628;883133269;world;0.000804067;0.219539717;0.0031159;0.00240819;0.00037772;0.004426281;0.999987245
2024/05/03/12:47:08.893542;45622;1714765628;893232918;world;0.000739377;0.220289201;0.00316109;0.002674335;0.000812327;0.004668461;0.999985218
2024/05/03/12:47:08.913285;45623;1714765628;913042506;world;0.000768781;0.221090689;0.003225244;0.003017884;0.001449808;0.005099401;0.999981403
2024/05/03/12:47:08.933481;45624;1714765628;933198493;world;0.000788011;0.221950084;0.00324853;0.003064781;0.001137805;0.00526144;0.999980807
2024/05/03/12:47:08.943463;45625;1714765628;942970618;world;0.00072097;0.222807184;0.003223227;0.00290777;0.000815252;0.005005199;0.999982953
2024/05/03/12:47:08.963992;45626;1714765628;963755962;world;0.000729151;0.223648936;0.003237349;0.002985667;0.000968512;0.004919956;0.999982953
2024/05/03/12:47:09.003526;45627;1714765629;3240957;world;0.000793156;0.224033296;0.003324246;0.003094398;0.001517426;0.004872547;0.999982238
2024/05/03/12:47:09.003551;45629;1714765629;3286502;world;0.000602489;0.226059645;0.003177063;0.001980508;-0.000277474;0.003372889;0.999992371
2024/05/03/12:47:09.023415;45630;1714765629;22952272;world;0.000589631;0.226850033;0.003214019;0.00211628;-0.000158915;0.003524925;0.999991536
2024/05/03/12:47:09.033248;45631;1714765629;33017696;world;0.000668876;0.227576941;0.003222815;0.001859515;-6.04E-05;0.003924853;0.999990582
2024/05/03/12:47:09.063186;45632;1714765629;62912498;world;0.000695014;0.227940172;0.003245718;0.001874021;-9.25E-05;0.004187069;0.99998951
2024/05/03/12:47:09.073695;45633;1714765629;73354928;world;0.000896655;0.228671923;0.003411294;0.003197598;0.001207938;0.005030558;0.999981523
