time;.header.seq;.header.stamp.secs;.header.stamp.nsecs;.header.frame_id;.pose.position.x;.pose.position.y;.pose.position.z;.pose.orientation.x;.pose.orientation.y;.pose.orientation.z;.pose.orientation.w
2024/05/03/13:27:01.513599;196749;1714768021;513102586;world;-5.19E-05;7.14E-06;-5.04E-06;-6.57E-05;-5.31E-06;4.79E-06;-1
2024/05/03/13:27:01.513655;196750;1714768021;513154120;world;-5.58E-05;9.51E-06;-7.98E-06;6.54E-06;5.54E-05;-1.81E-05;-1
2024/05/03/13:27:01.523717;196751;1714768021;523159530;world;-6.19E-05;6.58E-06;-2.21E-05;-6.12E-07;1.49E-05;2.88E-06;-1
2024/05/03/13:27:01.533629;196752;1714768021;533333461;world;-7.89E-05;9.52E-06;-1.89E-05;4.05E-05;4.93E-05;2.77E-05;-1
2024/05/03/13:27:01.554008;196753;1714768021;553448923;world;-7.36E-05;1.31E-05;-5.30E-06;-2.91E-05;4.13E-05;-2.84E-06;-1
2024/05/03/13:27:01.583886;196754;1714768021;583430542;world;-4.40E-05;1.03E-05;-3.93E-06;-2.17E-05;1.82E-05;-1.71E-05;-1
2024/05/03/13:27:01.583997;196755;1714768021;583491283;world;-3.60E-05;2.89E-05;-6.39E-06;-4.68E-05;3.80E-05;-6.65E-06;-1
2024/05/03/13:27:01.623987;196756;1714768021;623741747;world;-5.57E-05;2.48E-05;-1.00E-05;3.08E-05;-1.38E-05;-2.10E-05;-1
2024/05/03/13:27:01.624036;196757;1714768021;623771812;world;-4.78E-05;1.14E-05;-9.47E-06;-2.82E-05;1.82E-05;-2.19E-05;-1
2024/05/03/13:27:01.633444;196758;1714768021;633143918;world;-4.41E-05;8.25E-06;-8.79E-06;1.13E-05;8.11E-06;-1.33E-05;-1
2024/05/03/13:27:01.653640;196759;1714768021;653288485;world;-4.57E-05;1.19E-05;-1.34E-05;1.27E-05;4.74E-05;9.78E-07;-1
2024/05/03/13:27:01.663372;196760;1714768021;663062360;world;-5.15E-05;1.44E-05;-8.14E-06;-9.86E-06;3.25E-05;-2.84E-06;-1
2024/05/03/13:27:01.683614;196761;1714768021;683266947;world;-5.31E-05;2.19E-06;1.64E-06;-1.50E-05;4.14E-05;8.61E-06;-1
2024/05/03/13:27:01.693292;196762;1714768021;693006870;world;-5.74E-05;-4.27E-07;-2.87E-06;3.55E-05;3.45E-05;1.43E-05;-1
2024/05/03/13:27:01.713670;196763;1714768021;713276066;world;-5.10E-05;-2.03E-06;-1.72E-06;3.23E-05;3.92E-05;3.25E-05;-1
2024/05/03/13:27:01.723542;196764;1714768021;723134392;world;-4.90E-05;2.04E-05;-1.08E-05;-2.72E-06;3.65E-05;-3.79E-06;-1
2024/05/03/13:27:01.733236;196765;1714768021;733048614;world;-5.93E-05;4.70E-06;-1.01E-05;2.28E-05;8.75E-06;2.89E-06;-1
2024/05/03/13:27:01.753326;196766;1714768021;753001193;world;-3.92E-05;2.94E-06;-8.13E-07;4.95E-05;8.02E-06;3.44E-05;-1
2024/05/03/13:27:01.773647;196767;1714768021;773094536;world;-5.35E-05;6.15E-06;-6.89E-06;2.69E-05;2.23E-05;9.56E-06;-1
2024/05/03/13:27:01.793396;196768;1714768021;793029177;world;-4.70E-05;2.78E-06;-1.38E-05;-4.20E-06;3.00E-05;1.81E-05;-1
2024/05/03/13:27:01.813557;196769;1714768021;813232752;world;-3.28E-05;4.72E-06;-1.19E-05;-2.57E-05;-1.71E-05;1.05E-05;-1
2024/05/03/13:27:01.823612;196770;1714768021;822977650;world;-5.54E-05;1.02E-05;-6.98E-06;5.46E-05;2.55E-05;6.70E-06;-1
2024/05/03/13:27:01.833364;196771;1714768021;833161548;world;-4.23E-05;6.09E-06;-5.57E-06;-1.59E-05;4.33E-05;2.88E-06;-1
2024/05/03/13:27:01.853579;196772;1714768021;852950086;world;-3.56E-05;6.07E-06;8.29E-07;-2.00E-05;3.59E-05;-1.33E-05;-1
2024/05/03/13:27:01.863525;196773;1714768021;863116557;world;-5.56E-05;-1.54E-06;-1.08E-05;2.64E-05;4.12E-05;3.15E-05;-1
2024/05/03/13:27:01.893362;196774;1714768021;893043529;world;-6.04E-05;-1.45E-07;-1.87E-06;4.27E-05;4.99E-05;1.91E-05;-1
2024/05/03/13:27:01.893377;196775;1714768021;893080116;world;-3.85E-05;7.55E-06;-4.21E-06;-5.72E-05;2.80E-05;-4.00E-05;-1
2024/05/03/13:27:01.923543;196776;1714768021;923244937;world;-4.73E-05;5.51E-07;-1.62E-05;8.23E-06;2.30E-06;-8.56E-06;-1
2024/05/03/13:27:01.923603;196777;1714768021;923283979;world;-5.56E-05;4.65E-06;-6.30E-06;-3.34E-05;4.48E-05;1.72E-05;-1
2024/05/03/13:27:01.943435;196778;1714768021;943124983;world;-4.75E-05;5.35E-06;-1.06E-06;4.21E-05;3.91E-05;3.84E-06;-1
2024/05/03/13:27:01.953453;196779;1714768021;952966762;world;-5.43E-05;1.01E-06;-1.38E-05;3.12E-05;4.11E-06;-3.79E-06;-1
2024/05/03/13:27:01.973681;196780;1714768021;973298913;world;-4.18E-05;7.24E-06;-5.57E-06;-4.15E-05;2.17E-06;-1.33E-05;-1
2024/05/03/13:27:01.993424;196781;1714768021;993130126;world;-4.96E-05;3.77E-06;-1.24E-05;-5.54E-05;1.04E-05;-5.70E-06;-1
2024/05/03/13:27:02.023352;196782;1714768022;22965515;world;-4.56E-05;-2.79E-06;-1.59E-05;-3.56E-05;8.89E-06;1.81E-05;-1
2024/05/03/13:27:02.023361;196783;1714768022;23011930;world;-3.56E-05;1.94E-05;-5.45E-06;-5.01E-05;-4.77E-06;-7.61E-06;-1
2024/05/03/13:27:02.043499;196784;1714768022;43192941;world;-5.69E-05;-1.33E-06;-1.48E-05;-1.67E-05;3.22E-05;-4.75E-06;-1
2024/05/03/13:27:02.053529;196785;1714768022;53029798;world;-5.67E-05;-8.05E-07;-7.20E-06;4.43E-06;1.65E-05;-1.88E-06;-1
2024/05/03/13:27:02.073543;196786;1714768022;73236488;world;-5.79E-05;3.71E-06;-1.52E-05;-2.69E-05;5.18E-06;3.53E-05;-1
2024/05/03/13:27:02.094466;196787;1714768022;94130503;world;-5.74E-05;3.74E-06;-8.56E-06;7.72E-06;-2.80E-05;-3.34E-05;-1
2024/05/03/13:27:02.103987;196788;1714768022;103337508;world;-7.42E-05;1.07E-05;-1.26E-05;6.55E-05;3.01E-06;-4.74E-06;-1
2024/05/03/13:27:02.124061;196789;1714768022;123470506;world;-4.27E-05;4.56E-06;-1.26E-05;-3.89E-06;3.48E-05;-8.56E-06;-1
2024/05/03/13:27:02.133641;196790;1714768022;133344716;world;-5.52E-05;8.71E-06;-8.86E-06;-1.16E-05;-5.36E-06;-2.84E-06;-1
2024/05/03/13:27:02.143333;196791;1714768022;142974857;world;-4.43E-05;5.63E-06;-7.72E-06;-3.30E-05;4.14E-05;-2.84E-06;-1
2024/05/03/13:27:02.163482;196792;1714768022;163204872;world;-5.10E-05;7.35E-06;-1.25E-05;-4.69E-05;1.22E-05;-8.56E-06;-1
2024/05/03/13:27:02.173669;196793;1714768022;173373714;world;-5.04E-05;1.16E-05;-1.63E-05;-3.73E-06;-1.07E-05;-2.19E-05;-1
2024/05/03/13:27:02.193262;196794;1714768022;192969763;world;-3.62E-05;5.33E-06;-1.06E-05;-5.26E-05;7.95E-06;3.63E-05;-1
2024/05/03/13:27:02.223453;196795;1714768022;223097373;world;-5.92E-05;1.12E-05;-8.52E-06;1.85E-05;4.55E-05;1.34E-05;-1
2024/05/03/13:27:02.223478;196796;1714768022;223135964;world;-4.99E-05;1.41E-06;-1.57E-05;-2.15E-06;1.49E-05;-2.76E-05;-1
2024/05/03/13:27:02.243849;196797;1714768022;243075043;world;-3.93E-05;6.96E-06;-5.30E-06;-5.81E-05;3.25E-05;1.24E-05;-1
2024/05/03/13:27:02.253618;196798;1714768022;253304476;world;-5.49E-05;4.51E-06;-2.73E-06;9.42E-06;3.01E-05;1.05E-05;-1
2024/05/03/13:27:02.273344;196799;1714768022;273012252;world;-5.02E-05;9.24E-07;-1.65E-05;-1.00E-06;8.90E-06;-8.56E-06;-1
2024/05/03/13:27:02.293786;196800;1714768022;293067205;world;-4.35E-05;6.51E-06;-5.02E-06;1.59E-05;2.73E-05;-1.24E-05;-1
2024/05/03/13:27:02.303520;196801;1714768022;303083816;world;-4.62E-05;1.16E-05;-1.82E-05;-6.04E-05;-4.43E-08;-3.79E-06;-1
2024/05/03/13:27:02.323657;196802;1714768022;323349067;world;-6.47E-05;-8.51E-07;-1.60E-05;6.92E-05;2.68E-05;4.20E-05;-1
2024/05/03/13:27:02.333585;196803;1714768022;333251297;world;-2.86E-05;6.71E-06;-3.79E-06;-5.31E-05;5.07E-06;3.84E-06;-1
2024/05/03/13:27:02.353324;196804;1714768022;353029201;world;-5.76E-05;4.97E-06;-1.43E-05;9.54E-06;1.08E-05;-9.51E-06;-1
2024/05/03/13:27:02.363304;196805;1714768022;362965937;world;-4.19E-05;3.59E-07;-2.03E-05;-8.34E-05;1.48E-05;-9.51E-06;-1
2024/05/03/13:27:02.383940;196806;1714768022;383297628;world;-2.36E-05;7.68E-06;8.74E-06;-6.15E-05;3.32E-05;-1.33E-05;-1
2024/05/03/13:27:02.403561;196807;1714768022;403109976;world;-4.20E-05;6.71E-06;-6.43E-06;-1.84E-05;3.15E-05;2.20E-05;-1
2024/05/03/13:27:02.433589;196808;1714768022;433267830;world;-5.16E-05;7.61E-06;3.95E-07;4.64E-06;1.74E-05;-4.74E-06;-1
2024/05/03/13:27:02.433611;196809;1714768022;433306411;world;-3.35E-05;1.29E-05;-1.56E-05;-3.70E-05;5.07E-07;9.56E-06;-1
2024/05/03/13:27:02.443488;196810;1714768022;443085476;world;-3.35E-05;9.28E-06;-1.06E-05;-1.69E-05;2.78E-05;-8.56E-06;-1
2024/05/03/13:27:02.463802;196811;1714768022;463326097;world;-4.06E-05;1.52E-05;-4.25E-06;-2.39E-05;-5.29E-06;-3.24E-05;-1
2024/05/03/13:27:02.473457;196812;1714768022;473066241;world;-4.74E-05;4.67E-06;-5.23E-06;3.75E-06;4.67E-05;-1.62E-05;-1
2024/05/03/13:27:02.503686;196813;1714768022;503324439;world;-4.04E-05;-8.77E-07;-2.20E-05;8.73E-06;2.07E-05;1.62E-05;-1
2024/05/03/13:27:02.503717;196814;1714768022;503360706;world;-5.10E-05;6.36E-06;-2.15E-05;2.29E-05;6.66E-05;2.10E-05;-1
2024/05/03/13:27:02.523661;196815;1714768022;523323314;world;-5.09E-05;1.84E-06;-1.39E-05;-1.69E-05;6.76E-06;1.93E-06;-1
2024/05/03/13:27:02.533399;196816;1714768022;533007646;world;-5.00E-05;4.27E-06;-1.64E-06;-1.44E-05;2.01E-05;8.61E-06;-1
2024/05/03/13:27:02.553787;196817;1714768022;553446771;world;-5.44E-05;8.83E-06;-1.67E-05;-2.35E-05;3.66E-05;7.65E-06;-1
2024/05/03/13:27:02.573404;196818;1714768022;573049678;world;-4.80E-05;1.36E-06;-1.79E-05;-1.28E-05;5.36E-06;2.88E-06;-1
2024/05/03/13:27:02.583428;196819;1714768022;583053036;world;-4.10E-05;2.68E-06;-6.79E-06;-1.76E-05;-1.60E-05;-2.76E-05;-1
2024/05/03/13:27:02.603251;196820;1714768022;602961119;world;-4.88E-05;1.34E-06;-8.89E-06;-5.23E-05;1.22E-05;-1.24E-05;-1
2024/05/03/13:27:02.613472;196821;1714768022;613115322;world;-5.81E-05;-2.06E-06;-1.85E-05;4.92E-06;2.27E-05;3.34E-05;-1
2024/05/03/13:27:02.633358;196822;1714768022;633002358;world;-4.02E-05;3.25E-06;-1.06E-05;-1.14E-05;-9.80E-06;-2.84E-06;-1
2024/05/03/13:27:02.643280;196823;1714768022;642948329;world;-4.76E-05;-4.99E-06;-1.93E-05;-1.54E-05;2.56E-05;-5.70E-06;-1
2024/05/03/13:27:02.663634;196824;1714768022;663264893;world;-5.54E-05;7.36E-07;-5.62E-06;-1.59E-05;1.27E-05;8.61E-06;-1
2024/05/03/13:27:02.684065;196825;1714768022;683122980;world;-2.83E-05;8.92E-06;-1.30E-05;-1.91E-05;1.11E-05;9.56E-06;-1
2024/05/03/13:27:02.703228;196826;1714768022;702965314;world;-4.89E-05;-1.38E-06;-1.53E-05;2.11E-06;2.30E-05;-1.43E-05;-1
2024/05/03/13:27:02.703257;196827;1714768022;703008803;world;-6.51E-05;-2.91E-07;-1.93E-05;1.55E-05;2.19E-05;1.81E-05;-1
2024/05/03/13:27:02.733749;196828;1714768022;733384152;world;-3.70E-05;1.32E-06;-2.64E-06;-2.43E-05;2.59E-05;6.70E-06;-1
2024/05/03/13:27:02.743749;196829;1714768022;743366566;world;-4.43E-05;8.17E-06;-4.71E-06;-2.20E-05;-5.41E-06;-1.24E-05;-1
2024/05/03/13:27:02.753664;196830;1714768022;753278626;world;-3.33E-05;1.52E-05;-1.34E-05;-2.55E-05;-1.75E-05;-2.19E-05;-1
2024/05/03/13:27:02.774299;196831;1714768022;773054026;world;-4.12E-05;9.45E-06;-2.21E-06;1.86E-05;-5.25E-06;-7.61E-06;-1
2024/05/03/13:27:02.784178;196832;1714768022;783740317;world;-4.46E-05;7.85E-06;4.22E-07;3.36E-05;-6.64E-06;1.53E-05;-1
2024/05/03/13:27:02.813639;196833;1714768022;813156462;world;-3.73E-05;7.36E-06;-1.50E-05;-4.76E-07;2.23E-05;-2.00E-05;-1
2024/05/03/13:27:02.813672;196834;1714768022;813334630;world;-3.68E-05;9.41E-06;-1.55E-05;-3.01E-06;-2.39E-05;-2.00E-05;-1
2024/05/03/13:27:02.833311;196835;1714768022;832866499;world;-5.44E-05;6.42E-06;-1.28E-05;-1.87E-05;1.43E-05;-7.61E-06;-1
2024/05/03/13:27:02.853406;196836;1714768022;853122866;world;-3.38E-05;2.65E-06;-4.34E-06;-3.57E-06;3.29E-05;-2.29E-05;-1
2024/05/03/13:27:02.863325;196837;1714768022;862997953;world;-5.99E-05;5.52E-06;-6.57E-06;1.40E-05;1.50E-05;1.62E-05;-1
2024/05/03/13:27:02.883551;196838;1714768022;883108944;world;-2.74E-05;9.70E-06;-6.66E-06;-5.44E-05;3.50E-05;-8.56E-06;-1
2024/05/03/13:27:02.893359;196839;1714768022;892958744;world;-4.70E-05;-4.49E-07;-1.32E-05;-7.22E-06;1.37E-05;-1.88E-06;-1
2024/05/03/13:27:02.913445;196840;1714768022;913111898;world;-2.84E-05;9.90E-06;-2.33E-06;-7.01E-05;9.42E-06;-1.33E-05;-1
2024/05/03/13:27:02.933394;196841;1714768022;933048068;world;-4.32E-05;4.50E-06;-8.58E-06;-1.38E-05;-1.35E-05;-3.24E-05;-1
2024/05/03/13:27:02.953686;196842;1714768022;953418841;world;-5.40E-05;-1.13E-06;-2.33E-05;-2.62E-05;3.93E-07;1.72E-05;-1
2024/05/03/13:27:02.963326;196843;1714768022;962974466;world;-4.84E-05;1.17E-06;-1.58E-05;-2.31E-05;7.56E-06;1.24E-05;-1
2024/05/03/13:27:03.003653;196844;1714768023;3231603;world;-3.48E-05;8.53E-06;-4.06E-06;-5.37E-05;-5.83E-06;-9.51E-06;-1
2024/05/03/13:27:03.003679;196845;1714768023;3269282;world;-5.71E-05;1.26E-06;-2.98E-06;-9.02E-06;7.04E-06;1.81E-05;-1
2024/05/03/13:27:03.013670;196846;1714768023;13417587;world;-4.74E-05;3.68E-06;-1.91E-05;-2.93E-05;3.22E-05;3.05E-05;-1
2024/05/03/13:27:03.033395;196847;1714768023;33047601;world;-5.73E-05;2.07E-06;-1.48E-05;5.58E-05;-5.01E-06;1.81E-05;-1
2024/05/03/13:27:03.053484;196848;1714768023;53057462;world;-4.68E-05;1.62E-07;-1.09E-05;-5.16E-05;3.82E-05;7.65E-06;-1
2024/05/03/13:27:03.053518;196849;1714768023;53105690;world;-3.37E-05;3.22E-06;-1.48E-05;4.68E-05;1.03E-05;-6.65E-06;-1
2024/05/03/13:27:03.063710;196850;1714768023;63399583;world;-4.82E-05;4.98E-06;-8.82E-06;-1.75E-06;1.39E-05;1.72E-05;-1
2024/05/03/13:27:03.083375;196851;1714768023;83001364;world;-6.42E-05;1.43E-06;-1.70E-05;4.34E-05;2.76E-05;2.89E-06;-1
2024/05/03/13:27:03.093205;196852;1714768023;92903086;world;-6.42E-05;7.59E-06;-8.47E-06;6.74E-05;3.24E-05;-1.33E-05;-1
2024/05/03/13:27:03.113368;196853;1714768023;113047165;world;-2.86E-05;1.26E-05;-1.05E-05;-2.00E-05;5.62E-07;1.43E-05;-1
2024/05/03/13:27:03.143430;196854;1714768023;143187999;world;-4.62E-05;8.00E-06;-1.48E-05;-2.79E-06;-1.38E-05;1.34E-05;-1
2024/05/03/13:27:03.143728;196855;1714768023;143236929;world;-5.32E-05;8.55E-06;-1.51E-05;7.02E-05;1.85E-05;-3.79E-06;-1
2024/05/03/13:27:03.163226;196856;1714768023;162878413;world;-5.67E-05;4.59E-06;-2.08E-05;4.45E-05;4.14E-05;3.34E-05;-1
2024/05/03/13:27:03.173746;196857;1714768023;173403752;world;-4.25E-05;1.70E-06;-1.57E-05;-3.75E-05;1.79E-05;1.24E-05;-1
2024/05/03/13:27:03.193314;196858;1714768023;192957955;world;-4.69E-05;8.66E-06;-1.05E-05;-5.64E-06;1.51E-05;2.88E-06;-1
2024/05/03/13:27:03.223361;196859;1714768023;223029493;world;-6.84E-05;-6.71E-07;-2.24E-05;1.53E-05;3.79E-05;2.01E-05;-1
2024/05/03/13:27:03.223377;196860;1714768023;223066962;world;-6.71E-05;3.79E-06;-2.11E-05;-4.10E-05;2.85E-05;3.72E-05;-1
2024/05/03/13:27:03.253524;196861;1714768023;253185234;world;-7.60E-05;3.50E-07;-2.11E-05;7.08E-05;5.32E-05;2.58E-05;-1
2024/05/03/13:27:03.253538;196862;1714768023;253234194;world;-6.18E-05;-3.26E-07;-2.06E-05;6.76E-05;1.51E-05;1.53E-05;-1
2024/05/03/13:27:03.273802;196863;1714768023;273442280;world;-5.60E-05;2.93E-06;-2.03E-05;-2.07E-06;8.41E-05;5.15E-05;-1
2024/05/03/13:27:03.283288;196864;1714768023;283003054;world;-5.96E-05;6.14E-06;-2.42E-05;-1.97E-05;3.01E-05;2.48E-05;-1
2024/05/03/13:27:03.303401;196865;1714768023;303023326;world;-6.29E-05;-9.35E-07;-2.14E-05;-1.49E-05;3.21E-05;8.39E-05;-1
2024/05/03/13:27:03.323555;196866;1714768023;323160477;world;-5.73E-05;-4.33E-06;-1.44E-05;-3.54E-05;3.96E-05;4.87E-05;-1
2024/05/03/13:27:03.343595;196867;1714768023;343292057;world;-6.67E-05;-2.80E-06;-2.03E-05;3.36E-05;4.93E-05;2.48E-05;-1
2024/05/03/13:27:03.363719;196868;1714768023;363385387;world;-7.31E-05;8.40E-06;-1.92E-05;3.54E-05;3.10E-05;2.96E-05;-1
2024/05/03/13:27:03.363746;196869;1714768023;363422425;world;-5.51E-05;1.07E-05;-1.59E-05;1.50E-05;5.21E-05;3.63E-05;-1
2024/05/03/13:27:03.383408;196870;1714768023;383030584;world;-6.85E-05;6.80E-07;-3.34E-05;-1.87E-05;7.63E-05;3.72E-05;-1
2024/05/03/13:27:03.393461;196871;1714768023;393186583;world;-6.65E-05;-2.18E-06;-2.58E-05;3.58E-05;6.31E-05;1.62E-05;-1
2024/05/03/13:27:03.413791;196872;1714768023;413348833;world;-6.16E-05;9.61E-06;-2.21E-05;-1.22E-05;5.81E-05;2.29E-05;-1
2024/05/03/13:27:03.433512;196873;1714768023;433161473;world;-6.01E-05;-1.75E-06;-2.88E-05;-9.34E-06;1.26E-05;-5.70E-06;-1
2024/05/03/13:27:03.443312;196874;1714768023;443030270;world;-4.13E-05;2.36E-06;-1.53E-05;3.47E-05;3.25E-05;-1.88E-06;-1
2024/05/03/13:27:03.463204;196875;1714768023;462980666;world;-3.95E-05;6.39E-06;-1.20E-05;-0.000115646;3.28E-05;1.81E-05;-1
2024/05/03/13:27:03.473681;196876;1714768023;473347663;world;-5.76E-05;1.03E-05;-2.21E-05;-4.07E-05;4.89E-05;1.91E-05;-1
2024/05/03/13:27:03.493494;196877;1714768023;493222457;world;-5.27E-05;5.31E-06;-2.76E-05;1.40E-05;4.11E-05;2.89E-06;-1
2024/05/03/13:27:03.504193;196878;1714768023;503042316;world;-4.40E-05;1.01E-06;-2.53E-05;-7.85E-05;4.95E-07;3.05E-05;-1
2024/05/03/13:27:03.523937;196879;1714768023;523415997;world;-7.38E-05;5.85E-06;-1.74E-05;-2.43E-05;3.45E-05;2.96E-05;-1
2024/05/03/13:27:03.573513;196880;1714768023;573231694;world;-7.52E-05;4.24E-06;-2.34E-05;4.66E-06;6.09E-05;3.05E-05;-1
2024/05/03/13:27:03.573515;196882;1714768023;573283048;world;-6.39E-05;-7.38E-06;-2.97E-05;-5.39E-05;4.32E-05;5.34E-05;-1
2024/05/03/13:27:03.583627;196883;1714768023;583238252;world;-5.88E-05;6.13E-06;-2.48E-05;-3.39E-05;1.90E-05;3.91E-05;-1
2024/05/03/13:27:03.603513;196884;1714768023;603200727;world;-4.85E-05;1.73E-05;-2.49E-05;-6.59E-05;3.05E-05;-6.20E-05;-1
2024/05/03/13:27:03.633442;196885;1714768023;633095749;world;-6.26E-05;8.31E-06;-3.89E-05;-3.15E-05;3.86E-05;-0.000294663;-1
2024/05/03/13:27:03.633469;196886;1714768023;633128700;world;-6.69E-05;-2.91E-05;1.25E-05;0.00023741;0.000191173;-0.002221037;-0.999997497
2024/05/03/13:27:03.663132;196887;1714768023;662878886;world;-9.15E-05;-1.83E-05;2.15E-05;0.000266418;0.000303336;-0.003009687;-0.99999547
2024/05/03/13:27:03.673287;196888;1714768023;672975717;world;-8.45E-05;-1.87E-05;4.33E-05;0.000300441;0.000457939;-0.004967508;-0.999987483
2024/05/03/13:27:03.673313;196889;1714768023;673009068;world;-5.23E-05;1.88E-05;5.18E-05;0.000417816;0.000523019;-0.007348706;-0.99997282
2024/05/03/13:27:03.693785;196890;1714768023;693293914;world;-7.08E-05;1.31E-05;3.61E-06;0.000538799;0.000467716;-0.01007226;-0.999949098
2024/05/03/13:27:03.713466;196891;1714768023;713160472;world;-8.14E-05;2.70E-05;3.53E-05;0.00052368;0.000664671;-0.012704134;-0.999918938
2024/05/03/13:27:03.733299;196892;1714768023;733041904;world;-0.000131086;4.22E-05;1.47E-05;0.000765594;0.000593805;-0.015538057;-0.999878883
2024/05/03/13:27:03.753665;196893;1714768023;753387998;world;-0.000119157;4.60E-05;7.42E-06;0.000675123;0.000517207;-0.016955134;-0.999855876
2024/05/03/13:27:03.763644;196894;1714768023;763346994;world;-0.000104275;5.05E-05;-5.35E-06;0.000645885;0.000445291;-0.021274544;-0.999773443
2024/05/03/13:27:03.773386;196895;1714768023;773073283;world;-0.000138372;5.40E-05;7.31E-06;0.000613861;0.000510713;-0.02268848;-0.999742329
2024/05/03/13:27:03.783660;196896;1714768023;783398634;world;-0.000119608;8.16E-06;2.95E-05;0.000476451;0.000553849;-0.025482941;-0.999675035
2024/05/03/13:27:03.803481;196897;1714768023;803149899;world;-0.000173818;9.38E-06;1.36E-05;0.000571376;0.000536551;-0.028397221;-0.999596477
2024/05/03/13:27:03.823386;196898;1714768023;823132221;world;-0.000199061;4.16E-05;8.61E-06;0.00063794;0.000667852;-0.031199651;-0.999512792
2024/05/03/13:27:03.833567;196899;1714768023;833271328;world;-0.000187337;5.56E-05;6.76E-06;0.000661568;0.00065963;-0.032680895;-0.999465466
2024/05/03/13:27:03.863329;196900;1714768023;863038823;world;-0.000185534;2.52E-06;-6.38E-05;0.000725574;0.000563499;-0.03667631;-0.999326825
2024/05/03/13:27:03.873237;196901;1714768023;872910442;world;-0.0002141;-1.47E-05;-5.71E-05;0.000681702;0.000600463;-0.037924752;-0.999280274
2024/05/03/13:27:03.883946;196902;1714768023;883245631;world;-0.000162121;1.87E-05;-4.96E-05;0.000701892;0.000659432;-0.041775428;-0.999126613
2024/05/03/13:27:03.893547;196903;1714768023;893185288;world;-0.000123624;2.23E-05;-4.27E-05;0.000583679;0.000663869;-0.043055147;-0.999072313
2024/05/03/13:27:03.913258;196904;1714768023;912953309;world;-0.000131402;9.57E-06;-2.88E-05;0.000775023;0.000733507;-0.045480628;-0.998964667
2024/05/03/13:27:03.933663;196905;1714768023;933338767;world;-0.000194289;-1.71E-05;-1.54E-05;0.00102689;0.000733953;-0.047862004;-0.998853207
2024/05/03/13:27:03.943253;196906;1714768023;942958144;world;-0.000207391;-1.39E-05;-5.49E-05;0.001239052;0.000702456;-0.050155532;-0.998740375
2024/05/03/13:27:03.973248;196907;1714768023;972938463;world;-0.000155617;-5.14E-06;-2.15E-05;0.000978084;0.000757934;-0.05245484;-0.998622537
2024/05/03/13:27:03.983386;196908;1714768023;983099841;world;-0.00015172;-2.06E-06;-3.58E-06;0.000979144;0.0007716;-0.054613709;-0.998506844
2024/05/03/13:27:03.993412;196909;1714768023;993115251;world;-0.00016021;2.67E-05;1.81E-06;0.001197001;0.000783637;-0.056676883;-0.998391569
2024/05/03/13:27:04.004059;196910;1714768024;3727637;world;-0.000216093;9.86E-06;-2.17E-06;0.001472464;0.000876158;-0.057606701;-0.998337984
2024/05/03/13:27:04.023558;196911;1714768024;23138581;world;-0.00016788;3.28E-05;-2.37E-05;0.001113425;0.000765689;-0.059721667;-0.998214126
2024/05/03/13:27:04.043386;196912;1714768024;43117447;world;-0.000182394;5.15E-06;-7.79E-06;0.001187405;0.000804951;-0.06158255;-0.998100936
2024/05/03/13:27:04.073408;196913;1714768024;73097206;world;-0.000187084;1.32E-06;4.12E-06;0.001270014;0.000816424;-0.063348047;-0.99799037
2024/05/03/13:27:04.073435;196914;1714768024;73131900;world;-0.000227131;-1.25E-05;1.51E-06;0.001341675;0.000951719;-0.065159857;-0.997873545
2024/05/03/13:27:04.084645;196915;1714768024;83155185;world;-0.000190962;2.11E-05;-1.69E-05;0.001293723;0.000850646;-0.066913806;-0.997757614
2024/05/03/13:27:04.103546;196916;1714768024;103200725;world;-0.000160277;2.53E-05;-4.75E-06;0.001279193;0.000862278;-0.068561777;-0.997645676
2024/05/03/13:27:04.113271;196917;1714768024;112890997;world;-0.000137072;2.97E-05;-1.87E-06;0.001273602;0.000825327;-0.069457099;-0.997583866
2024/05/03/13:27:04.143913;196918;1714768024;143535810;world;-9.18E-05;6.02E-05;3.99E-05;0.001225769;0.000950689;-0.071176037;-0.99746263
2024/05/03/13:27:04.143940;196919;1714768024;143567017;world;-0.000173029;2.50E-05;5.78E-05;0.00155612;0.001080848;-0.072700195;-0.997352123
2024/05/03/13:27:04.163231;196920;1714768024;162923761;world;-0.000180483;-7.62E-06;3.18E-05;0.001598684;0.001097941;-0.074159093;-0.997244596
2024/05/03/13:27:04.183280;196921;1714768024;182953029;world;-0.000179842;-1.92E-05;4.11E-05;0.001754427;0.001152784;-0.075670853;-0.997130692
2024/05/03/13:27:04.193400;196922;1714768024;193060970;world;-0.00018391;-3.19E-05;-1.35E-05;0.001740263;0.000966059;-0.077154569;-0.997017145
2024/05/03/13:27:04.213300;196923;1714768024;213046157;world;-0.000151232;-1.44E-05;-2.26E-05;0.001623509;0.000916337;-0.078564793;-0.996907294
2024/05/03/13:27:04.223415;196924;1714768024;223134211;world;-0.000174396;-1.18E-05;-2.03E-05;0.001605292;0.001043955;-0.080055274;-0.996788621
2024/05/03/13:27:04.243185;196925;1714768024;242921496;world;-0.000166655;6.58E-06;3.51E-06;0.001567239;0.001100054;-0.081462085;-0.996674657
2024/05/03/13:27:04.293450;196926;1714768024;293216055;world;-0.000187308;3.32E-05;1.70E-05;0.001446408;0.001117667;-0.082195982;-0.996614516
2024/05/03/13:27:04.293470;196928;1714768024;293275424;world;-0.000208195;1.56E-05;-2.58E-06;0.001662053;0.001131804;-0.084898405;-0.996387601
2024/05/03/13:27:04.303626;196929;1714768024;303175313;world;-0.00016484;1.73E-05;-1.67E-06;0.001565102;0.001005415;-0.086290732;-0.996268332
2024/05/03/13:27:04.323433;196930;1714768024;323072993;world;-0.000165761;9.99E-06;5.91E-06;0.001688548;0.00099331;-0.087670043;-0.996147633
2024/05/03/13:27:04.343718;196931;1714768024;343420166;world;-0.000156179;4.11E-06;8.59E-06;0.001691501;0.001028352;-0.088333078;-0.996089101
2024/05/03/13:27:04.353520;196932;1714768024;353285382;world;-0.000126034;1.12E-05;-1.33E-06;0.001547809;0.000979614;-0.090399303;-0.995903909
2024/05/03/13:27:04.393400;196933;1714768024;393133933;world;-0.000132211;8.52E-06;-9.94E-06;0.001487079;0.000980435;-0.091011979;-0.995848298
2024/05/03/13:27:04.393426;196935;1714768024;393176721;world;-9.39E-05;1.43E-05;-2.42E-05;0.001280409;0.000758387;-0.093675181;-0.995601773
2024/05/03/13:27:04.413440;196936;1714768024;413170615;world;-5.90E-05;2.96E-05;-2.39E-05;0.001267571;0.000730061;-0.094975919;-0.99547857
2024/05/03/13:27:04.423414;196937;1714768024;423050318;world;-7.50E-05;4.00E-05;-2.32E-05;0.001234003;0.00072637;-0.096289814;-0.995352387
2024/05/03/13:27:04.443364;196938;1714768024;443076400;world;-8.31E-05;3.39E-05;-2.89E-05;0.001211472;0.00080064;-0.097580649;-0.995226622
2024/05/03/13:27:04.453324;196939;1714768024;453046116;world;-8.61E-05;3.95E-05;-1.43E-05;0.001296165;0.000838461;-0.098237254;-0.995161831
2024/05/03/13:27:04.484014;196940;1714768024;483608117;world;-0.000103556;4.05E-05;-1.50E-05;0.001316901;0.000942899;-0.099517301;-0.995034575
2024/05/03/13:27:04.493161;196941;1714768024;492932628;world;-0.000174541;1.91E-06;-3.48E-05;0.00156025;0.001077699;-0.100806303;-0.99490428
2024/05/03/13:27:04.513586;196942;1714768024;513326993;world;-0.000202097;-1.68E-05;-3.42E-05;0.001713447;0.001157758;-0.102078214;-0.994774282
2024/05/03/13:27:04.523487;196943;1714768024;523239629;world;-0.000319522;-4.08E-05;-5.97E-05;0.001977725;0.001235255;-0.103459798;-0.994630933
2024/05/03/13:27:04.553109;196944;1714768024;552861211;world;-0.000353448;-8.09E-05;-3.07E-05;0.002251606;0.001442023;-0.104623586;-0.994508326
2024/05/03/13:27:04.553129;196945;1714768024;552897037;world;-0.000334859;-4.07E-05;-4.19E-05;0.002133017;0.001379127;-0.106053159;-0.994357288
2024/05/03/13:27:04.583303;196946;1714768024;583037885;world;-0.000327103;-3.39E-05;-8.24E-05;0.001934245;0.001208518;-0.107352912;-0.994218349
2024/05/03/13:27:04.583324;196947;1714768024;583073080;world;-0.000331268;-4.11E-05;-0.000117208;0.001801123;0.00102039;-0.108564183;-0.994087338
2024/05/03/13:27:04.603639;196948;1714768024;603403600;world;-0.000323035;-3.55E-05;-0.000108374;0.001759994;0.001003322;-0.109136857;-0.994024694
2024/05/03/13:27:04.613489;196949;1714768024;613089956;world;-0.000284493;-2.66E-05;-0.000104249;0.001601547;0.000988783;-0.110422477;-0.993883014
2024/05/03/13:27:04.633508;196950;1714768024;633196553;world;-0.000265028;-4.25E-05;-8.85E-05;0.001802245;0.001016768;-0.112328976;-0.993668973
2024/05/03/13:27:04.653293;196951;1714768024;653046597;world;-0.000265647;-4.10E-05;-9.34E-05;0.001804239;0.000981894;-0.112973407;-0.993595898
2024/05/03/13:27:04.663200;196952;1714768024;662928923;world;-0.000224341;-5.03E-05;-7.50E-05;0.001717507;0.000974878;-0.114268765;-0.993447959
2024/05/03/13:27:04.673583;196953;1714768024;673325664;world;-0.0001936;-3.40E-05;-8.17E-05;0.001678676;0.000872175;-0.115605704;-0.993293405
2024/05/03/13:27:04.693192;196954;1714768024;692929250;world;-0.000144795;-3.72E-06;-4.65E-05;0.001567221;0.000996677;-0.116970599;-0.993133664
2024/05/03/13:27:04.703321;196955;1714768024;703036792;world;-0.000155143;3.21E-05;-1.72E-05;0.001566467;0.001126544;-0.117693976;-0.993048131
2024/05/03/13:27:04.723698;196956;1714768024;723275902;world;-0.000186451;-4.64E-06;-2.30E-05;0.001690625;0.001155057;-0.118970253;-0.992895782
2024/05/03/13:27:04.743474;196957;1714768024;743206292;world;-0.000290301;-3.16E-05;-7.03E-05;0.001970097;0.001319246;-0.120172903;-0.992750168
2024/05/03/13:27:04.753468;196958;1714768024;753191818;world;-0.000278413;-4.23E-05;-4.35E-05;0.002031233;0.0013051;-0.121402562;-0.992600381
2024/05/03/13:27:04.773285;196959;1714768024;773012334;world;-0.000282023;-2.59E-05;-3.91E-05;0.0019675;0.001165802;-0.122830287;-0.992425084
2024/05/03/13:27:04.783133;196960;1714768024;782860788;world;-0.000303905;-3.77E-05;-3.12E-05;0.002065724;0.001278839;-0.12410374;-0.992266357
2024/05/03/13:27:04.803874;196961;1714768024;803346746;world;-0.00029204;-1.08E-05;-3.79E-05;0.002155649;0.001385072;-0.1253694;-0.992106915
2024/05/03/13:27:04.823370;196962;1714768024;823087503;world;-0.000290338;7.04E-07;-5.12E-05;0.002195315;0.001355347;-0.126736403;-0.991933167
2024/05/03/13:27:04.833879;196963;1714768024;833359225;world;-0.000327375;-1.47E-05;-5.40E-05;0.002274713;0.001445942;-0.128125578;-0.991754293
2024/05/03/13:27:04.853526;196964;1714768024;853238839;world;-0.000334296;-3.34E-06;-4.81E-05;0.00243229;0.001544663;-0.12939702;-0.991588652
2024/05/03/13:27:04.863376;196965;1714768024;863048763;world;-0.00032597;1.33E-05;-2.19E-05;0.00236762;0.001631391;-0.130069315;-0.991500735
2024/05/03/13:27:04.883871;196966;1714768024;883519201;world;-0.000298247;1.70E-05;-1.46E-05;0.002224915;0.001547626;-0.131372735;-0.991329432
2024/05/03/13:27:04.893292;196967;1714768024;892990090;world;-0.000207309;4.22E-05;4.59E-05;0.002216326;0.001350901;-0.132743821;-0.991146982
2024/05/03/13:27:04.913700;196968;1714768024;913429624;world;-0.000155568;5.59E-05;-5.64E-06;0.001725373;0.001169998;-0.134058893;-0.990971208
2024/05/03/13:27:04.923411;196969;1714768024;923058902;world;-0.000148866;6.51E-05;1.05E-05;0.001719206;0.001115558;-0.135413095;-0.990787089
2024/05/03/13:27:04.943157;196970;1714768024;942898525;world;-0.000119895;5.69E-05;8.92E-06;0.001440104;0.001129708;-0.136600256;-0.990624607
2024/05/03/13:27:04.963638;196971;1714768024;963336695;world;-7.62E-05;2.06E-05;9.11E-05;0.001849458;0.00090274;-0.137379274;-0.990516365
2024/05/03/13:27:04.983239;196972;1714768024;982984203;world;-7.27E-05;4.94E-05;0.000113612;0.001890725;0.000823025;-0.13940905;-0.990232706
2024/05/03/13:27:04.993171;196973;1714768024;992902995;world;-0.00011605;3.29E-05;9.53E-05;0.002006555;0.000887957;-0.140815735;-0.990033448
2024/05/03/13:27:05.013573;196974;1714768025;13371622;world;-0.00016389;-4.28E-05;6.37E-05;0.001976465;0.000845081;-0.142205492;-0.989834845
2024/05/03/13:27:05.023352;196975;1714768025;23044835;world;-0.000160791;-6.94E-05;5.94E-05;0.00208518;0.000906846;-0.1428556;-0.989740968
2024/05/03/13:27:05.043782;196976;1714768025;43244678;world;-0.000150178;-4.41E-05;6.57E-05;0.002076686;0.00079102;-0.144182801;-0.989548564
2024/05/03/13:27:05.063837;196977;1714768025;63337435;world;-0.000174116;-4.48E-05;5.64E-05;0.002235093;0.000944198;-0.145589143;-0.989342213
2024/05/03/13:27:05.073263;196978;1714768025;72935099;world;-0.000214856;-1.16E-05;3.23E-05;0.002416373;0.000926374;-0.146876618;-0.989151478
2024/05/03/13:27:05.083936;196979;1714768025;83327082;world;-0.000244472;-2.49E-05;7.02E-06;0.002580855;0.000890783;-0.14754799;-0.989051223
2024/05/03/13:27:05.103206;196980;1714768025;102888953;world;-0.000250235;-3.57E-05;2.76E-06;0.002537865;0.000886243;-0.148832589;-0.988858819
2024/05/03/13:27:05.113760;196981;1714768025;113490120;world;-0.000262361;-2.50E-05;1.96E-05;0.002629679;0.000857847;-0.150082842;-0.988669574
2024/05/03/13:27:05.133307;196982;1714768025;133007409;world;-0.000256203;2.42E-05;4.80E-05;0.002453203;0.001112914;-0.151388377;-0.988470674
2024/05/03/13:27:05.143256;196983;1714768025;142968851;world;-0.000241622;3.72E-05;5.14E-05;0.002335116;0.001054364;-0.152649909;-0.988277018
2024/05/03/13:27:05.163413;196984;1714768025;163123851;world;-0.000208281;6.32E-05;6.58E-05;0.002278691;0.001000817;-0.154027939;-0.988063395
2024/05/03/13:27:05.183135;196985;1714768025;182878799;world;-0.000190951;4.70E-05;9.99E-05;0.002283952;0.001116166;-0.155309036;-0.987862706
2024/05/03/13:27:05.193202;196986;1714768025;192983523;world;-0.00019864;5.20E-05;0.000104764;0.002181428;0.001115426;-0.156701535;-0.987643003
2024/05/03/13:27:05.213783;196987;1714768025;213128175;world;-0.000148781;5.46E-05;0.000101032;0.002109334;0.001025803;-0.158028811;-0.987431765
2024/05/03/13:27:05.223721;196988;1714768025;223422809;world;-0.000169344;3.90E-05;8.83E-05;0.00211452;0.001005448;-0.159377202;-0.987215042
2024/05/03/13:27:05.243583;196989;1714768025;243258815;world;-0.000142887;4.55E-05;8.79E-05;0.002080819;0.000930436;-0.160618156;-0.987014055
2024/05/03/13:27:05.263267;196990;1714768025;262948450;world;-0.000123724;1.93E-05;9.11E-05;0.001944641;0.00088707;-0.161965311;-0.986794174
2024/05/03/13:27:05.273499;196991;1714768025;273189026;world;-0.000129983;5.12E-06;8.84E-05;0.001944068;0.000894774;-0.162578836;-0.986693323
2024/05/03/13:27:05.293322;196992;1714768025;293016345;world;-8.92E-05;2.88E-05;0.000113661;0.001967706;0.000881533;-0.163865924;-0.986480296
2024/05/03/13:27:05.303236;196993;1714768025;302902479;world;-5.99E-05;1.53E-05;0.000105893;0.002056525;0.000842442;-0.165217578;-0.986254692
2024/05/03/13:27:05.323637;196994;1714768025;323293503;world;-0.000121266;4.07E-06;8.71E-05;0.002182157;0.000871404;-0.166574404;-0.986026108
2024/05/03/13:27:05.333758;196995;1714768025;333241902;world;-0.000166379;-1.08E-05;8.82E-05;0.002276642;0.001049581;-0.167826295;-0.985813439
2024/05/03/13:27:05.343818;196996;1714768025;343521177;world;-0.000158135;4.48E-06;0.00011377;0.002148403;0.001060277;-0.169126585;-0.985591412
2024/05/03/13:27:05.373222;196997;1714768025;372901760;world;-0.000145581;1.02E-05;0.000130872;0.002474786;0.00086206;-0.170554847;-0.985344708
2024/05/03/13:27:05.393166;196998;1714768025;392882571;world;-0.000150237;1.93E-05;0.000119939;0.002437205;0.000797425;-0.17124097;-0.985225856
2024/05/03/13:27:05.403591;196999;1714768025;403273170;world;-0.000178143;1.10E-05;0.000154049;0.002621569;0.001038652;-0.173094511;-0.984901249
2024/05/03/13:27:05.414082;197000;1714768025;413558164;world;-0.000172298;3.38E-06;0.000148883;0.0026516;0.001059224;-0.173816621;-0.984773874
2024/05/03/13:27:05.423733;197001;1714768025;423413444;world;-0.000140067;2.08E-05;0.000164799;0.002605844;0.000986695;-0.175159723;-0.984536111
2024/05/03/13:27:05.443174;197002;1714768025;442879900;world;-0.000184502;1.77E-05;0.000162024;0.002611305;0.000902328;-0.176520273;-0.984293163
2024/05/03/13:27:05.473564;197003;1714768025;473276098;world;-0.000171147;3.98E-05;0.000148674;0.002394189;0.000858845;-0.177866712;-0.984051287
2024/05/03/13:27:05.473593;197004;1714768025;473311473;world;-0.000199877;9.83E-06;0.000149454;0.002481346;0.000867864;-0.179132342;-0.983821511
2024/05/03/13:27:05.493275;197005;1714768025;493004555;world;-0.000198003;2.50E-05;0.000156049;0.002415335;0.000834332;-0.179805234;-0.983698964
2024/05/03/13:27:05.503531;197006;1714768025;503233629;world;-0.000225928;2.72E-05;0.000140594;0.00240566;0.000741496;-0.181257442;-0.983432472
2024/05/03/13:27:05.523966;197007;1714768025;523602954;world;-0.000150621;7.74E-05;0.000139991;0.002257871;0.000621272;-0.182721809;-0.983161926
2024/05/03/13:27:05.533431;197008;1714768025;533185220;world;-0.000174485;5.41E-05;0.000116561;0.002203934;0.000531772;-0.183952078;-0.982932687
2024/05/03/13:27:05.553587;197009;1714768025;553000676;world;-0.000153698;4.92E-05;0.000139938;0.002256301;0.000627755;-0.185225531;-0.982693315
2024/05/03/13:27:05.573232;197010;1714768025;572948817;world;-0.000180233;4.61E-05;0.000125099;0.002258642;0.000680794;-0.186480179;-0.982455969
2024/05/03/13:27:05.583581;197011;1714768025;583267956;world;-0.000156648;5.50E-05;0.00011423;0.002154906;0.000671039;-0.187103376;-0.982337713
2024/05/03/13:27:05.603573;197012;1714768025;603187365;world;-0.00018312;7.50E-06;0.000122119;0.002344046;0.000766771;-0.188338369;-0.982101142
2024/05/03/13:27:05.613093;197013;1714768025;612909927;world;-0.000207942;7.37E-06;0.000106074;0.002450424;0.00073131;-0.189653113;-0.981847882
2024/05/03/13:27:05.633884;197014;1714768025;633204594;world;-0.00021961;3.46E-06;0.000141799;0.002590721;0.000845573;-0.190948293;-0.98159641
2024/05/03/13:27:05.643414;197015;1714768025;643034236;world;-0.000222802;-8.01E-06;0.000122342;0.002600824;0.000926517;-0.192259386;-0.98134023
2024/05/03/13:27:05.663301;197016;1714768025;662941752;world;-0.000227831;6.63E-06;9.79E-05;0.002579744;0.000865658;-0.193589285;-0.981078863
2024/05/03/13:27:05.683234;197017;1714768025;682993593;world;-0.000233289;3.22E-06;8.29E-05;0.002608857;0.000842085;-0.194977537;-0.980803907
2024/05/03/13:27:05.703599;197018;1714768025;703315607;world;-0.000214454;3.56E-05;9.49E-05;0.002569058;0.000891255;-0.196299061;-0.980540335
2024/05/03/13:27:05.713342;197019;1714768025;713044535;world;-0.00024052;5.22E-05;7.46E-05;0.002582356;0.000807887;-0.197648361;-0.980269253
2024/05/03/13:27:05.723485;197020;1714768025;723095704;world;-0.000258774;5.59E-05;7.50E-05;0.002721424;0.000826577;-0.199001461;-0.979995072
2024/05/03/13:27:05.743238;197021;1714768025;742919866;world;-0.000241734;7.08E-05;7.84E-05;0.002675714;0.000856936;-0.199614584;-0.979870439
2024/05/03/13:27:05.753191;197022;1714768025;752891646;world;-0.000269692;7.13E-05;7.47E-05;0.002783749;0.000833291;-0.200966358;-0.979593873
2024/05/03/13:27:05.783340;197023;1714768025;783075123;world;-0.000246059;7.13E-05;7.72E-05;0.002765963;0.000892027;-0.202194616;-0.97934109
2024/05/03/13:27:05.783372;197024;1714768025;783116179;world;-0.000202022;8.87E-05;8.36E-05;0.002603096;0.000802478;-0.203554869;-0.979059815
2024/05/03/13:27:05.803212;197025;1714768025;802948437;world;-0.000203185;6.51E-05;0.000102789;0.002689673;0.000955503;-0.204830483;-0.978793323
2024/05/03/13:27:05.823718;197026;1714768025;823441430;world;-0.00019189;9.81E-05;0.000110286;0.002570359;0.000897433;-0.206169277;-0.978512526
2024/05/03/13:27:05.833293;197027;1714768025;832975605;world;-0.000154041;0.000114194;0.000122785;0.002770493;0.000885608;-0.207643941;-0.978200138
2024/05/03/13:27:05.853678;197028;1714768025;853387398;world;-0.000174556;0.00013116;0.000128068;0.002749733;0.000995302;-0.20889461;-0.977933824
2024/05/03/13:27:05.913270;197029;1714768025;913070083;world;-0.000169482;0.000127223;0.000147206;0.002684745;0.001004343;-0.209525108;-0.977799118
2024/05/03/13:27:05.923294;197030;1714768025;922931241;world;-0.000160631;0.000121956;0.000155317;0.002692414;0.001070333;-0.210770592;-0.977531254
2024/05/03/13:27:05.923322;197032;1714768025;922970593;world;-0.000260089;-6.80E-06;0.00013537;0.002919743;0.001168191;-0.213317782;-0.976977825
2024/05/03/13:27:05.933449;197033;1714768025;933100455;world;-0.000228137;1.75E-05;0.0001512;0.002935254;0.001232663;-0.214590117;-0.976698995
2024/05/03/13:27:05.943147;197034;1714768025;942887507;world;-0.000173785;2.64E-05;0.00014933;0.002800989;0.001068787;-0.216102377;-0.976366162
2024/05/03/13:27:05.964044;197035;1714768025;963662637;world;-0.000152644;1.69E-05;0.000142193;0.002852304;0.001096056;-0.217413992;-0.976074755
2024/05/03/13:27:05.983505;197036;1714768025;983229097;world;-0.000174098;2.41E-05;0.000127452;0.002836981;0.00110666;-0.218095273;-0.975922823
2024/05/03/13:27:05.993350;197037;1714768025;993089173;world;-0.000123478;5.94E-05;0.000131364;0.002715874;0.00116252;-0.219437376;-0.975622118
2024/05/03/13:27:06.003650;197038;1714768026;3335048;world;-0.000119541;2.68E-05;0.000148262;0.002814022;0.001224945;-0.220780283;-0.97531873
2024/05/03/13:27:06.023387;197039;1714768026;23112627;world;-0.000126336;3.20E-05;0.000137275;0.002731246;0.001260343;-0.222127065;-0.975013077
2024/05/03/13:27:06.043309;197040;1714768026;43079293;world;-0.00014542;3.75E-05;0.000147918;0.002634683;0.001192939;-0.223437428;-0.974713981
2024/05/03/13:27:06.053640;197041;1714768026;53211468;world;-0.00020792;-5.47E-06;0.000143809;0.002765734;0.001211308;-0.224711299;-0.974420786
2024/05/03/13:27:06.063295;197042;1714768026;63028716;world;-0.000197332;-6.34E-06;0.000147101;0.002764993;0.001183073;-0.225925699;-0.974139929
2024/05/03/13:27:06.093216;197043;1714768026;92939044;world;-0.000204012;-2.73E-05;0.000149587;0.002881654;0.00128437;-0.226550356;-0.973994434
2024/05/03/13:27:06.113323;197044;1714768026;113060463;world;-0.000208959;-5.84E-05;0.00013445;0.00293649;0.001281398;-0.227764025;-0.973711133
2024/05/03/13:27:06.113346;197045;1714768026;113097612;world;-0.000210229;-3.20E-05;0.000109895;0.002936463;0.001210375;-0.229025975;-0.973415196
2024/05/03/13:27:06.173715;197046;1714768026;173420267;world;-0.000216849;-2.91E-05;0.000117846;0.002996197;0.001183894;-0.230309501;-0.973112106
2024/05/03/13:27:06.173736;197048;1714768026;173466592;world;-0.000240684;-1.21E-05;0.000101752;0.002875962;0.001186292;-0.232984543;-0.972475529
2024/05/03/13:27:06.193404;197049;1714768026;193154195;world;-0.000201538;7.08E-05;9.60E-05;0.002761236;0.001169241;-0.234317407;-0.972155571
2024/05/03/13:27:06.193431;197050;1714768026;193188117;world;-0.000211846;6.45E-05;8.09E-05;0.002657943;0.001134941;-0.235555217;-0.971856654
2024/05/03/13:27:06.213252;197051;1714768026;212988459;world;-0.000250679;1.31E-05;0.000102197;0.002814175;0.001232003;-0.236753762;-0.971564889
2024/05/03/13:27:06.223558;197052;1714768026;223253930;world;-0.000211824;3.02E-05;0.000102469;0.002623774;0.001141271;-0.237451166;-0.971395254
2024/05/03/13:27:06.243533;197053;1714768026;243249559;world;-0.000257611;-1.21E-06;7.69E-05;0.002656863;0.001142782;-0.238702416;-0.971088469
2024/05/03/13:27:06.253511;197054;1714768026;252899930;world;-0.000250231;1.76E-06;9.47E-05;0.002642513;0.001159855;-0.239945069;-0.970782161
2024/05/03/13:27:06.273242;197055;1714768026;272905981;world;-0.000282817;-2.72E-05;9.24E-05;0.002750132;0.00116138;-0.24138689;-0.970424354
2024/05/03/13:27:06.293962;197056;1714768026;293214142;world;-0.000305604;-6.14E-05;9.31E-05;0.002862787;0.001246107;-0.242618948;-0.970116735
2024/05/03/13:27:06.303600;197057;1714768026;303295096;world;-0.000250332;-3.91E-05;0.000140713;0.002972387;0.001171864;-0.24398312;-0.969774187
2024/05/03/13:27:06.323480;197058;1714768026;323242005;world;-0.000245027;-5.15E-05;0.000144425;0.002993802;0.00113765;-0.245283246;-0.969446182
2024/05/03/13:27:06.333673;197059;1714768026;333395230;world;-0.000288684;-8.65E-05;0.000136034;0.003070934;0.00128426;-0.246464029;-0.969146252
2024/05/03/13:27:06.353368;197060;1714768026;353022201;world;-0.000254042;-5.00E-05;0.000149866;0.002839035;0.001172157;-0.24771899;-0.968827128
2024/05/03/13:27:06.373104;197061;1714768026;372871182;world;-0.00026894;-6.68E-05;0.000143266;0.002844508;0.001216279;-0.24889949;-0.968524456
2024/05/03/13:27:06.383991;197062;1714768026;383310092;world;-0.000294082;-8.43E-05;0.000138056;0.00286799;0.001269483;-0.249487653;-0.968372941
2024/05/03/13:27:06.403162;197063;1714768026;402942984;world;-0.000284143;-6.17E-05;0.000148575;0.002877521;0.001283331;-0.251551062;-0.967838883
2024/05/03/13:27:06.423433;197064;1714768026;423149732;world;-0.000274245;-6.60E-05;0.000162174;0.002917077;0.001379633;-0.25217092;-0.967677355
2024/05/03/13:27:06.423441;197065;1714768026;423187181;world;-0.000256438;-7.10E-05;0.000149913;0.002799715;0.001360918;-0.253444672;-0.96734488
2024/05/03/13:27:06.443380;197066;1714768026;443068009;world;-0.000266548;-7.20E-05;0.000146835;0.002755439;0.001440559;-0.254750699;-0.967001796
2024/05/03/13:27:06.463471;197067;1714768026;463220066;world;-0.000248332;-7.77E-05;0.000153349;0.002763765;0.001514729;-0.256019324;-0.966666579
2024/05/03/13:27:06.473400;197068;1714768026;473106026;world;-0.000229429;-3.59E-05;0.000178634;0.002657444;0.001409073;-0.257280797;-0.966332078
2024/05/03/13:27:06.493386;197069;1714768026;493120464;world;-0.000210781;-3.68E-06;0.000172401;0.002500487;0.001364587;-0.258532554;-0.965998352
2024/05/03/13:27:06.503380;197070;1714768026;503141627;world;-0.0001835;3.98E-08;0.000188216;0.002437363;0.001296258;-0.259183228;-0.965824306
2024/05/03/13:27:06.523396;197071;1714768026;522968316;world;-0.000171617;-2.29E-05;0.000212298;0.002457755;0.001384264;-0.260403246;-0.965495825
2024/05/03/13:27:06.533245;197072;1714768026;532973629;world;-0.000246923;-0.000112612;0.000195249;0.002675334;0.001468786;-0.261666387;-0.965153575
2024/05/03/13:27:06.553699;197073;1714768026;553382057;world;-0.000250898;-0.000137049;0.000204182;0.002822241;0.001505769;-0.262940437;-0.964806795
2024/05/03/13:27:06.573740;197074;1714768026;573347260;world;-0.00026406;-0.000189204;0.000170094;0.003037191;0.001559536;-0.264313906;-0.96443063
2024/05/03/13:27:06.583651;197075;1714768026;583283246;world;-0.000287801;-0.000181181;0.000180403;0.002977134;0.001545409;-0.264986396;-0.964246392
2024/05/03/13:27:06.603310;197076;1714768026;602999142;world;-0.000290353;-0.000208674;0.00017143;0.003078379;0.001520686;-0.26630643;-0.963882327
2024/05/03/13:27:06.623379;197077;1714768026;623066774;world;-0.000298955;-0.00022446;0.000153442;0.003241657;0.001629329;-0.267559171;-0.963534653
2024/05/03/13:27:06.633316;197078;1714768026;632997489;world;-0.000270907;-0.000218566;0.000157837;0.003125717;0.001610221;-0.268699825;-0.963217556
2024/05/03/13:27:06.644083;197079;1714768026;643601554;world;-0.000277504;-0.000201593;0.000147582;0.003091615;0.001634057;-0.269964576;-0.962863922
2024/05/03/13:27:06.663598;197080;1714768026;663239506;world;-0.000165161;-0.000113796;0.000176437;0.002939649;0.001381964;-0.271276653;-0.962495923
2024/05/03/13:27:06.683900;197081;1714768026;683326710;world;-0.000164874;-0.000114982;0.000188371;0.002840533;0.001511327;-0.272482634;-0.962155342
2024/05/03/13:27:06.703255;197082;1714768026;702946782;world;-0.000175599;-0.000100512;0.000147073;0.002950305;0.00147996;-0.273819923;-0.961775303
2024/05/03/13:27:06.713361;197083;1714768026;713055496;world;-0.000169363;-0.000107646;0.000190302;0.002834098;0.001574644;-0.274379581;-0.96161598
2024/05/03/13:27:06.723367;197084;1714768026;723042716;world;-0.000163011;-0.000112982;0.000170104;0.002802289;0.001610472;-0.276293039;-0.961068094
2024/05/03/13:27:06.743470;197085;1714768026;743168344;world;-0.000160169;-0.000116664;0.000156818;0.002744946;0.001568091;-0.276927501;-0.960885584
2024/05/03/13:27:06.753672;197086;1714768026;753321439;world;-0.000135541;-8.29E-05;0.000205277;0.002931738;0.001580077;-0.278333127;-0.960478842
2024/05/03/13:27:06.773426;197087;1714768026;773206285;world;-0.000152703;-0.000128639;0.000196587;0.002991297;0.001630794;-0.279562771;-0.960121334
2024/05/03/13:27:06.783350;197088;1714768026;782944287;world;-0.000157464;-0.000140578;0.000210873;0.002936371;0.001608388;-0.280829996;-0.959751725
2024/05/03/13:27:06.803863;197089;1714768026;803585211;world;-0.000147533;-0.000164157;0.000182949;0.003011836;0.00156464;-0.282123774;-0.959372044
2024/05/03/13:27:06.823273;197090;1714768026;822985818;world;-0.000171356;-0.000202798;0.000183436;0.003107147;0.001600957;-0.283479005;-0.958972037
2024/05/03/13:27:06.833337;197091;1714768026;832984299;world;-0.000185996;-0.000186041;0.000163683;0.003097744;0.001596443;-0.28470704;-0.95860821
2024/05/03/13:27:06.843515;197092;1714768026;843245730;world;-0.00017707;-0.000182627;0.000174507;0.003118721;0.001604965;-0.285316676;-0.958426952
2024/05/03/13:27:06.863606;197093;1714768026;863265306;world;-0.000209261;-0.000235574;0.000203584;0.003325689;0.001744907;-0.286628693;-0.958034456
2024/05/03/13:27:06.883621;197094;1714768026;883272849;world;-0.000218734;-0.000181861;0.000179431;0.003162812;0.001596406;-0.287897587;-0.957654715
2024/05/03/13:27:06.903335;197095;1714768026;903034888;world;-0.000230387;-0.000184159;0.000163842;0.003237708;0.00163896;-0.289171875;-0.957270384
2024/05/03/13:27:06.913353;197096;1714768026;913055430;world;-0.000245951;-0.000163291;0.00019389;0.003246644;0.001755487;-0.290459454;-0.956880212
2024/05/03/13:27:06.933354;197097;1714768026;933056058;world;-0.000248961;-0.000192908;0.000189668;0.003175066;0.001688784;-0.291662425;-0.956514597
2024/05/03/13:27:06.943577;197098;1714768026;943171965;world;-0.000240877;-0.000196709;0.000157877;0.003208035;0.001586575;-0.292916566;-0.956131399
2024/05/03/13:27:06.963438;197099;1714768026;963033318;world;-0.00024331;-0.000179499;0.000158092;0.003114849;0.00167343;-0.294169337;-0.95574683
2024/05/03/13:27:06.973710;197100;1714768026;973181920;world;-0.000209618;-0.000170053;0.000168051;0.002915233;0.001680153;-0.295382142;-0.955373347
2024/05/03/13:27:06.993730;197101;1714768026;993351032;world;-0.000183731;-0.000167459;0.000184078;0.002933699;0.001658601;-0.296058923;-0.955163717
2024/05/03/13:27:07.003463;197102;1714768027;3127765;world;-0.00017456;-0.000150898;0.000180284;0.00290029;0.001619021;-0.297309607;-0.954775393
2024/05/03/13:27:07.043499;197103;1714768027;43006151;world;-0.000182424;-0.000150053;0.000146533;0.002767682;0.001547913;-0.298525542;-0.954396427
2024/05/03/13:27:07.043524;197104;1714768027;43040464;world;-0.000197131;-0.000176722;0.000155384;0.002886659;0.001511804;-0.299825519;-0.953988492
2024/05/03/13:27:07.053737;197105;1714768027;53347713;world;-0.000239823;-0.000224897;0.000165136;0.003063276;0.001711296;-0.301098853;-0.953586519
2024/05/03/13:27:07.063498;197106;1714768027;63201419;world;-0.000248119;-0.000243807;0.000139989;0.003087413;0.001607115;-0.302384585;-0.953179657
2024/05/03/13:27:07.083491;197107;1714768027;83204251;world;-0.000242848;-0.000248149;0.000160453;0.003233597;0.001653424;-0.303715348;-0.952755928
2024/05/03/13:27:07.113294;197108;1714768027;112985854;world;-0.000249326;-0.000257685;0.000172666;0.003352139;0.001765944;-0.304344207;-0.952554584
2024/05/03/13:27:07.113320;197109;1714768027;113020347;world;-0.000294756;-0.000282639;0.000156026;0.00329392;0.001747027;-0.305713207;-0.95211637
2024/05/03/13:27:07.133484;197110;1714768027;133176243;world;-0.000301667;-0.000262668;0.000153486;0.003192956;0.001674545;-0.306974709;-0.95171088
2024/05/03/13:27:07.143366;197111;1714768027;143046447;world;-0.000290543;-0.000235501;0.00012229;0.003153167;0.00158503;-0.308265388;-0.951293826
2024/05/03/13:27:07.164069;197112;1714768027;163688246;world;-0.000250384;-0.000202626;0.000105231;0.002998258;0.001475978;-0.3101753;-0.950673521
2024/05/03/13:27:07.173458;197113;1714768027;173146384;world;-0.000232678;-0.000207318;0.000137475;0.003028246;0.001575324;-0.310747027;-0.950486481
2024/05/03/13:27:07.193352;197114;1714768027;193053502;world;-0.000234958;-0.000243382;0.000183104;0.003067616;0.001723421;-0.3119528;-0.950091124
2024/05/03/13:27:07.213520;197115;1714768027;213181435;world;-0.000255328;-0.000268398;0.000169625;0.003133931;0.001808568;-0.313204348;-0.949678838
2024/05/03/13:27:07.243545;197116;1714768027;243088749;world;-0.000255682;-0.000291979;0.000154109;0.003090549;0.001836252;-0.314444125;-0.949269176
2024/05/03/13:27:07.243573;197117;1714768027;243122411;world;-0.000279844;-0.000321958;0.000169909;0.003157782;0.002006673;-0.315808326;-0.948815644
2024/05/03/13:27:07.253264;197118;1714768027;252927287;world;-0.000220645;-0.000256288;0.000212161;0.003233546;0.001826402;-0.316599131;-0.948552251
2024/05/03/13:27:07.273632;197119;1714768027;273111613;world;-0.000227373;-0.000298966;0.000190135;0.003318291;0.002011565;-0.317832887;-0.948138833
2024/05/03/13:27:07.283698;197120;1714768027;283154868;world;-0.000294723;-0.000470765;0.000163774;0.003224559;0.002141663;-0.318906188;-0.947778463
2024/05/03/13:27:07.313632;197121;1714768027;313307501;world;-0.00029961;-0.000452686;0.00019635;0.003155204;0.002137937;-0.320214093;-0.947337568
2024/05/03/13:27:07.313654;197122;1714768027;313352423;world;-0.000285618;-0.000498092;0.000191649;0.00308193;0.002084426;-0.321423948;-0.946928144
2024/05/03/13:27:07.343524;197123;1714768027;342939678;world;-0.000240408;-0.000409335;0.000214294;0.002955644;0.001905814;-0.322805226;-0.946458876
2024/05/03/13:27:07.353410;197124;1714768027;353119072;world;-0.000226349;-0.000401186;0.000217079;0.002993461;0.001913497;-0.323446751;-0.94623971
2024/05/03/13:27:07.363313;197125;1714768027;363011478;world;-0.000256691;-0.000406932;0.000231151;0.002996047;0.001867061;-0.324745089;-0.945795059
2024/05/03/13:27:07.383706;197126;1714768027;383430166;world;-0.000281002;-0.000426416;0.000237036;0.003094509;0.001935976;-0.325998068;-0.945363462
2024/05/03/13:27:07.393177;197127;1714768027;392918089;world;-0.000327881;-0.00039774;0.000166435;0.002873436;0.002049007;-0.327294916;-0.944915652
2024/05/03/13:27:07.413656;197128;1714768027;413402815;world;-0.000326429;-0.000387221;0.000173875;0.003057902;0.002064324;-0.328647286;-0.94444555
2024/05/03/13:27:07.423421;197129;1714768027;423183917;world;-0.000367414;-0.000468791;0.000143753;0.003101503;0.002251582;-0.329755306;-0.944058657
2024/05/03/13:27:07.443420;197130;1714768027;443062286;world;-0.000402309;-0.000505243;0.00012088;0.002904656;0.002273651;-0.330825537;-0.943684757
2024/05/03/13:27:07.463642;197131;1714768027;463384567;world;-0.000412401;-0.000526799;0.000133053;0.003002946;0.002322243;-0.331504434;-0.94344604
2024/05/03/13:27:07.473496;197132;1714768027;473188121;world;-0.000382662;-0.00054057;0.000137807;0.003052124;0.002321331;-0.332736522;-0.943012059
2024/05/03/13:27:07.493458;197133;1714768027;493079599;world;-0.000314958;-0.000504252;0.000151728;0.002806025;0.002293575;-0.33402428;-0.942557514
2024/05/03/13:27:07.503549;197134;1714768027;503044759;world;-0.000333343;-0.00048891;0.000143994;0.002899331;0.002239432;-0.33539176;-0.942071617
2024/05/03/13:27:07.523241;197135;1714768027;522971650;world;-0.000313297;-0.000494836;0.000151547;0.00304512;0.002274244;-0.336795002;-0.941570401
2024/05/03/13:27:07.553399;197136;1714768027;553133323;world;-0.000344526;-0.000520053;0.00014029;0.003011216;0.002307594;-0.338003427;-0.941137195
2024/05/03/13:27:07.553410;197137;1714768027;553169390;world;-0.000357784;-0.00051563;0.000130161;0.002987399;0.0023376;-0.339256167;-0.940686345
2024/05/03/13:27:07.573620;197138;1714768027;573059045;world;-0.000348464;-0.000491085;0.00014048;0.002932077;0.002327931;-0.340476185;-0.940245688
2024/05/03/13:27:07.583706;197139;1714768027;583426998;world;-0.000349939;-0.000480892;0.000144266;0.002889271;0.002278412;-0.341087043;-0.940024555
2024/05/03/13:27:07.603788;197140;1714768027;603391050;world;-0.000409734;-0.000478713;0.00010561;0.003112683;0.002377959;-0.342974991;-0.93933636
2024/05/03/13:27:07.623271;197141;1714768027;623047215;world;-0.000401866;-0.000455915;0.000125696;0.003033632;0.002488632;-0.344142109;-0.938909411
2024/05/03/13:27:07.653193;197142;1714768027;652908053;world;-0.000406217;-0.000433158;0.000131323;0.002960587;0.002522433;-0.345314294;-0.938479006
2024/05/03/13:27:07.653231;197143;1714768027;652944089;world;-0.000414468;-0.000440027;0.000137402;0.002982223;0.002605267;-0.345974475;-0.938235641
2024/05/03/13:27:07.663734;197144;1714768027;663375787;world;-0.000425611;-0.000417493;0.000147998;0.003033485;0.00267762;-0.347297162;-0.937746465
2024/05/03/13:27:07.673707;197145;1714768027;673222545;world;-0.000422653;-0.000430136;0.000119737;0.003095478;0.002719402;-0.348600388;-0.937262475
2024/05/03/13:27:07.693388;197146;1714768027;693022435;world;-0.000421867;-0.000447492;0.000143698;0.003090031;0.002718912;-0.349805951;-0.936813235
2024/05/03/13:27:07.713849;197147;1714768027;713071910;world;-0.000451084;-0.000450898;0.0001101;0.003280683;0.002745077;-0.351017922;-0.936358988
2024/05/03/13:27:07.723590;197148;1714768027;723212712;world;-0.000420827;-0.000453404;0.000116179;0.003363417;0.002812041;-0.352227122;-0.935904264
2024/05/03/13:27:07.753482;197149;1714768027;753151853;world;-0.000396423;-0.000435666;0.000123391;0.003283447;0.002826852;-0.35346511;-0.935437739
2024/05/03/13:27:07.753509;197150;1714768027;753185855;world;-0.000387687;-0.000443883;0.000133146;0.003269046;0.002823223;-0.354023606;-0.93522656
2024/05/03/13:27:07.773749;197151;1714768027;773005794;world;-0.000385117;-0.000430007;0.000128437;0.003366678;0.00283931;-0.355225086;-0.934770405
2024/05/03/13:27:07.783146;197152;1714768027;782850923;world;-0.000376187;-0.000357798;0.000146917;0.003265637;0.002827689;-0.356494784;-0.93428731
2024/05/03/13:27:07.803605;197153;1714768027;803302822;world;-0.000351392;-0.000372212;8.48E-05;0.003399317;0.002721345;-0.357809961;-0.933784366
2024/05/03/13:27:07.823422;197154;1714768027;823094669;world;-0.000345275;-0.000373095;0.00010396;0.003395455;0.002783193;-0.359103471;-0.933287442
2024/05/03/13:27:07.833168;197155;1714768027;832893775;world;-0.000342142;-0.000345304;0.000130536;0.003349124;0.002753172;-0.359772921;-0.93302983
2024/05/03/13:27:07.853581;197156;1714768027;853226173;world;-0.000337094;-0.000366233;0.00011436;0.003366288;0.002734019;-0.361602575;-0.932322264
2024/05/03/13:27:07.863637;197157;1714768027;863368879;world;-0.000335388;-0.000380002;0.000115414;0.003348898;0.002715623;-0.362257034;-0.932068288
2024/05/03/13:27:07.883479;197158;1714768027;883202653;world;-0.000332307;-0.000367975;0.000148991;0.003428902;0.00267948;-0.36354968;-0.931564629
2024/05/03/13:27:07.893605;197159;1714768027;893130935;world;-0.000406172;-0.000446901;0.000110085;0.003402713;0.002887575;-0.364719242;-0.931106865
2024/05/03/13:27:07.913344;197160;1714768027;912954409;world;-0.000426009;-0.000445188;8.66E-05;0.003264643;0.002987752;-0.365850866;-0.93066299
2024/05/03/13:27:07.933601;197161;1714768027;933255811;world;-0.000410199;-0.000412648;7.76E-05;0.003313755;0.003014216;-0.367134482;-0.930157125
2024/05/03/13:27:07.953770;197162;1714768027;953462932;world;-0.000412717;-0.000426722;7.72E-05;0.003277907;0.003096937;-0.368363768;-0.92967087
2024/05/03/13:27:07.963381;197163;1714768027;963104056;world;-0.000427399;-0.000427023;7.67E-05;0.003457958;0.002989451;-0.369693309;-0.929142594
2024/05/03/13:27:07.973305;197164;1714768027;973080102;world;-0.000437245;-0.000423457;7.08E-05;0.003461966;0.003006211;-0.370286018;-0.9289065
2024/05/03/13:27:07.993759;197165;1714768027;993091284;world;-0.000426527;-0.000413126;5.31E-05;0.00348159;0.003032452;-0.371547043;-0.928402662
2024/05/03/13:27:08.003685;197166;1714768028;3230786;world;-0.000420894;-0.000380124;3.88E-05;0.003437851;0.003006559;-0.372942269;-0.927843392
2024/05/03/13:27:08.033342;197167;1714768028;33014203;world;-0.000397671;-0.000401316;7.23E-05;0.003593006;0.002930875;-0.374263108;-0.927310944
2024/05/03/13:27:08.053414;197168;1714768028;53110439;world;-0.000377242;-0.000395808;5.06E-05;0.003580193;0.00288669;-0.376155972;-0.926544964
2024/05/03/13:27:08.063337;197169;1714768028;63003386;world;-0.000386409;-0.000392829;4.93E-05;0.003606808;0.002902914;-0.376822919;-0.926273823
2024/05/03/13:27:08.073659;197170;1714768028;73383997;world;-0.000349786;-0.000407462;4.13E-05;0.003540579;0.00283006;-0.378145278;-0.925735235
2024/05/03/13:27:08.083575;197171;1714768028;83175594;world;-0.000342477;-0.000423501;2.73E-05;0.003574484;0.002811313;-0.378847003;-0.925448239
2024/05/03/13:27:08.103274;197172;1714768028;102950932;world;-0.000333253;-0.000458544;3.07E-05;0.003667441;0.002876635;-0.380133629;-0.924919903
2024/05/03/13:27:08.113458;197173;1714768028;113127540;world;-0.000344541;-0.000454769;3.09E-05;0.003734032;0.002847942;-0.381441891;-0.924380898
2024/05/03/13:27:08.133281;197174;1714768028;132975396;world;-0.000358947;-0.0004346;3.35E-05;0.003691604;0.002855218;-0.382710457;-0.923856616
2024/05/03/13:27:08.163355;197175;1714768028;162960017;world;-0.000383437;-0.000453341;1.78E-05;0.003907406;0.002959498;-0.383964092;-0.923335075
2024/05/03/13:27:08.163391;197176;1714768028;162996965;world;-0.000408009;-0.000480536;9.43E-06;0.003843701;0.003009784;-0.385102689;-0.922860801
2024/05/03/13:27:08.183611;197177;1714768028;183360214;world;-0.000413965;-0.000460629;3.07E-05;0.003753255;0.003056883;-0.386264563;-0.922375321
2024/05/03/13:27:08.193341;197178;1714768028;193008250;world;-0.000418589;-0.000464275;3.25E-05;0.003682906;0.003118528;-0.387438893;-0.921882808
2024/05/03/13:27:08.203579;197179;1714768028;203272357;world;-0.000417702;-0.000453287;4.46E-05;0.003636729;0.003158207;-0.388724118;-0.921341717
2024/05/03/13:27:08.233486;197180;1714768028;233184069;world;-0.000403792;-0.000455512;4.98E-05;0.003623605;0.003205043;-0.389941722;-0.920826912
2024/05/03/13:27:08.243560;197181;1714768028;243228490;world;-0.000314441;-0.0004307;9.49E-05;0.003621842;0.002916974;-0.391265959;-0.920265973
2024/05/03/13:27:08.263921;197182;1714768028;263289301;world;-0.000303894;-0.000431667;9.09E-05;0.003578236;0.002901891;-0.392477036;-0.919750273
2024/05/03/13:27:08.273527;197183;1714768028;273161922;world;-0.000288811;-0.000437669;7.60E-05;0.003575325;0.002801016;-0.393149018;-0.919463575
2024/05/03/13:27:08.293442;197184;1714768028;293075793;world;-0.000287961;-0.000452812;8.46E-05;0.003502706;0.002839891;-0.394454658;-0.918904364
2024/05/03/13:27:08.303512;197185;1714768028;303267661;world;-0.000303954;-0.000475459;9.04E-05;0.003519488;0.002885613;-0.395703793;-0.918366969
2024/05/03/13:27:08.323222;197186;1714768028;322987606;world;-0.000298783;-0.000504586;8.99E-05;0.003638789;0.002899364;-0.396938562;-0.917833388
2024/05/03/13:27:08.343393;197187;1714768028;343057404;world;-0.000317264;-0.0005128;7.92E-05;0.003631528;0.002856876;-0.39753291;-0.917576253
2024/05/03/13:27:08.383684;197188;1714768028;383185390;world;-0.000325955;-0.000559325;9.24E-05;0.003680385;0.002909422;-0.399421006;-0.916755617
