time;.header.seq;.header.stamp.secs;.header.stamp.nsecs;.header.frame_id;.pose.position.x;.pose.position.y;.pose.position.z;.pose.orientation.x;.pose.orientation.y;.pose.orientation.z;.pose.orientation.w
2024/05/03/13:22:36.053982;179764;1714767756;53652027;world;-3.63E-06;-2.96E-07;-5.38E-06;1.42E-06;1.59E-05;-1.30E-06;1
2024/05/03/13:22:36.073652;179765;1714767756;73345547;world;6.73E-06;-1.48E-05;4.04E-06;1.03E-05;1.46E-05;1.49E-05;1
2024/05/03/13:22:36.083295;179766;1714767756;82974384;world;2.21E-05;9.13E-05;2.97E-05;0.000412904;0.000149961;-0.000101501;0.999999881
2024/05/03/13:22:36.093318;179767;1714767756;93104581;world;1.02E-06;-7.08E-06;-7.34E-06;-3.80E-06;6.82E-05;-1.66E-05;1
2024/05/03/13:22:36.113549;179768;1714767756;113253751;world;-2.00E-06;3.81E-06;4.24E-06;-5.51E-06;2.07E-05;-6.07E-06;1
2024/05/03/13:22:36.133563;179769;1714767756;133188217;world;1.08E-06;-4.21E-06;-5.23E-06;5.79E-06;2.85E-05;-2.13E-05;1
2024/05/03/13:22:36.153757;179770;1714767756;153037840;world;5.77E-06;9.34E-06;-1.14E-05;9.47E-06;4.90E-05;4.42E-06;1
2024/05/03/13:22:36.163323;179771;1714767756;163082075;world;-4.35E-06;-4.38E-06;-4.03E-06;-4.67E-05;1.06E-05;-2.32E-05;1
2024/05/03/13:22:36.183389;179772;1714767756;183050652;world;-3.28E-06;3.04E-06;-9.82E-06;1.12E-06;3.91E-05;1.11E-05;1
2024/05/03/13:22:36.193473;179773;1714767756;193157174;world;1.18E-05;1.52E-05;1.40E-05;4.79E-05;-2.79E-05;-6.33E-05;1
2024/05/03/13:22:36.203259;179774;1714767756;202968452;world;-1.81E-06;-7.19E-06;-1.92E-05;8.85E-06;3.06E-05;2.25E-05;1
2024/05/03/13:22:36.224451;179775;1714767756;224045623;world;1.37E-05;2.37E-05;-7.42E-06;2.53E-05;-3.17E-05;-3.09E-05;1
2024/05/03/13:22:36.243731;179776;1714767756;243061356;world;-1.14E-05;-5.79E-06;-4.94E-06;1.04E-05;4.10E-05;4.42E-06;1
2024/05/03/13:22:36.263971;179777;1714767756;263669092;world;1.39E-05;6.35E-05;4.26E-05;0.000405238;0.000196216;-9.39E-05;0.999999881
2024/05/03/13:22:36.273387;179778;1714767756;273129601;world;1.26E-05;9.29E-05;4.77E-05;0.000420529;0.000249826;-0.000115849;0.999999881
2024/05/03/13:22:36.293321;179779;1714767756;293058674;world;1.30E-05;6.68E-05;2.74E-05;0.000354127;0.000208972;-6.81E-05;1
2024/05/03/13:22:36.303426;179780;1714767756;303039871;world;-3.67E-07;2.66E-05;1.96E-05;3.54E-05;3.14E-05;-8.14E-05;1
2024/05/03/13:22:36.323787;179781;1714767756;323234630;world;-3.94E-06;-4.78E-06;5.46E-06;-2.00E-05;3.49E-05;9.19E-06;1
2024/05/03/13:22:36.333378;179782;1714767756;333076005;world;1.04E-06;2.08E-06;-4.10E-07;1.41E-05;2.84E-05;-1.56E-05;1
2024/05/03/13:22:36.363468;179783;1714767756;363135585;world;-3.04E-06;2.05E-08;-5.73E-06;1.37E-05;1.88E-05;-1.56E-05;1
2024/05/03/13:22:36.363502;179784;1714767756;363174598;world;1.14E-05;7.15E-05;3.93E-05;0.000380334;0.000202899;-8.63E-05;0.999999881
2024/05/03/13:22:36.383787;179785;1714767756;383429962;world;-3.24E-06;2.05E-05;1.93E-05;-1.54E-05;9.28E-05;-5.76E-05;1
2024/05/03/13:22:36.393420;179786;1714767756;393123620;world;-4.23E-06;-6.04E-06;-2.19E-06;-3.12E-05;-1.58E-05;-1.08E-05;1
2024/05/03/13:22:36.413388;179787;1714767756;413161256;world;-5.64E-06;-1.89E-06;-1.29E-05;1.96E-05;3.49E-05;-2.26E-06;1
2024/05/03/13:22:36.434333;179788;1714767756;433918008;world;-6.86E-06;2.89E-06;-8.78E-06;3.57E-06;1.53E-05;-2.26E-06;1
2024/05/03/13:22:36.443259;179789;1714767756;442967620;world;1.11E-05;2.94E-05;2.15E-05;3.56E-05;2.63E-05;-9.00E-05;1
2024/05/03/13:22:36.463826;179790;1714767756;463506024;world;4.02E-06;-9.93E-06;1.44E-06;2.88E-05;4.19E-05;-7.03E-06;1
2024/05/03/13:22:36.483395;179791;1714767756;482933275;world;4.00E-06;5.76E-05;2.37E-05;0.000381152;0.000184641;-0.000113907;0.999999881
2024/05/03/13:22:36.493193;179792;1714767756;492975556;world;2.23E-05;2.03E-05;-1.08E-05;3.03E-05;-2.34E-05;-2.80E-05;1
2024/05/03/13:22:36.503427;179793;1714767756;503167188;world;-6.40E-06;1.03E-06;-3.53E-06;1.16E-05;1.74E-05;3.59E-05;1
2024/05/03/13:22:36.523479;179794;1714767756;523226434;world;2.91E-06;7.38E-05;5.79E-05;0.000380408;0.000286781;-0.0001149;0.999999881
2024/05/03/13:22:36.533460;179795;1714767756;533281831;world;1.18E-05;1.09E-05;-9.72E-06;2.86E-05;-5.53E-06;-4.14E-05;1
2024/05/03/13:22:36.563246;179796;1714767756;563034755;world;-8.46E-06;-2.68E-06;-4.24E-06;-3.75E-06;3.97E-05;-2.23E-05;1
2024/05/03/13:22:36.563281;179797;1714767756;563072435;world;1.49E-05;7.22E-05;3.77E-05;0.000375057;0.000180314;-9.01E-05;0.999999881
2024/05/03/13:22:36.583323;179798;1714767756;582987160;world;5.12E-07;1.14E-05;7.72E-07;4.42E-06;-4.40E-05;-2.61E-05;1
2024/05/03/13:22:36.593395;179799;1714767756;593121766;world;-1.36E-05;-1.24E-05;-3.83E-06;7.99E-06;3.71E-05;1.40E-05;1
2024/05/03/13:22:36.614099;179800;1714767756;613300025;world;7.36E-06;-1.11E-06;-3.32E-06;3.50E-05;2.62E-05;1.78E-05;1
2024/05/03/13:22:36.633439;179801;1714767756;633068401;world;1.03E-05;7.79E-05;4.94E-05;0.000399332;0.000182775;-7.67E-05;0.999999881
2024/05/03/13:22:36.643476;179802;1714767756;643189806;world;1.26E-05;1.48E-05;1.59E-05;5.16E-05;-3.23E-05;-3.37E-05;1
2024/05/03/13:22:36.663499;179803;1714767756;663266263;world;-6.16E-06;-7.88E-06;5.18E-06;2.66E-05;4.48E-05;5.37E-06;1
2024/05/03/13:22:36.693313;179804;1714767756;692917897;world;-3.19E-06;-4.94E-06;-6.19E-06;2.18E-05;1.53E-05;-1.56E-05;1
2024/05/03/13:22:36.693336;179805;1714767756;692961970;world;1.91E-05;6.71E-05;3.65E-05;0.000390715;0.000205669;-7.67E-05;0.999999881
2024/05/03/13:22:36.703599;179806;1714767756;703322920;world;-5.19E-06;-5.46E-06;1.75E-06;-4.54E-05;2.29E-05;-2.13E-05;1
2024/05/03/13:22:36.723437;179807;1714767756;723153196;world;1.08E-05;1.43E-05;-6.58E-07;2.45E-05;-1.40E-05;-5.38E-05;1
2024/05/03/13:22:36.743531;179808;1714767756;742866101;world;6.61E-06;-1.68E-05;-1.00E-05;1.60E-05;2.55E-05;-1.75E-05;1
2024/05/03/13:22:36.753536;179809;1714767756;753224964;world;1.96E-05;7.14E-05;3.72E-05;0.00038687;0.000175413;-8.34E-05;0.999999881
2024/05/03/13:22:36.774196;179810;1714767756;773267652;world;-1.01E-05;1.69E-05;4.02E-05;7.91E-06;6.90E-05;-5.57E-05;1
2024/05/03/13:22:36.793558;179811;1714767756;793133625;world;-4.24E-06;2.82E-06;2.29E-06;4.82E-05;5.71E-06;3.46E-06;1
2024/05/03/13:22:36.803526;179812;1714767756;803272338;world;2.90E-06;-1.30E-05;2.91E-06;-3.14E-06;3.12E-05;-7.03E-06;1
2024/05/03/13:22:36.823434;179813;1714767756;823144343;world;2.20E-05;7.19E-05;3.72E-05;0.000414261;0.000180651;-0.000101514;0.999999881
2024/05/03/13:22:36.833761;179814;1714767756;833378456;world;-2.08E-06;1.27E-05;2.81E-05;-3.48E-05;8.22E-05;-4.71E-05;1
2024/05/03/13:22:36.853122;179815;1714767756;852882208;world;1.59E-05;2.61E-05;8.30E-06;5.59E-05;-3.11E-05;-5.09E-05;1
2024/05/03/13:22:36.873394;179816;1714767756;873108028;world;1.61E-05;3.65E-06;4.04E-06;6.27E-05;2.05E-06;-2.71E-05;1
2024/05/03/13:22:36.893655;179817;1714767756;893324570;world;-7.63E-06;-1.80E-05;4.37E-06;1.74E-05;6.87E-05;-3.51E-07;1
2024/05/03/13:22:36.893678;179818;1714767756;893373011;world;1.90E-05;5.79E-05;4.44E-05;0.000389487;0.000191941;-8.24E-05;0.999999881
2024/05/03/13:22:36.913485;179819;1714767756;913115491;world;2.03E-06;-3.02E-06;4.75E-07;6.03E-07;-2.22E-06;6.04E-07;1
2024/05/03/13:22:36.923508;179820;1714767756;923281085;world;-6.56E-07;-1.85E-05;1.65E-06;-3.17E-05;3.68E-05;-1.47E-05;1
2024/05/03/13:22:36.943583;179821;1714767756;943282383;world;-7.26E-08;7.28E-07;4.52E-06;6.07E-06;4.87E-05;-1.47E-05;1
2024/05/03/13:22:36.953161;179822;1714767756;952930495;world;2.90E-06;-1.26E-05;5.14E-06;3.99E-05;9.63E-06;1.59E-05;1
2024/05/03/13:22:36.973447;179823;1714767756;973145184;world;6.41E-06;-6.90E-07;-7.24E-06;8.06E-06;2.62E-05;-7.03E-06;1
2024/05/03/13:22:36.993688;179824;1714767756;993290600;world;-9.72E-06;-1.21E-05;-9.09E-06;-1.12E-05;2.13E-05;-1.08E-05;1
2024/05/03/13:22:37.003369;179825;1714767757;3022569;world;5.28E-06;-1.28E-05;-6.72E-06;1.88E-05;-4.19E-05;2.51E-06;1
2024/05/03/13:22:37.023392;179826;1714767757;23061647;world;-3.76E-06;1.19E-05;9.81E-06;9.27E-06;-1.15E-06;1.20E-05;1
2024/05/03/13:22:37.033247;179827;1714767757;32890098;world;-5.18E-06;4.40E-06;7.45E-06;1.87E-06;9.81E-07;-1.85E-05;1
2024/05/03/13:22:37.053520;179828;1714767757;53187069;world;6.00E-06;-7.19E-06;-5.54E-06;2.94E-05;1.13E-05;-3.50E-07;1
2024/05/03/13:22:37.073405;179829;1714767757;73159003;world;-1.99E-06;1.95E-06;4.82E-06;-1.10E-06;1.95E-06;-5.12E-06;1
2024/05/03/13:22:37.083546;179830;1714767757;83167941;world;-3.83E-06;-3.25E-06;7.05E-06;3.13E-05;2.44E-05;-8.93E-06;1
2024/05/03/13:22:37.103887;179831;1714767757;103456236;world;6.16E-06;2.74E-06;-5.83E-06;-9.25E-06;2.47E-05;-4.16E-06;1
2024/05/03/13:22:37.113974;179832;1714767757;113636083;world;5.61E-07;2.41E-05;-6.36E-06;4.72E-05;-2.07E-05;-5.28E-05;1
2024/05/03/13:22:37.133408;179833;1714767757;133063287;world;-4.99E-07;-1.18E-05;3.03E-06;-1.16E-05;4.09E-05;-1.75E-05;1
2024/05/03/13:22:37.143435;179834;1714767757;143103776;world;1.06E-05;5.49E-05;3.38E-05;0.000316618;0.00020822;-8.43E-05;1
2024/05/03/13:22:37.163644;179835;1714767757;163300521;world;-3.86E-06;1.27E-05;-1.17E-05;-2.12E-05;1.52E-05;-2.04E-05;1
2024/05/03/13:22:37.183714;179836;1714767757;183368021;world;2.93E-06;1.05E-05;-1.12E-05;-1.12E-05;1.39E-05;-1.08E-05;1
2024/05/03/13:22:37.203926;179837;1714767757;203543286;world;6.05E-06;-7.43E-06;-8.13E-06;5.77E-06;2.61E-05;1.30E-05;1
2024/05/03/13:22:37.213352;179838;1714767757;213085017;world;-4.21E-06;-9.00E-06;1.40E-06;-2.77E-05;2.97E-05;-3.09E-05;1
2024/05/03/13:22:37.223740;179839;1714767757;223480502;world;5.40E-08;-1.32E-06;-2.65E-06;-1.69E-05;1.68E-05;2.51E-06;1
2024/05/03/13:22:37.243350;179840;1714767757;243012279;world;2.23E-05;3.25E-05;-1.10E-05;3.92E-05;1.55E-05;-6.42E-05;1
2024/05/03/13:22:37.253733;179841;1714767757;253373529;world;-3.80E-06;9.28E-06;-7.63E-06;3.67E-06;1.93E-06;-2.32E-05;1
2024/05/03/13:22:37.283359;179842;1714767757;282923072;world;4.72E-06;-4.19E-06;6.49E-06;-8.59E-06;2.15E-05;-5.12E-06;1
2024/05/03/13:22:37.283394;179843;1714767757;282959010;world;-3.22E-06;-6.28E-07;-9.19E-06;-4.28E-05;3.94E-06;2.83E-05;1
2024/05/03/13:22:37.303841;179844;1714767757;303493546;world;1.29E-05;2.96E-05;-9.05E-06;8.11E-06;4.77E-06;-5.85E-05;1
2024/05/03/13:22:37.313413;179845;1714767757;313017386;world;9.42E-06;7.68E-05;4.73E-05;0.000370532;0.000250094;-0.000118698;0.999999881
2024/05/03/13:22:37.333377;179846;1714767757;333038241;world;3.79E-06;2.52E-06;4.25E-06;2.65E-05;3.30E-05;3.40E-05;1
2024/05/03/13:22:37.353595;179847;1714767757;353195129;world;-7.91E-06;7.50E-06;-8.41E-07;3.97E-05;3.70E-06;-1.18E-05;1
2024/05/03/13:22:37.363582;179848;1714767757;363105503;world;5.09E-07;2.98E-05;1.10E-05;-6.25E-06;8.58E-05;-4.71E-05;1
2024/05/03/13:22:37.383653;179849;1714767757;383281788;world;-7.59E-06;9.11E-06;6.92E-08;-1.74E-05;2.35E-05;-4.16E-06;1
2024/05/03/13:22:37.413559;179850;1714767757;413201174;world;6.68E-06;7.03E-05;4.35E-05;0.000365879;0.000174534;-8.34E-05;1
2024/05/03/13:22:37.413590;179851;1714767757;413248944;world;2.33E-05;6.85E-05;3.13E-05;0.000336119;0.000162382;-9.39E-05;1
2024/05/03/13:22:37.424268;179852;1714767757;423933858;world;7.78E-06;4.82E-05;2.34E-05;2.22E-05;2.44E-05;-8.14E-05;1
2024/05/03/13:22:37.443312;179853;1714767757;443156098;world;-7.15E-07;2.07E-05;-5.16E-06;-6.83E-06;1.60E-05;-4.71E-05;1
2024/05/03/13:22:37.463523;179854;1714767757;463266148;world;-8.08E-06;-5.75E-06;-1.31E-06;-3.70E-06;1.07E-05;1.78E-05;1
2024/05/03/13:22:37.473284;179855;1714767757;472939208;world;-1.12E-05;1.92E-05;7.31E-06;-1.10E-05;3.03E-05;-1.85E-05;1
2024/05/03/13:22:37.493421;179856;1714767757;493134328;world;-1.00E-05;3.53E-06;-8.71E-07;1.52E-05;6.21E-07;-6.07E-06;1
2024/05/03/13:22:37.503569;179857;1714767757;503302807;world;2.48E-06;-2.70E-06;-1.62E-05;1.71E-05;4.77E-05;1.59E-05;1
2024/05/03/13:22:37.523507;179858;1714767757;523223904;world;-5.50E-06;4.77E-07;-4.39E-06;-1.11E-05;4.46E-05;-4.16E-06;1
2024/05/03/13:22:37.533242;179859;1714767757;532966173;world;-1.23E-06;7.90E-06;-6.01E-06;-4.71E-05;4.61E-05;2.51E-06;1
2024/05/03/13:22:37.553583;179860;1714767757;552968975;world;1.66E-06;6.52E-06;-2.15E-06;-7.37E-06;6.37E-05;-1.37E-05;1
2024/05/03/13:22:37.563966;179861;1714767757;563163301;world;1.22E-05;1.40E-05;-1.12E-05;3.49E-05;-4.63E-07;-5.09E-05;1
2024/05/03/13:22:37.593676;179862;1714767757;593398720;world;-1.21E-06;-3.37E-06;-9.76E-06;-2.00E-06;4.79E-05;2.25E-05;1
2024/05/03/13:22:37.603502;179863;1714767757;603063118;world;-6.78E-06;3.41E-06;-3.61E-06;6.70E-05;-4.12E-06;1.68E-05;1
2024/05/03/13:22:37.613780;179864;1714767757;613157842;world;-1.83E-06;6.08E-06;-1.75E-06;-5.56E-06;1.55E-05;1.49E-05;1
2024/05/03/13:22:37.633268;179865;1714767757;632949688;world;-1.15E-06;-2.80E-06;-1.13E-05;-4.86E-07;3.91E-05;6.33E-06;1
2024/05/03/13:22:37.643776;179866;1714767757;643243659;world;1.53E-05;1.75E-05;-4.10E-06;1.52E-05;-7.33E-07;-3.09E-05;1
2024/05/03/13:22:37.663493;179867;1714767757;663128681;world;1.23E-05;7.03E-05;3.43E-05;0.000378256;0.000206489;-8.53E-05;0.999999881
2024/05/03/13:22:37.673431;179868;1714767757;673171051;world;1.78E-05;3.71E-05;1.20E-07;4.18E-05;-1.35E-05;-2.80E-05;1
2024/05/03/13:22:37.693481;179869;1714767757;693214590;world;5.54E-06;1.75E-05;1.18E-06;7.80E-05;-1.42E-05;-4.14E-05;1
2024/05/03/13:22:37.723534;179870;1714767757;722999875;world;-1.37E-06;-4.07E-06;-1.04E-05;1.58E-05;3.14E-05;3.02E-05;1
2024/05/03/13:22:37.723561;179871;1714767757;723034009;world;1.01E-05;7.28E-05;4.01E-05;0.000351258;0.000160014;-9.86E-05;1
2024/05/03/13:22:37.743398;179872;1714767757;743113150;world;-2.98E-06;1.46E-05;-7.14E-07;-3.97E-05;1.03E-05;-3.09E-05;1
2024/05/03/13:22:37.753371;179873;1714767757;753161153;world;9.39E-07;-6.73E-06;-7.88E-06;-8.01E-06;5.93E-05;-7.98E-06;1
2024/05/03/13:22:37.773192;179874;1714767757;772916840;world;-4.97E-06;6.76E-06;-7.08E-06;9.38E-06;5.17E-05;-1.08E-05;1
2024/05/03/13:22:37.793362;179875;1714767757;793092455;world;1.54E-06;7.17E-05;3.64E-05;0.000400698;0.000206845;-8.91E-05;0.999999881
2024/05/03/13:22:37.803758;179876;1714767757;803235756;world;9.24E-06;1.93E-05;-1.50E-05;6.26E-05;2.12E-05;2.35E-05;1
2024/05/03/13:22:37.813463;179877;1714767757;813216112;world;-5.35E-06;1.39E-05;-2.49E-05;3.43E-05;4.53E-05;4.26E-05;1
2024/05/03/13:22:37.833497;179878;1714767757;833165872;world;1.94E-05;3.72E-05;-1.36E-05;9.31E-05;2.58E-05;-3.21E-06;1
2024/05/03/13:22:37.843816;179879;1714767757;843531410;world;2.12E-05;7.68E-05;1.16E-05;0.000447686;0.000256941;-2.81E-05;0.999999881
2024/05/03/13:22:37.863283;179880;1714767757;863004786;world;8.07E-07;1.94E-05;-3.36E-05;9.10E-05;0.0001299;7.27E-06;1
2024/05/03/13:22:37.893717;179881;1714767757;893349711;world;-6.75E-06;-2.77E-06;-3.33E-05;4.07E-05;9.29E-05;5.97E-05;1
2024/05/03/13:22:37.893745;179882;1714767757;893388705;world;2.27E-05;7.05E-05;-6.29E-07;0.000491915;0.00026993;-2.05E-05;0.999999881
2024/05/03/13:22:37.923595;179883;1714767757;923279385;world;2.36E-06;1.68E-05;-3.91E-05;0.000145236;0.000130938;8.26E-05;1
2024/05/03/13:22:37.923619;179884;1714767757;923320973;world;-9.28E-07;1.72E-05;-3.97E-05;0.000117382;0.000112513;5.11E-05;1
2024/05/03/13:22:37.943448;179885;1714767757;943134640;world;1.32E-05;7.09E-05;-1.31E-05;0.000474707;0.000253198;-2.38E-06;0.999999881
2024/05/03/13:22:37.953279;179886;1714767757;952983007;world;-2.34E-06;1.63E-05;-3.76E-05;0.000124903;9.53E-05;6.64E-05;1
2024/05/03/13:22:37.973735;179887;1714767757;973228114;world;3.93E-06;9.02E-06;-3.66E-05;0.000137365;5.66E-05;9.50E-05;1
2024/05/03/13:22:38.003516;179888;1714767758;3230794;world;1.26E-05;3.05E-05;-3.60E-05;0.000134429;6.26E-05;7.50E-05;1
2024/05/03/13:22:38.003539;179889;1714767758;3265018;world;-5.16E-06;3.76E-05;-3.44E-05;0.000145881;7.76E-05;4.83E-05;1
2024/05/03/13:22:38.033467;179890;1714767758;33160059;world;6.70E-05;5.27E-05;-1.73E-05;0.000382072;-5.24E-05;4.64E-05;1
2024/05/03/13:22:38.033492;179891;1714767758;33194533;world;8.26E-05;6.00E-05;-1.69E-05;0.000335477;-1.91E-06;-1.30E-06;1
2024/05/03/13:22:38.053195;179892;1714767758;52892994;world;6.46E-05;3.98E-05;-9.60E-06;0.000339816;-0.000131786;-6.99E-05;1
2024/05/03/13:22:38.063638;179893;1714767758;63365633;world;0.000336766;1.75E-05;2.32E-06;0.000360957;-1.64E-05;-0.000475274;0.999999881
2024/05/03/13:22:38.083257;179894;1714767758;82959214;world;0.001141945;7.12E-05;5.08E-05;0.000103083;9.78E-05;-0.00099981;0.999999523
2024/05/03/13:22:38.103358;179895;1714767758;103041094;world;0.002448469;0.000134753;0.000117824;0.000350663;0.000221567;-0.001767585;0.999998331
2024/05/03/13:22:38.123638;179896;1714767758;123336502;world;0.003975537;8.77E-06;0.000122758;0.00041132;0.000552166;-0.002700426;0.999996185
2024/05/03/13:22:38.153530;179897;1714767758;153215333;world;0.005484154;-7.91E-05;0.00012228;0.000511745;0.000417912;-0.003705579;0.999992967
2024/05/03/13:22:38.153559;179898;1714767758;153257842;world;0.006317716;-4.82E-05;0.000159115;0.00028581;0.000323648;-0.004406402;0.999990225
2024/05/03/13:22:38.163847;179899;1714767758;163556627;world;0.008977097;-0.000124003;0.000173102;0.000493238;0.000627265;-0.00633206;0.999979615
2024/05/03/13:22:38.173463;179900;1714767758;173190691;world;0.009917301;-0.000131764;0.000147715;0.000553903;0.000332729;-0.006991861;0.999975324
2024/05/03/13:22:38.213408;179901;1714767758;213100122;world;0.011760257;-8.92E-05;0.000199876;0.000655832;0.000204901;-0.00830975;0.99996531
2024/05/03/13:22:38.213433;179902;1714767758;213134817;world;0.013586177;-0.000124748;0.000221837;0.000735915;0.000286679;-0.009429392;0.999955297
2024/05/03/13:22:38.223769;179903;1714767758;223411737;world;0.01529876;-0.000326052;0.00020466;0.000894393;0.000438979;-0.010531011;0.999944091
2024/05/03/13:22:38.243521;179904;1714767758;243265250;world;0.017132923;-0.000388463;0.000249599;0.000848423;0.000800384;-0.011946462;0.999927998
2024/05/03/13:22:38.253710;179905;1714767758;253346312;world;0.018898923;-0.000425248;0.000297099;0.000686104;0.000670379;-0.013048604;0.999914408
2024/05/03/13:22:38.283552;179906;1714767758;283147647;world;0.02068677;-0.000558894;0.000250586;0.000645696;0.000611553;-0.014129909;0.999899864
2024/05/03/13:22:38.283564;179907;1714767758;283182813;world;0.022542333;-0.00053189;0.000362378;0.00109105;0.000768633;-0.015708489;0.999875784
2024/05/03/13:22:38.303650;179908;1714767758;303331045;world;0.023424782;-0.000559664;0.000371235;0.001372181;0.000720002;-0.016345594;0.999865294
2024/05/03/13:22:38.333442;179909;1714767758;333118704;world;0.025012761;-0.000693637;0.000359807;0.001052039;0.000715088;-0.017582113;0.99984467
2024/05/03/13:22:38.333456;179910;1714767758;333160403;world;0.026569152;-0.00076815;0.000354683;0.000990972;0.000549704;-0.018626006;0.999825895
2024/05/03/13:22:38.353645;179911;1714767758;353268211;world;0.028158098;-0.000769267;0.000412836;0.00146957;0.000896094;-0.019909197;0.999800384
2024/05/03/13:22:38.363296;179912;1714767758;362961687;world;0.029530404;-0.000932695;0.000302464;0.001199256;0.001299629;-0.02101836;0.999777615
2024/05/03/13:22:38.383561;179913;1714767758;383250980;world;0.030732116;-0.000989462;0.000316236;0.000951241;0.000866931;-0.021989198;0.999757469
2024/05/03/13:22:38.413608;179914;1714767758;413295175;world;0.031882115;-0.001015916;0.000350689;0.001053992;0.000978705;-0.023282258;0.999727905
2024/05/03/13:22:38.413635;179915;1714767758;413328968;world;0.032994188;-0.001058285;0.00037403;0.001251474;0.001319148;-0.024503216;0.999698162
2024/05/03/13:22:38.433513;179916;1714767758;433130914;world;0.033483759;-0.001094367;0.000305971;0.001196476;0.001024274;-0.024836473;0.999690294
2024/05/03/13:22:38.443222;179917;1714767758;442891936;world;0.034425136;-0.001166056;0.000278852;0.000942129;0.000872007;-0.025671238;0.999669671
2024/05/03/13:22:38.453232;179918;1714767758;452917186;world;0.035249125;-0.001255989;0.000186566;0.000416984;0.000559313;-0.026609726;0.99964571
2024/05/03/13:22:38.473404;179919;1714767758;473099352;world;0.036107335;-0.001182828;0.000332549;0.000673189;0.001197223;-0.027838171;0.999611557
2024/05/03/13:22:38.493287;179920;1714767758;492941192;world;0.036900613;-0.001130962;0.000345206;0.000764049;0.001186652;-0.028949801;0.999579966
2024/05/03/13:22:38.513301;179921;1714767758;512974971;world;0.037252925;-0.001193823;0.000349821;0.000777593;0.001197056;-0.029415023;0.999566257
2024/05/03/13:22:38.533630;179922;1714767758;533250717;world;0.038228989;-0.001363851;0.00025733;0.000553681;0.001113231;-0.030699691;0.999527931
2024/05/03/13:22:38.533656;179923;1714767758;533286524;world;0.038457535;-0.00139387;0.000209542;0.000760965;0.001265327;-0.031140411;0.999513984
2024/05/03/13:22:38.563641;179924;1714767758;563342823;world;0.039315574;-0.001413427;0.000234348;0.00077996;0.000994071;-0.032008581;0.999486804
2024/05/03/13:22:38.573407;179925;1714767758;573163438;world;0.039568812;-0.001464266;0.000207594;0.001121841;0.001200375;-0.032261718;0.999478161
2024/05/03/13:22:38.594164;179926;1714767758;593145951;world;0.040344857;-0.001440924;0.000253943;0.00147781;0.00113149;-0.033244703;0.999445498
2024/05/03/13:22:38.603240;179927;1714767758;602947179;world;0.040607661;-0.001421181;0.000251744;0.001571384;0.001152539;-0.033686139;0.999430597
2024/05/03/13:22:38.613168;179928;1714767758;612900694;world;0.041101918;-0.001407806;0.000248262;0.001665986;0.001240161;-0.034433614;0.999404907
2024/05/03/13:22:38.633711;179929;1714767758;633426907;world;0.041302416;-0.001465547;0.000209534;0.001489849;0.001109667;-0.034690574;0.999396443
2024/05/03/13:22:38.643867;179930;1714767758;643430806;world;0.041721106;-0.001482919;0.000197435;0.001595841;0.001794298;-0.035695378;0.999359906
2024/05/03/13:22:38.663667;179931;1714767758;663318226;world;0.042225435;-0.001680566;0.000266041;0.000728834;0.001109201;-0.03684755;0.99932003
2024/05/03/13:22:38.683353;179932;1714767758;682940416;world;0.042433389;-0.001721484;0.000293467;0.000612356;0.001027924;-0.037147582;0.999309063
2024/05/03/13:22:38.693496;179933;1714767758;693193894;world;0.04303332;-0.001712196;0.000397298;0.000828814;0.001513651;-0.038300376;0.999264777
2024/05/03/13:22:38.713614;179934;1714767758;713284809;world;0.043247368;-0.001719268;0.000348973;0.000600992;0.00150494;-0.038630731;0.99925226
2024/05/03/13:22:38.723282;179935;1714767758;722959722;world;0.043767191;-0.001822545;0.000375594;0.000610405;0.000826587;-0.039099153;0.999234796
2024/05/03/13:22:38.743181;179936;1714767758;742862965;world;0.044181086;-0.001836838;0.000371001;0.000915351;0.001072165;-0.03946745;0.999219894
2024/05/03/13:22:38.753429;179937;1714767758;753111594;world;0.044407461;-0.001829666;0.000385599;0.000978631;0.00120186;-0.039806873;0.999206245
2024/05/03/13:22:38.773419;179938;1714767758;773153237;world;0.045170143;-0.001859643;0.000391896;0.000892341;0.001003018;-0.040787134;0.999166965
2024/05/03/13:22:38.783182;179939;1714767758;782949177;world;0.045421075;-0.001866632;0.000397211;0.001066498;0.001162382;-0.041081894;0.999154568
2024/05/03/13:22:38.803670;179940;1714767758;803357958;world;0.045930043;-0.001928773;0.000343738;0.000600502;0.00098594;-0.041794021;0.999125659
2024/05/03/13:22:38.823469;179941;1714767758;823198333;world;0.046478406;-0.00198402;0.000357939;0.000611721;0.000982904;-0.042360969;0.999101758
2024/05/03/13:22:38.853224;179942;1714767758;852917444;world;0.047217727;-0.00199176;0.000378915;0.001298405;0.001415515;-0.043102469;0.999068797
2024/05/03/13:22:38.853256;179943;1714767758;852958781;world;0.047755435;-0.00193535;0.000445085;0.001234536;0.000938086;-0.043642957;0.999046028
2024/05/03/13:22:38.863468;179944;1714767758;863265420;world;0.04833078;-0.002003306;0.000422673;0.000757895;0.000659257;-0.044275936;0.999018908
2024/05/03/13:22:38.873328;179945;1714767758;872900269;world;0.048709601;-0.002007206;0.000321416;0.00072997;0.00117183;-0.044738375;0.998997867
2024/05/03/13:22:38.893155;179946;1714767758;892898880;world;0.049381971;-0.001984508;0.000397695;0.001294782;0.001245554;-0.045330688;0.998970509
2024/05/03/13:22:38.923180;179947;1714767758;922956956;world;0.049992923;-0.002116638;0.000385704;0.000882768;0.001341773;-0.045938138;0.998943031
2024/05/03/13:22:38.923192;179948;1714767758;922992283;world;0.050627902;-0.002230461;0.000345336;0.000821757;0.00135762;-0.046612557;0.998911858
2024/05/03/13:22:38.943309;179949;1714767758;943085542;world;0.051364008;-0.002303355;0.000348203;0.000910244;0.001347492;-0.047090877;0.998889267
2024/05/03/13:22:38.953452;179950;1714767758;953197014;world;0.052103676;-0.002366169;0.000297274;0.001200229;0.00121172;-0.047511149;0.99886924
2024/05/03/13:22:38.973276;179951;1714767758;973020387;world;0.05273851;-0.002443052;0.00025674;0.00069959;0.001583037;-0.048444435;0.998824418
2024/05/03/13:22:38.993326;179952;1714767758;993029488;world;0.053407334;-0.002525891;0.000250328;0.0004303;0.001689092;-0.049269926;0.998784006
2024/05/03/13:22:39.003424;179953;1714767759;3223716;world;0.054129206;-0.00253472;0.000298333;0.000743743;0.001809388;-0.049905844;0.998751998
2024/05/03/13:22:39.023383;179954;1714767759;23125466;world;0.054822929;-0.002555754;0.00035113;0.000852905;0.001767832;-0.050487943;0.998722732
2024/05/03/13:22:39.053497;179955;1714767759;53222606;world;0.05551172;-0.002649934;0.000338361;0.000937633;0.001852596;-0.051032014;0.998694837
2024/05/03/13:22:39.053518;179956;1714767759;53256650;world;0.055877734;-0.002664597;0.000368128;0.000971787;0.001871782;-0.051314961;0.998680294
2024/05/03/13:22:39.063537;179957;1714767759;63272833;world;0.056563742;-0.002757171;0.000338643;0.000875998;0.001769333;-0.051909003;0.998649895
2024/05/03/13:22:39.083451;179958;1714767759;83150548;world;0.057235762;-0.002856779;0.000324381;0.000649021;0.001527822;-0.052470353;0.998621106
2024/05/03/13:22:39.103642;179959;1714767759;103362239;world;0.057902858;-0.002917231;0.000332439;0.000428671;0.001371513;-0.053145166;0.99858582
2024/05/03/13:22:39.123708;179960;1714767759;123353028;world;0.058681019;-0.002930298;0.00039835;0.000466888;0.00129058;-0.053911783;0.998544812
2024/05/03/13:22:39.133462;179961;1714767759;133061763;world;0.059436865;-0.00294517;0.000505417;0.000674649;0.001680798;-0.054798894;0.998495817
2024/05/03/13:22:39.153245;179962;1714767759;152995904;world;0.06017084;-0.003073143;0.000473664;0.000774012;0.001613236;-0.055319861;0.998467147
2024/05/03/13:22:39.163656;179963;1714767759;163401318;world;0.060893856;-0.003199077;0.000412131;0.000717511;0.001366435;-0.055925164;0.998433769
2024/05/03/13:22:39.184113;179964;1714767759;183398097;world;0.061639152;-0.003248399;0.000484972;0.001051279;0.001524817;-0.056707472;0.998389125
2024/05/03/13:22:39.193344;179965;1714767759;193107995;world;0.061941937;-0.003303862;0.000478101;0.000980222;0.001406128;-0.056936722;0.998376369
2024/05/03/13:22:39.213635;179966;1714767759;213369511;world;0.062571086;-0.003395911;0.000494119;0.000976858;0.001271123;-0.057594486;0.998338819
2024/05/03/13:22:39.233080;179967;1714767759;232891478;world;0.063229442;-0.003469862;0.000491625;0.000964372;0.001255251;-0.058189504;0.998304367
2024/05/03/13:22:39.263446;179968;1714767759;262931230;world;0.063942537;-0.003532123;0.000503794;0.001018308;0.001429533;-0.058877107;0.998263776
2024/05/03/13:22:39.263452;179969;1714767759;262965013;world;0.064280897;-0.003585453;0.000504391;0.00095997;0.001481951;-0.059225526;0.998243093
2024/05/03/13:22:39.273764;179970;1714767759;273338007;world;0.064945519;-0.003675531;0.000496619;0.000970623;0.00148114;-0.059834808;0.998206735
2024/05/03/13:22:39.293202;179971;1714767759;292916750;world;0.0660493;-0.003740389;0.000488129;0.00114471;0.001430471;-0.060625076;0.998158991
2024/05/03/13:22:39.313424;179972;1714767759;313056628;world;0.066385746;-0.003790087;0.000481473;0.001174077;0.001423758;-0.06089545;0.998142481
2024/05/03/13:22:39.323277;179973;1714767759;323031052;world;0.067366913;-0.00392109;0.000464568;0.001435494;0.001398774;-0.06162104;0.998097599
2024/05/03/13:22:39.333321;179974;1714767759;333042196;world;0.067645796;-0.004019984;0.000441232;0.001098953;0.00137072;-0.061949983;0.99807775
2024/05/03/13:22:39.363327;179975;1714767759;363064604;world;0.068286695;-0.004085901;0.0004434;0.001164804;0.001424401;-0.062524065;0.998041749
2024/05/03/13:22:39.363357;179976;1714767759;363099409;world;0.068990871;-0.004091281;0.000479783;0.001240828;0.001443479;-0.063124761;0.9980039
2024/05/03/13:22:39.383293;179977;1714767759;382962780;world;0.069742784;-0.004209991;0.000471471;0.001383128;0.001535895;-0.063907407;0.997953773
2024/05/03/13:22:39.393715;179978;1714767759;393523343;world;0.070062667;-0.004262188;0.000458956;0.00140071;0.001669536;-0.064347312;0.997925162
2024/05/03/13:22:39.413686;179979;1714767759;413347949;world;0.070981957;-0.004408714;0.000404923;0.001238644;0.001607943;-0.065329112;0.997861803
2024/05/03/13:22:39.434113;179980;1714767759;433362201;world;0.071513444;-0.00443848;0.000415252;0.000968011;0.001641534;-0.066273734;0.997799695
2024/05/03/13:22:39.463603;179981;1714767759;463303648;world;0.07181593;-0.004467678;0.000409145;0.000946987;0.001661164;-0.066557288;0.997780859
2024/05/03/13:22:39.463639;179982;1714767759;463341960;world;0.072468542;-0.004622951;0.000417288;0.00094858;0.00156484;-0.06694635;0.997754872
2024/05/03/13:22:39.473674;179983;1714767759;473229479;world;0.073128581;-0.004778528;0.000404969;0.000633157;0.001455173;-0.067672804;0.997706294
2024/05/03/13:22:39.493351;179984;1714767759;493047907;world;0.073867753;-0.004824318;0.000429981;0.000777478;0.001329637;-0.068525389;0.99764818
2024/05/03/13:22:39.503528;179985;1714767759;503286373;world;0.074592322;-0.004926861;0.000414872;0.001136938;0.0012096;-0.068881482;0.997623503
2024/05/03/13:22:39.523539;179986;1714767759;523280405;world;0.074884593;-0.005004596;0.000379339;0.001095103;0.001116241;-0.069136322;0.997606039
2024/05/03/13:22:39.533556;179987;1714767759;533304897;world;0.075454578;-0.005060245;0.000411217;0.000804451;0.001294522;-0.069765061;0.997562289
2024/05/03/13:22:39.553338;179988;1714767759;553134502;world;0.076119915;-0.005150181;0.000418024;0.000793436;0.001566087;-0.070616722;0.997502029
2024/05/03/13:22:39.573413;179989;1714767759;573193548;world;0.076800264;-0.00538595;0.000330696;0.000542005;0.001278998;-0.070974819;0.997477114
2024/05/03/13:22:39.583267;179990;1714767759;583019984;world;0.077502802;-0.005532935;0.000291192;0.001032172;0.001172239;-0.071304366;0.997453392
2024/05/03/13:22:39.593182;179991;1714767759;592922915;world;0.077980824;-0.005485974;0.000445506;0.000776248;0.001281966;-0.072105147;0.997395873
2024/05/03/13:22:39.613191;179992;1714767759;612958756;world;0.07866247;-0.005577801;0.000378083;0.000979015;0.001293115;-0.072653241;0.997355938
2024/05/03/13:22:39.633476;179993;1714767759;633156884;world;0.079229921;-0.005628598;0.000390282;0.000875134;0.001021958;-0.073286325;0.997310042
2024/05/03/13:22:39.673847;179994;1714767759;673536976;world;0.079980813;-0.005732882;0.000412834;0.00079091;0.001232833;-0.074098684;0.997249901
2024/05/03/13:22:39.673858;179995;1714767759;673579425;world;0.080376998;-0.005797153;0.000470329;0.001244783;0.001518672;-0.074386723;0.997227609
2024/05/03/13:22:39.683749;179996;1714767759;683406370;world;0.081013188;-0.005901482;0.000496786;0.001290577;0.001542852;-0.07498689;0.997182488
2024/05/03/13:22:39.693295;179997;1714767759;692990535;world;0.081690297;-0.006000999;0.000486998;0.001186734;0.001502963;-0.075653337;0.997132421
2024/05/03/13:22:39.714237;179998;1714767759;713740749;world;0.082321912;-0.006077187;0.000503164;0.001159376;0.001539867;-0.076252431;0.997086704
2024/05/03/13:22:39.723504;179999;1714767759;723242377;world;0.082954384;-0.006166104;0.000511104;0.001412106;0.001750267;-0.076899648;0.997036338
2024/05/03/13:22:39.743552;180000;1714767759;743245166;world;0.083688237;-0.006279413;0.000536893;0.001847686;0.002035811;-0.07739713;0.996996641
2024/05/03/13:22:39.763668;180001;1714767759;763370447;world;0.083974592;-0.006300045;0.000542911;0.001567511;0.001628212;-0.077792473;0.996967018
2024/05/03/13:22:39.773299;180002;1714767759;772951331;world;0.084627479;-0.00640431;0.000532242;0.001558272;0.001602075;-0.078543507;0.996908247
2024/05/03/13:22:39.803409;180003;1714767759;803048040;world;0.085334584;-0.006500512;0.000534733;0.001659276;0.001670971;-0.079285309;0.996849239
2024/05/03/13:22:39.803434;180004;1714767759;803090610;world;0.085954003;-0.00677292;0.000360601;0.001356969;0.002580485;-0.080292992;0.996767044
2024/05/03/13:22:39.823322;180005;1714767759;823038158;world;0.086564593;-0.006748173;0.000544779;0.001002718;0.001777114;-0.080575489;0.996746421
2024/05/03/13:22:39.843395;180006;1714767759;842955277;world;0.087207586;-0.006825522;0.000556383;0.001322394;0.001753038;-0.081036955;0.996708751
2024/05/03/13:22:39.853641;180007;1714767759;852964085;world;0.087835014;-0.006979791;0.000531369;0.001069512;0.001760817;-0.08179985;0.996646702
2024/05/03/13:22:39.863263;180008;1714767759;862961082;world;0.08857581;-0.007083779;0.000513193;0.00099457;0.001581547;-0.082365058;0.996600568
2024/05/03/13:22:39.884308;180009;1714767759;883367449;world;0.089194864;-0.007188893;0.000528627;0.001008775;0.001668682;-0.082980089;0.996549368
2024/05/03/13:22:39.903718;180010;1714767759;903404013;world;0.089894772;-0.007281369;0.000523974;0.001154281;0.001591837;-0.083650187;0.99649328
2024/05/03/13:22:39.913278;180011;1714767759;912921710;world;0.090222627;-0.007169514;0.000615851;0.000977787;0.001696025;-0.084393203;0.996430695
2024/05/03/13:22:39.923509;180012;1714767759;923233207;world;0.090967193;-0.007333824;0.000570024;0.001107237;0.001703451;-0.085023433;0.996376932
2024/05/03/13:22:39.943763;180013;1714767759;943485225;world;0.09172976;-0.007445269;0.000581881;0.00160208;0.001700223;-0.085664496;0.996321321
2024/05/03/13:22:39.973103;180014;1714767759;972879265;world;0.092210755;-0.007629021;0.000595955;0.001145697;0.001663118;-0.086258657;0.996270776
2024/05/03/13:22:39.973109;180015;1714767759;972914521;world;0.092806518;-0.007796782;0.000529653;0.000943918;0.001541708;-0.086782686;0.996225595
2024/05/03/13:22:39.993497;180016;1714767759;993248071;world;0.093454301;-0.007916555;0.000525935;0.000801389;0.001578507;-0.087560624;0.996157706
2024/05/03/13:22:40.003516;180017;1714767760;3073768;world;0.093786515;-0.007970365;0.000534723;0.000842439;0.00159775;-0.087918848;0.996125996
2024/05/03/13:22:40.023661;180018;1714767760;23412136;world;0.094382897;-0.00791003;0.000709981;0.001037334;0.002127281;-0.088986501;0.996030033
2024/05/03/13:22:40.043496;180019;1714767760;43206827;world;0.095160939;-0.008145506;0.000612644;0.00129938;0.001908645;-0.089488186;0.99598527
2024/05/03/13:22:40.053185;180020;1714767760;52996745;world;0.095799804;-0.008250714;0.000641347;0.00124504;0.001954026;-0.0903183;0.995910287
2024/05/03/13:22:40.083928;180021;1714767760;83466224;world;0.096474163;-0.008374937;0.00061098;0.001291961;0.001989502;-0.090997487;0.995848298
2024/05/03/13:22:40.083956;180022;1714767760;83516418;world;0.097083986;-0.00856599;0.000597914;0.001608702;0.00238;-0.091431737;0.995807171
2024/05/03/13:22:40.103536;180023;1714767760;103250024;world;0.097646952;-0.008671857;0.000571546;0.001286763;0.002384583;-0.091824286;0.995771587
2024/05/03/13:22:40.113966;180024;1714767760;112939523;world;0.098357245;-0.008762029;0.000539772;0.001364553;0.002078783;-0.092514329;0.995708227
2024/05/03/13:22:40.133493;180025;1714767760;133116159;world;0.098996527;-0.008869963;0.000535212;0.001332909;0.002055402;-0.09331283;0.9956339
2024/05/03/13:22:40.153268;180026;1714767760;152979557;world;0.099687397;-0.008982508;0.00055523;0.001475037;0.001957855;-0.094003148;0.995568931
2024/05/03/13:22:40.193594;180027;1714767760;193207977;world;0.100316949;-0.009086577;0.000598933;0.001280742;0.001767292;-0.094590291;0.995513856
2024/05/03/13:22:40.193603;180029;1714767760;193251780;world;0.101355359;-0.009263244;0.000548935;0.001450513;0.002144761;-0.095441736;0.995431662
2024/05/03/13:22:40.203324;180030;1714767760;202992584;world;0.101929314;-0.009455912;0.000487056;0.001172076;0.002173421;-0.096061192;0.995372355
2024/05/03/13:22:40.223297;180031;1714767760;222946203;world;0.102561831;-0.00962848;0.000449455;0.001230257;0.002248084;-0.096841656;0.995296538
2024/05/03/13:22:40.253510;180032;1714767760;253223650;world;0.103207096;-0.00974381;0.000497226;0.001044388;0.002097769;-0.097579576;0.995224953
2024/05/03/13:22:40.263320;180033;1714767760;263019148;world;0.103796639;-0.009788756;0.000560117;0.000589163;0.001715303;-0.09856835;0.995128632
2024/05/03/13:22:40.303632;180034;1714767760;303184890;world;0.10408926;-0.009790193;0.000572229;0.000676876;0.001706083;-0.09896896;0.995088875
2024/05/03/13:22:40.303662;180036;1714767760;303229593;world;0.105470136;-0.010176168;0.000657304;0.000635985;0.001949421;-0.100161903;0.99496907
2024/05/03/13:22:40.313585;180037;1714767760;313293415;world;0.106136307;-0.010369694;0.000649413;0.000720714;0.001960073;-0.100864194;0.994898021
2024/05/03/13:22:40.333645;180038;1714767760;333094849;world;0.106754243;-0.010438547;0.000698164;0.000741892;0.001925657;-0.101556823;0.994827569
2024/05/03/13:22:40.353573;180039;1714767760;353273899;world;0.107384011;-0.010579186;0.000621802;0.000702362;0.001832114;-0.102145806;0.994767547
2024/05/03/13:22:40.383428;180040;1714767760;383141398;world;0.108029723;-0.010669113;0.00070758;0.000695945;0.002000109;-0.102969363;0.994682372
2024/05/03/13:22:40.383457;180041;1714767760;383174650;world;0.108366013;-0.010762786;0.000660581;0.000668773;0.001956524;-0.103243455;0.994654059
2024/05/03/13:22:40.394317;180042;1714767760;393929516;world;0.109052502;-0.010896889;0.00064906;0.000884244;0.001965462;-0.10384234;0.994591415
2024/05/03/13:22:40.413543;180043;1714767760;413219712;world;0.110037506;-0.011058899;0.000712767;0.000946906;0.001988269;-0.10482318;0.994488478
2024/05/03/13:22:40.423279;180044;1714767760;422963002;world;0.110381588;-0.01115336;0.000699791;0.000911855;0.002017443;-0.105083965;0.99446094
2024/05/03/13:22:40.443576;180045;1714767760;443261247;world;0.111040741;-0.01131415;0.00068385;0.000813554;0.002033338;-0.105694547;0.994396329
2024/05/03/13:22:40.463250;180046;1714767760;462967020;world;0.111528054;-0.011396775;0.000662988;0.000465792;0.002032124;-0.106412776;0.994319916
2024/05/03/13:22:40.503350;180047;1714767760;503039685;world;0.112266891;-0.011536872;0.000689487;0.000679211;0.002213276;-0.10701257;0.994255006
2024/05/03/13:22:40.503374;180048;1714767760;503074470;world;0.112887837;-0.011677371;0.00074033;0.00066616;0.00209866;-0.107688494;0.994182289
2024/05/03/13:22:40.513315;180049;1714767760;513002038;world;0.113547325;-0.011857489;0.000666885;0.000796296;0.002323986;-0.108455978;0.994098306
2024/05/03/13:22:40.523696;180050;1714767760;523352588;world;0.113853514;-0.011939641;0.000622509;0.000765591;0.002468662;-0.1085224;0.994090617
2024/05/03/13:22:40.533290;180051;1714767760;532915109;world;0.114484325;-0.012012548;0.00066658;0.000596855;0.002621086;-0.109250233;0.994010627
2024/05/03/13:22:40.563510;180052;1714767760;563239767;world;0.115156159;-0.012216677;0.0006294;0.000652497;0.002494665;-0.109967835;0.99393177
2024/05/03/13:22:40.563545;180053;1714767760;563274041;world;0.115772948;-0.012392109;0.000627545;0.000274777;0.002521441;-0.110398278;0.993884146
2024/05/03/13:22:40.593257;180054;1714767760;592932917;world;0.116445765;-0.012541434;0.000642243;0.000524383;0.002559913;-0.111119233;0.99380374
2024/05/03/13:22:40.603642;180055;1714767760;603357253;world;0.11708419;-0.012688048;0.000604316;0.000464844;0.002400717;-0.111595698;0.993750751
2024/05/03/13:22:40.613406;180056;1714767760;613036587;world;0.117745034;-0.012815689;0.000603393;0.000284805;0.00230136;-0.112338208;0.993667305
2024/05/03/13:22:40.633257;180057;1714767760;632912730;world;0.118430108;-0.012981029;0.000610862;0.000404067;0.0022164;-0.1128776;0.993606329
2024/05/03/13:22:40.663479;180058;1714767760;663143940;world;0.119092718;-0.013157717;0.00060272;0.000492021;0.002167846;-0.113478482;0.993537962
2024/05/03/13:22:40.663501;180059;1714767760;663186860;world;0.119663544;-0.013437555;0.000577835;0.00026114;0.002951183;-0.114390865;0.993431389
2024/05/03/13:22:40.703589;180060;1714767760;703297328;world;0.119949982;-0.013557596;0.000564785;0.000167274;0.003040215;-0.114817925;0.993381858
2024/05/03/13:22:40.703616;180061;1714767760;703336081;world;0.120614573;-0.013586637;0.00066882;0.000308116;0.002598237;-0.115303092;0.993326902
2024/05/03/13:22:40.713607;180062;1714767760;713316105;world;0.12137039;-0.013766957;0.000628597;0.00061538;0.002347196;-0.115656957;0.993286312
2024/05/03/13:22:40.723562;180063;1714767760;723274850;world;0.122017436;-0.013869469;0.00064097;0.000602555;0.002340403;-0.116244212;0.993217766
2024/05/03/13:22:40.743551;180064;1714767760;743201768;world;0.122665875;-0.013992621;0.000652192;0.00052268;0.002260444;-0.116976127;0.993132055
2024/05/03/13:22:40.763858;180065;1714767760;763136602;world;0.12327908;-0.014110777;0.000679013;0.000498315;0.002315509;-0.117599301;0.993058324
2024/05/03/13:22:40.803443;180066;1714767760;803050368;world;0.123988613;-0.01427716;0.00068988;0.000807185;0.002341016;-0.118248649;0.992980957
2024/05/03/13:22:40.803473;180068;1714767760;803087397;world;0.125263527;-0.014532091;0.000749757;0.000746622;0.002495396;-0.119750485;0.992800593
2024/05/03/13:22:40.823413;180069;1714767760;823052727;world;0.125598758;-0.014610145;0.000745813;0.000853687;0.002498368;-0.120083049;0.99276042
2024/05/03/13:22:40.833679;180070;1714767760;833032763;world;0.126286417;-0.01475141;0.000768639;0.000884674;0.002510276;-0.120768555;0.992677093
2024/05/03/13:22:40.853343;180071;1714767760;853044760;world;0.126924142;-0.01493267;0.000753731;0.000777694;0.002529465;-0.121360026;0.99260509
2024/05/03/13:22:40.863675;180072;1714767760;863339275;world;0.127553016;-0.015102434;0.000726758;0.00079356;0.002579078;-0.121985793;0.9925282
2024/05/03/13:22:40.913392;180073;1714767760;912968762;world;0.12816073;-0.015248718;0.000740705;0.000887828;0.002553645;-0.122527376;0.992461503
2024/05/03/13:22:40.913401;180075;1714767760;913013286;world;0.129112735;-0.015539624;0.000708232;0.000772532;0.002555469;-0.123499103;0.992341161
2024/05/03/13:22:40.933448;180076;1714767760;933044124;world;0.130094334;-0.015783504;0.000727973;0.00092983;0.002814054;-0.124623969;0.992199719
2024/05/03/13:22:40.943512;180077;1714767760;943212056;world;0.130370378;-0.015847798;0.000731937;0.000768382;0.002795132;-0.124945313;0.992159486
2024/05/03/13:22:40.973444;180078;1714767760;973105890;world;0.131001413;-0.016016373;0.000742532;0.000863502;0.002821028;-0.125589877;0.992077887
2024/05/03/13:22:40.973470;180079;1714767760;973144703;world;0.131678343;-0.016162915;0.000740515;0.000810756;0.002862867;-0.126205698;0.991999626
2024/05/03/13:22:41.003235;180080;1714767761;2867295;world;0.132338509;-0.01630614;0.000733171;0.001116107;0.002888966;-0.12667191;0.991939843
2024/05/03/13:22:41.003267;180081;1714767761;2919613;world;0.13294895;-0.016482536;0.000711141;0.00115982;0.00309238;-0.127070606;0.991888225
2024/05/03/13:22:41.023402;180082;1714767761;23093122;world;0.133566365;-0.016656704;0.000702575;0.00047861;0.002722478;-0.127687097;0.991810679
2024/05/03/13:22:41.033596;180083;1714767761;33247114;world;0.133912861;-0.016778387;0.000708216;0.00062526;0.002868596;-0.127970383;0.991773665
2024/05/03/13:22:41.053300;180084;1714767761;52966292;world;0.134877935;-0.016975535;0.000753068;0.000719743;0.0027669;-0.12921609;0.991612434
2024/05/03/13:22:41.073452;180085;1714767761;73055103;world;0.135197848;-0.017057503;0.000739466;0.00074969;0.002705297;-0.12958394;0.991564512
2024/05/03/13:22:41.093474;180086;1714767761;93135007;world;0.135827452;-0.017236093;0.000748383;0.000705845;0.002645878;-0.13025327;0.991476953
2024/05/03/13:22:41.103320;180087;1714767761;102992244;world;0.136510298;-0.017454838;0.000733338;0.000907357;0.002683514;-0.130961001;0.991383433
2024/05/03/13:22:41.113884;180088;1714767761;113115747;world;0.137149379;-0.017652461;0.000715872;0.000983381;0.002743574;-0.131554022;0.991304755
2024/05/03/13:22:41.133336;180089;1714767761;133091066;world;0.137768045;-0.01784057;0.000728652;0.000934326;0.002901369;-0.132095829;0.991232336
2024/05/03/13:22:41.153582;180090;1714767761;153140713;world;0.13840805;-0.01798507;0.00076303;0.000813984;0.002894989;-0.132651314;0.991158187
2024/05/03/13:22:41.173223;180091;1714767761;172941189;world;0.13909319;-0.018166838;0.000750133;0.000803531;0.002670166;-0.13331835;0.991069317
2024/05/03/13:22:41.183708;180092;1714767761;183303145;world;0.139800355;-0.018354127;0.000750936;0.00089609;0.002760112;-0.134085149;0.990965605
2024/05/03/13:22:41.193486;180093;1714767761;193194945;world;0.140105322;-0.018414974;0.000757474;0.000846603;0.002858818;-0.134475455;0.990912437
2024/05/03/13:22:41.213232;180094;1714767761;212950962;world;0.140730008;-0.018552741;0.000743411;0.000798638;0.002840899;-0.135101825;0.990827382
2024/05/03/13:22:41.234066;180095;1714767761;233352509;world;0.141338646;-0.018767431;0.000719228;0.000746371;0.00279781;-0.135666713;0.990750372
2024/05/03/13:22:41.243591;180096;1714767761;243316766;world;0.141999677;-0.018951617;0.000734006;0.000776625;0.002981617;-0.13636899;0.990653336
2024/05/03/13:22:41.253183;180097;1714767761;252844892;world;0.142297849;-0.019033616;0.000742224;0.000579846;0.00303851;-0.136763439;0.990598977
2024/05/03/13:22:41.274022;180098;1714767761;273065582;world;0.143253967;-0.019305967;0.00073455;0.000660376;0.00300918;-0.137620419;0.990480244
2024/05/03/13:22:41.283598;180099;1714767761;282998749;world;0.143595859;-0.019410422;0.00073679;0.000691557;0.003027664;-0.137953982;0.990433812
2024/05/03/13:22:41.303610;180100;1714767761;303347607;world;0.144291416;-0.019650705;0.00069913;0.000780487;0.002865455;-0.138533935;0.990353227
2024/05/03/13:22:41.323532;180101;1714767761;323176232;world;0.14492847;-0.019846147;0.000678365;0.000671798;0.002920102;-0.139319524;0.990243018
2024/05/03/13:22:41.333362;180102;1714767761;332995941;world;0.145549893;-0.020010516;0.000746879;0.000798341;0.002924981;-0.140051663;0.990139544
2024/05/03/13:22:41.353452;180103;1714767761;353168982;world;0.146229893;-0.020162836;0.000747287;0.000807241;0.002780714;-0.140636042;0.99005717
2024/05/03/13:22:41.363190;180104;1714767761;362902849;world;0.146887437;-0.020334525;0.000762277;0.000832797;0.002829505;-0.141186565;0.989978671
2024/05/03/13:22:41.383560;180105;1714767761;383215910;world;0.147215322;-0.020386834;0.000777967;0.000825333;0.002899345;-0.141540676;0.989927828
2024/05/03/13:22:41.403394;180106;1714767761;403080031;world;0.147801146;-0.020608244;0.000785313;0.000580647;0.002899742;-0.142107457;0.989846885
2024/05/03/13:22:41.413619;180107;1714767761;412997597;world;0.148773789;-0.020936962;0.000773449;0.000356672;0.002818805;-0.143011078;0.989717007
2024/05/03/13:22:41.423651;180108;1714767761;423314745;world;0.149094358;-0.021019625;0.000788213;0.000253636;0.002913239;-0.143371448;0.989664614
2024/05/03/13:22:41.443638;180109;1714767761;443395117;world;0.149764255;-0.021220485;0.000763161;0.000154877;0.0028341;-0.144104466;0.989558458
2024/05/03/13:22:41.453560;180110;1714767761;453246134;world;0.150326267;-0.02139684;0.00076463;9.85E-05;0.002895355;-0.144646943;0.989479125
2024/05/03/13:22:41.483739;180111;1714767761;483180068;world;0.150954843;-0.021591974;0.000747837;0.000338126;0.002759371;-0.144997582;0.989428103
2024/05/03/13:22:41.483781;180112;1714767761;483221525;world;0.151301563;-0.021706088;0.000746723;0.000486074;0.002682528;-0.145285681;0.989386082
2024/05/03/13:22:41.503625;180113;1714767761;503246717;world;0.15191187;-0.021902842;0.000751468;0.00056751;0.002704436;-0.14590764;0.98929441
2024/05/03/13:22:41.513698;180114;1714767761;513362007;world;0.152579159;-0.022054365;0.000749768;0.000596863;0.0027836;-0.146837994;0.989156485
2024/05/03/13:22:41.533263;180115;1714767761;532940009;world;0.153164193;-0.022222824;0.000745058;0.00029049;0.002862385;-0.147493824;0.989058793
2024/05/03/13:22:41.553447;180116;1714767761;552948810;world;0.153888047;-0.022420805;0.000768426;0.00056834;0.002675751;-0.14819704;0.988954067
2024/05/03/13:22:41.573622;180117;1714767761;573349266;world;0.15454939;-0.0226654;0.000791328;0.0007498;0.002680585;-0.148954764;0.988840163
2024/05/03/13:22:41.583436;180118;1714767761;583119959;world;0.155185327;-0.022841284;0.000811952;0.00095121;0.00262965;-0.149466217;0.988762915
2024/05/03/13:22:41.613568;180119;1714767761;613281440;world;0.155810937;-0.023040146;0.000805118;0.000980078;0.002708696;-0.149998188;0.988682151
2024/05/03/13:22:41.613595;180120;1714767761;613310495;world;0.156386033;-0.023239333;0.000810206;0.00090996;0.002904526;-0.150621489;0.988586843
2024/05/03/13:22:41.623259;180121;1714767761;622951613;world;0.156788886;-0.023345008;0.000800052;0.001094516;0.002850496;-0.150971636;0.988533378
2024/05/03/13:22:41.643672;180122;1714767761;643268062;world;0.15741916;-0.023541823;0.000821109;0.001079333;0.002975376;-0.151769266;0.98841095
2024/05/03/13:22:41.663478;180123;1714767761;663177326;world;0.158074826;-0.023718012;0.000823217;0.001169211;0.003021591;-0.152361497;0.988319516
2024/05/03/13:22:41.683550;180124;1714767761;683289757;world;0.15908283;-0.024037676;0.0007883;0.001427903;0.002862975;-0.153186485;0.988192141
2024/05/03/13:22:41.693160;180125;1714767761;692874966;world;0.159425452;-0.024216702;0.000771859;0.001258542;0.003123192;-0.153579503;0.988130569
2024/05/03/13:22:41.703510;180126;1714767761;703191362;world;0.160078377;-0.024359515;0.000751047;0.001509083;0.003309576;-0.154154301;0.988040149
2024/05/03/13:22:41.723560;180127;1714767761;723265296;world;0.160694435;-0.024564831;0.000784697;0.001230121;0.003063561;-0.154744953;0.987949014
2024/05/03/13:22:41.744791;180128;1714767761;744482142;world;0.161328703;-0.024741655;0.000812756;0.001289891;0.003162441;-0.155287921;0.987863421
2024/05/03/13:22:41.753472;180129;1714767761;753180935;world;0.161929831;-0.024931494;0.000832023;0.001041508;0.002973803;-0.156091556;0.987737536
2024/05/03/13:22:41.773350;180130;1714767761;773023074;world;0.162587598;-0.025118053;0.000837256;0.000876834;0.003047621;-0.156832561;0.987620115
2024/05/03/13:22:41.793241;180131;1714767761;792946254;world;0.163224578;-0.025349837;0.000825972;0.000780927;0.003036174;-0.15755564;0.987505198
2024/05/03/13:22:41.803213;180132;1714767761;802858252;world;0.163563147;-0.025435857;0.000854673;0.001054977;0.00294162;-0.157873511;0.987454414
2024/05/03/13:22:41.823648;180133;1714767761;823293102;world;0.164244011;-0.025740819;0.000826729;0.00119814;0.003040055;-0.158509612;0.987352014
2024/05/03/13:22:41.833565;180134;1714767761;833227272;world;0.164882749;-0.025969481;0.000838229;0.001347252;0.003069293;-0.1590354;0.987267196
2024/05/03/13:22:41.853456;180135;1714767761;853139692;world;0.165469348;-0.026135342;0.000852096;0.001414305;0.00326121;-0.159718454;0.987156272
2024/05/03/13:22:41.863629;180136;1714767761;863257967;world;0.166101083;-0.026283059;0.000866282;0.00122459;0.003018384;-0.160412356;0.987044752
2024/05/03/13:22:41.893398;180137;1714767761;892974100;world;0.166634634;-0.026476366;0.000897368;0.000918716;0.003038026;-0.161217406;0.98691386
2024/05/03/13:22:41.893418;180138;1714767761;893011230;world;0.166938767;-0.026576756;0.000891921;0.000943968;0.00302741;-0.161561936;0.986857533
2024/05/03/13:22:41.913332;180139;1714767761;912972234;world;0.16761063;-0.026774921;0.000859873;0.001070582;0.003073602;-0.162237033;0.98674649
2024/05/03/13:22:41.923774;180140;1714767761;923402172;world;0.168270707;-0.027000047;0.000836263;0.001072957;0.003183496;-0.162911892;0.98663491
2024/05/03/13:22:41.943317;180141;1714767761;943043194;world;0.168936014;-0.02726339;0.000813727;0.000899503;0.003230721;-0.163575798;0.986525059
2024/05/03/13:22:41.963874;180142;1714767761;963429464;world;0.169549271;-0.027444214;0.000826985;0.000788821;0.003085961;-0.164181173;0.986425042
2024/05/03/13:22:41.973429;180143;1714767761;973109636;world;0.170150191;-0.027631205;0.000857305;0.000817143;0.003152146;-0.164890602;0.986306548
2024/05/03/13:22:41.993532;180144;1714767761;993191775;world;0.170733824;-0.027824877;0.00083901;0.000748818;0.003174866;-0.165486768;0.98620671
2024/05/03/13:22:42.023758;180145;1714767762;23299153;world;0.171330214;-0.028027825;0.000816354;0.000627499;0.003230253;-0.166115731;0.986100852
2024/05/03/13:22:42.023770;180146;1714767762;23334139;world;0.171984255;-0.028228894;0.000837154;0.0007906;0.003263436;-0.16668418;0.986004651
2024/05/03/13:22:42.033750;180147;1714767762;33438216;world;0.172298223;-0.028339222;0.000810768;0.000778887;0.003183383;-0.166981176;0.985954702
2024/05/03/13:22:42.053449;180148;1714767762;53153806;world;0.172999084;-0.028629195;0.000793552;0.00083912;0.00313449;-0.167574584;0.985854089
2024/05/03/13:22:42.073554;180149;1714767762;73210589;world;0.173671663;-0.02894471;0.000748376;0.001056633;0.003437273;-0.168398157;0.985712528
2024/05/03/13:22:42.093611;180150;1714767762;93312324;world;0.174280092;-0.029147904;0.000764234;0.001093511;0.003394337;-0.169009238;0.985608101
2024/05/03/13:22:42.103387;180151;1714767762;103060986;world;0.174919248;-0.029305862;0.00079782;0.001142553;0.003451485;-0.169568643;0.985511661
2024/05/03/13:22:42.113346;180152;1714767762;112943005;world;0.175545752;-0.029473143;0.000811176;0.000741414;0.003296672;-0.170121849;0.985417306
2024/05/03/13:22:42.133610;180153;1714767762;133310369;world;0.176150337;-0.029698025;0.000838275;0.000591063;0.003287567;-0.170709729;0.985315681
2024/05/03/13:22:42.143450;180154;1714767762;143132338;world;0.176455349;-0.029825736;0.000816789;0.000438215;0.003267393;-0.171092674;0.98524946
2024/05/03/13:22:42.173280;180155;1714767762;172987634;world;0.177405789;-0.030201349;0.000799193;0.000352733;0.003342179;-0.171920195;0.985105157
2024/05/03/13:22:42.183419;180156;1714767762;183099676;world;0.177719384;-0.0303018;0.000799773;0.000300443;0.003316901;-0.17215018;0.985065162
2024/05/03/13:22:42.193302;180157;1714767762;193046018;world;0.178397611;-0.030534644;0.000829006;0.000695894;0.003352627;-0.172799543;0.984951019
2024/05/03/13:22:42.233691;180158;1714767762;233332936;world;0.179000869;-0.030815151;0.000821995;0.0008033;0.003441858;-0.173338145;0.984856069
2024/05/03/13:22:42.233715;180159;1714767762;233373412;world;0.179679662;-0.030982338;0.000839636;0.000864713;0.003391955;-0.174150631;0.984712839
2024/05/03/13:22:42.243606;180160;1714767762;243305989;world;0.180262774;-0.031190481;0.000833862;0.000802762;0.003348154;-0.174788967;0.984599888
2024/05/03/13:22:42.253368;180161;1714767762;253075438;world;0.180845633;-0.031382442;0.000827953;0.00066625;0.003404388;-0.175377384;0.984495223
2024/05/03/13:22:42.274717;180162;1714767762;273135826;world;0.181486905;-0.031596202;0.000818403;0.000668636;0.003275668;-0.176047564;0.984375954
2024/05/03/13:22:42.283803;180163;1714767762;283360690;world;0.181790993;-0.031691208;0.000840195;0.000753171;0.003260431;-0.176350981;0.984321713
2024/05/03/13:22:42.303405;180164;1714767762;303089416;world;0.18243143;-0.031955872;0.000840497;0.000734324;0.003301064;-0.176951751;0.98421371
2024/05/03/13:22:42.333335;180165;1714767762;332965111;world;0.18306981;-0.032190856;0.000858999;0.000915893;0.003413758;-0.177625328;0.984091878
2024/05/03/13:22:42.333359;180166;1714767762;333004725;world;0.183706343;-0.032463245;0.000841556;0.000971466;0.003647114;-0.17828837;0.983971059
2024/05/03/13:22:42.353656;180167;1714767762;353237987;world;0.184375346;-0.032625325;0.000839989;0.000910669;0.00332991;-0.178981185;0.983846426
2024/05/03/13:22:42.363796;180168;1714767762;363437745;world;0.184894934;-0.032797381;0.000837187;0.000635503;0.003513214;-0.179548278;0.983742714
2024/05/03/13:22:42.383525;180169;1714767762;383153125;world;0.185441107;-0.032997392;0.00082706;0.000445797;0.003416367;-0.18009457;0.983643234
2024/05/03/13:22:42.403652;180170;1714767762;403225446;world;0.186019257;-0.033217326;0.000811846;0.000345678;0.003435202;-0.180762172;0.983520865
2024/05/03/13:22:42.433132;180171;1714767762;432839740;world;0.186609775;-0.033450622;0.000772324;0.000271079;0.003660924;-0.181542456;0.983376324
2024/05/03/13:22:42.433157;180172;1714767762;432874154;world;0.186901093;-0.033563852;0.000781873;0.000275044;0.003662509;-0.181795686;0.983329535
2024/05/03/13:22:42.443191;180173;1714767762;442859299;world;0.187609956;-0.033872012;0.00076262;0.000674845;0.003699444;-0.182368964;0.983223021
2024/05/03/13:22:42.453787;180174;1714767762;453529588;world;0.188267663;-0.034116611;0.000739479;0.00112169;0.003973046;-0.18311052;0.983083725
2024/05/03/13:22:42.473426;180175;1714767762;473147347;world;0.188838601;-0.034314185;0.000772008;0.000822124;0.003769749;-0.183899626;0.982937515
2024/05/03/13:22:42.493829;180176;1714767762;493517115;world;0.189472422;-0.034548167;0.00076242;0.000747059;0.003498012;-0.184458643;0.982833743
2024/05/03/13:22:42.503361;180177;1714767762;502974780;world;0.189795151;-0.034653034;0.000780273;0.000710739;0.003415671;-0.18475087;0.982779205
2024/05/03/13:22:42.543232;180178;1714767762;542884611;world;0.190415338;-0.034863591;0.00079635;0.000711435;0.003280338;-0.185380489;0.982661068
2024/05/03/13:22:42.543260;180179;1714767762;542918584;world;0.191035151;-0.035068128;0.000799488;0.000737531;0.003434173;-0.185977697;0.9825477
2024/05/03/13:22:42.553214;180180;1714767762;552909770;world;0.191674799;-0.035295133;0.000799245;0.000741098;0.003475246;-0.186600834;0.982429385
2024/05/03/13:22:42.563569;180181;1714767762;563292210;world;0.192300916;-0.035564527;0.000797858;0.000797826;0.003508806;-0.187190369;0.98231709
2024/05/03/13:22:42.583436;180182;1714767762;583107928;world;0.192939088;-0.035823412;0.000794551;0.000695973;0.003576183;-0.187951714;0.982171535
2024/05/03/13:22:42.603459;180183;1714767762;603101914;world;0.193596944;-0.036045857;0.000803876;0.000643916;0.003630754;-0.188554823;0.982055724
2024/05/03/13:22:42.613513;180184;1714767762;613232108;world;0.194159344;-0.036262225;0.00079335;0.000604845;0.003644748;-0.189151272;0.981940985
2024/05/03/13:22:42.633779;180185;1714767762;633488566;world;0.194786295;-0.0365007;0.000803459;0.00039134;0.003636599;-0.189825758;0.981810987
2024/05/03/13:22:42.643568;180186;1714767762;643308541;world;0.195085913;-0.03661095;0.000785164;0.000412025;0.00364421;-0.19013387;0.981751382
2024/05/03/13:22:42.663288;180187;1714767762;662983775;world;0.195720688;-0.036833979;0.000784494;0.000276622;0.003777962;-0.190724313;0.981636345
2024/05/03/13:22:42.683303;180188;1714767762;683004910;world;0.196328476;-0.037072681;0.00078716;0.000100314;0.003926416;-0.191462442;0.981492102
2024/05/03/13:22:42.693227;180189;1714767762;692935181;world;0.196975991;-0.037318423;0.000814292;8.70E-05;0.003940837;-0.192193389;0.98134917
2024/05/03/13:22:42.713310;180190;1714767762;713014185;world;0.197632834;-0.03758968;0.000822076;0.000320482;0.004074014;-0.192815736;0.981226444
2024/05/03/13:22:42.753667;180191;1714767762;753128749;world;0.198246509;-0.037854008;0.000811431;5.42E-05;0.003825578;-0.19350329;0.981092215
2024/05/03/13:22:42.753695;180193;1714767762;753173943;world;0.199593455;-0.038417161;0.000828874;-3.74E-05;0.003688636;-0.194788352;0.980838418
2024/05/03/13:22:42.773205;180194;1714767762;772900645;world;0.200167343;-0.038660541;0.000819871;-7.66E-05;0.003722041;-0.19531478;0.980733633
2024/05/03/13:22:42.783452;180195;1714767762;783158312;world;0.20044741;-0.038747855;0.000818982;-4.26E-05;0.003737821;-0.195586175;0.980679393
2024/05/03/13:22:42.813409;180196;1714767762;813084511;world;0.20105809;-0.038976051;0.000812828;-5.71E-05;0.003864318;-0.196217507;0.980552852
2024/05/03/13:22:42.823394;180197;1714767762;823095794;world;0.201651245;-0.039197762;0.000818817;-1.77E-05;0.004011392;-0.196907774;0.980413854
2024/05/03/13:22:42.863232;180198;1714767762;862978655;world;0.202364266;-0.03949143;0.000824268;0.000153585;0.003999704;-0.197748885;0.980244517
2024/05/03/13:22:42.863258;180200;1714767762;863000346;world;0.203646392;-0.039963033;0.00085914;8.26E-05;0.003964972;-0.198987111;0.979994178
