time;.header.seq;.header.stamp.secs;.header.stamp.nsecs;.header.frame_id;.pose.position.x;.pose.position.y;.pose.position.z;.pose.orientation.x;.pose.orientation.y;.pose.orientation.z;.pose.orientation.w
2024/05/03/13:07:02.673440;120035;1714766822;673068911;world;0.000378285;-0.000556689;-0.000243476;-0.000329534;0.001221094;-0.002897038;0.999994993
2024/05/03/13:07:02.693530;120036;1714766822;693250269;world;0.000448577;-0.00059231;-0.00025008;-0.000186919;0.001358679;-0.00279264;0.999995232
2024/05/03/13:07:02.703660;120037;1714766822;702912331;world;0.000424217;-0.000517964;-0.000239263;-0.000269507;0.001109922;-0.002821516;0.999995351
2024/05/03/13:07:02.713578;120038;1714766822;713248786;world;0.00036007;-0.000570063;-0.000249684;-0.000149456;0.001389408;-0.002821172;0.999995112
2024/05/03/13:07:02.733398;120039;1714766822;733065492;world;0.000537284;-0.000617173;-0.000236123;-0.000587201;0.000905633;-0.002953419;0.999995112
2024/05/03/13:07:02.764463;120040;1714766822;764054193;world;0.000555206;-0.000579104;-0.000261513;-0.000496562;0.000898202;-0.002920698;0.999995232
2024/05/03/13:07:02.764485;120041;1714766822;764096994;world;0.00039281;-0.000543244;-0.000228283;-0.000205944;0.001245913;-0.002784408;0.999995351
2024/05/03/13:07:02.793564;120042;1714766822;793269504;world;0.000569038;-0.000571012;-0.000238322;-0.000551462;0.000849614;-0.002923273;0.999995232
2024/05/03/13:07:02.803643;120043;1714766822;803317809;world;0.000383448;-0.000533007;-0.0002688;-0.000298026;0.001178445;-0.002840187;0.999995232
2024/05/03/13:07:02.813570;120044;1714766822;813258202;world;0.000274619;-0.000686757;-0.000250361;0.000562657;0.001987913;-0.002314688;0.999995232
2024/05/03/13:07:02.833252;120045;1714766822;832973540;world;0.000444509;-0.000629298;-0.00022446;-0.000340244;0.001245699;-0.002859603;0.999995112
2024/05/03/13:07:02.843593;120046;1714766822;843264295;world;0.000396099;-0.000421233;-0.000177767;-0.000811136;0.000757801;-0.003102951;0.999994636
2024/05/03/13:07:02.863609;120047;1714766822;863247951;world;0.000544935;-0.000603773;-0.000260109;-0.000508806;0.000993883;-0.002896869;0.999995232
2024/05/03/13:07:02.873770;120048;1714766822;873268953;world;0.000559196;-0.000567071;-0.000241509;-0.000622949;0.000689659;-0.002911391;0.999995351
2024/05/03/13:07:02.893276;120049;1714766822;892993256;world;0.000375334;-0.000555873;-0.000236688;-0.000344594;0.001193678;-0.002838207;0.999995232
2024/05/03/13:07:02.903425;120050;1714766822;903022776;world;0.000302827;-0.000703722;-0.000238359;0.000488427;0.00187145;-0.00240694;0.999995232
2024/05/03/13:07:02.923584;120051;1714766822;923277299;world;0.000441689;-0.000608623;-0.000242955;-0.000131266;0.0013242;-0.002784138;0.999995232
2024/05/03/13:07:02.943592;120052;1714766822;943304544;world;0.000408448;-0.000455216;-0.000206703;-0.000851586;0.000816002;-0.00322063;0.999994159
2024/05/03/13:07:02.963701;120053;1714766822;962994773;world;0.000349462;-0.000610441;-0.000233371;0.000291433;0.001686766;-0.002526618;0.999995351
2024/05/03/13:07:02.973343;120054;1714766822;973093012;world;0.000302434;-0.000680204;-0.000247717;0.000598477;0.001889365;-0.002316926;0.999995351
2024/05/03/13:07:03.003336;120055;1714766823;3024909;world;0.000319954;-0.000642478;-0.000250518;0.000561413;0.001897199;-0.002378116;0.999995232
2024/05/03/13:07:03.003360;120056;1714766823;3063131;world;0.000312749;-0.000650063;-0.00023618;0.000443058;0.001719664;-0.002457478;0.99999547
2024/05/03/13:07:03.013129;120057;1714766823;12879362;world;0.000459351;-0.00059662;-0.000244275;-0.000209541;0.00124344;-0.002772986;0.999995351
2024/05/03/13:07:03.033356;120058;1714766823;33014125;world;0.000412852;-0.000488807;-0.00021609;-0.000657464;0.000984417;-0.003074949;0.999994636
2024/05/03/13:07:03.043174;120059;1714766823;42937887;world;0.000548087;-0.000576675;-0.000257136;-0.000537456;0.000921652;-0.002913306;0.999995232
2024/05/03/13:07:03.073524;120060;1714766823;73248865;world;0.000478655;-0.000576299;-0.0002554;-0.000225052;0.001296217;-0.002771106;0.999995351
2024/05/03/13:07:03.073554;120061;1714766823;73286816;world;0.000452604;-0.00061661;-0.000238113;-0.000343596;0.001178065;-0.002855374;0.999995232
2024/05/03/13:07:03.113739;120062;1714766823;113363856;world;0.000560228;-0.000600435;-0.000243249;-0.000585869;0.000838699;-0.003012545;0.999994993
2024/05/03/13:07:03.113771;120063;1714766823;113421384;world;0.000401061;-0.000522234;-0.00023928;-0.000139562;0.001178227;-0.002746951;0.999995589
2024/05/03/13:07:03.123740;120064;1714766823;123192714;world;0.000371946;-0.000584066;-0.000227141;-0.000277191;0.001296987;-0.002822426;0.999995112
2024/05/03/13:07:03.143180;120065;1714766823;142898993;world;0.000348248;-0.000621818;-0.000241846;0.000390473;0.001730288;-0.002534371;0.999995232
2024/05/03/13:07:03.163610;120066;1714766823;163356471;world;0.000420589;-0.000496488;-0.000228211;-0.000338792;0.001136453;-0.002906844;0.999995112
2024/05/03/13:07:03.173186;120067;1714766823;173002101;world;0.000481341;-0.00058502;-0.000236561;-0.000201568;0.001244626;-0.002817245;0.999995232
2024/05/03/13:07:03.203612;120068;1714766823;203193962;world;0.000466861;-0.000592701;-0.00024396;-0.000172325;0.001247144;-0.002812461;0.999995232
2024/05/03/13:07:03.203689;120069;1714766823;203234238;world;0.000342548;-0.000614602;-0.000238371;0.00029341;0.001746546;-0.002536863;0.999995232
2024/05/03/13:07:03.224066;120070;1714766823;223158100;world;0.000540663;-0.000588346;-0.000227658;-0.000534843;0.000901449;-0.00289162;0.999995351
2024/05/03/13:07:03.233269;120071;1714766823;232960493;world;0.000556417;-0.000575118;-0.000258503;-0.000499924;0.000936958;-0.002907569;0.999995232
2024/05/03/13:07:03.253305;120072;1714766823;252956706;world;0.000541706;-0.000563297;-0.000254168;-0.000559897;0.00099409;-0.002835409;0.999995351
2024/05/03/13:07:03.273585;120073;1714766823;273297807;world;0.000396971;-0.000534274;-0.000206662;-0.000252886;0.001261399;-0.002669973;0.999995589
2024/05/03/13:07:03.283271;120074;1714766823;282972941;world;0.000382146;-0.000565503;-0.000258992;-0.00028684;0.001268831;-0.002849305;0.999995112
2024/05/03/13:07:03.303472;120075;1714766823;303166014;world;0.000426285;-0.000619665;-0.000247902;-0.000223279;0.001372405;-0.002847817;0.999994993
2024/05/03/13:07:03.313614;120076;1714766823;313283618;world;0.000513315;-0.000581276;-0.000232073;-0.00036938;0.001079186;-0.002827548;0.999995351
2024/05/03/13:07:03.333288;120077;1714766823;332978196;world;0.000560794;-0.000574995;-0.000263938;-0.000592275;0.000870239;-0.002937897;0.999995112
2024/05/03/13:07:03.344105;120078;1714766823;343734686;world;0.000454109;-0.000601426;-0.000252053;-0.00024265;0.001311053;-0.002826943;0.999995112
2024/05/03/13:07:03.363348;120079;1714766823;362983120;world;0.00033506;-0.000653189;-0.000239126;0.000349555;0.001765348;-0.002564304;0.999995112
2024/05/03/13:07:03.373125;120080;1714766823;372879630;world;0.000402067;-0.000510145;-0.000223703;-0.00039849;0.001145296;-0.002919322;0.999994993
2024/05/03/13:07:03.393489;120081;1714766823;393206894;world;0.00050598;-0.000555299;-0.000253135;-0.000332668;0.001191041;-0.002905549;0.999994993
2024/05/03/13:07:03.413069;120082;1714766823;412878588;world;0.000486769;-0.000573248;-0.000257673;-0.000270058;0.001222789;-0.002796348;0.999995351
2024/05/03/13:07:03.424153;120083;1714766823;423786045;world;0.000407808;-0.000524338;-0.000236529;-0.000310946;0.001124852;-0.00277662;0.99999547
2024/05/03/13:07:03.443606;120084;1714766823;443004189;world;0.000446554;-0.000586163;-0.000256805;-0.000160076;0.001345802;-0.002708846;0.99999547
2024/05/03/13:07:03.453296;120085;1714766823;452995688;world;0.000484165;-0.000620935;-0.000245514;-0.000457672;0.001102531;-0.002989968;0.999994874
2024/05/03/13:07:03.483588;120086;1714766823;483170139;world;0.000478107;-0.000580505;-0.000250233;-0.000305683;0.001212244;-0.002798248;0.999995351
2024/05/03/13:07:03.483622;120087;1714766823;483207870;world;0.000400793;-0.000534382;-0.000226364;-0.000315006;0.001082388;-0.002822049;0.99999547
2024/05/03/13:07:03.503935;120088;1714766823;503638118;world;0.000372987;-0.000583477;-0.000235013;-0.000190948;0.001359913;-0.002802223;0.999995112
2024/05/03/13:07:03.513551;120089;1714766823;513130970;world;0.000450756;-0.000599314;-0.000240437;-0.00027705;0.0012048;-0.002857369;0.999995232
2024/05/03/13:07:03.533602;120090;1714766823;533250835;world;0.000467286;-0.00059795;-0.000228657;-0.000195116;0.00121932;-0.002779961;0.999995351
2024/05/03/13:07:03.543215;120091;1714766823;542930929;world;0.000550572;-0.000610087;-0.000272221;-0.000459539;0.001100816;-0.002887932;0.999995112
2024/05/03/13:07:03.563628;120092;1714766823;563331350;world;0.00048307;-0.000589509;-0.000234719;-0.000228964;0.0011145;-0.00283085;0.999995351
2024/05/03/13:07:03.583230;120093;1714766823;582916853;world;0.000480577;-0.000575606;-0.000247564;-0.000354126;0.001191551;-0.002861921;0.999995112
2024/05/03/13:07:03.593474;120094;1714766823;593211370;world;0.000422753;-0.000527963;-0.000216722;-0.000309324;0.001097417;-0.002825389;0.999995351
2024/05/03/13:07:03.613742;120095;1714766823;613441674;world;0.000427671;-0.000619479;-0.000261331;-0.000150578;0.00143838;-0.002811752;0.999994993
2024/05/03/13:07:03.623509;120096;1714766823;623219581;world;0.00055499;-0.000594154;-0.000233065;-0.000601316;0.000845157;-0.002976489;0.999995112
2024/05/03/13:07:03.643661;120097;1714766823;643360835;world;0.000565298;-0.000596166;-0.000248336;-0.000391788;0.000971931;-0.002865021;0.999995351
2024/05/03/13:07:03.653358;120098;1714766823;653116262;world;0.00044271;-0.000602752;-0.00022962;-0.000303317;0.001203105;-0.002853435;0.999995232
2024/05/03/13:07:03.673428;120099;1714766823;673114409;world;0.000324398;-0.000618119;-0.000237394;0.000376165;0.001767456;-0.002468511;0.999995351
2024/05/03/13:07:03.683526;120100;1714766823;683253725;world;0.000293646;-0.000702307;-0.00023528;0.000389576;0.001850746;-0.002418415;0.999995351
2024/05/03/13:07:03.713599;120101;1714766823;713180753;world;0.000547539;-0.000563547;-0.000235753;-0.000546582;0.000918463;-0.002961555;0.999995112
2024/05/03/13:07:03.723438;120102;1714766823;723210142;world;0.000397965;-0.000530798;-0.000236335;-7.07E-05;0.001206928;-0.002747635;0.99999547
2024/05/03/13:07:03.733423;120103;1714766823;733123695;world;0.000515077;-0.000625942;-0.000249858;-0.000644783;0.000990385;-0.0030216;0.999994755
2024/05/03/13:07:03.753590;120104;1714766823;753361832;world;0.000413239;-0.000544559;-0.000214505;-0.000271044;0.001171341;-0.002852592;0.999995232
2024/05/03/13:07:03.763641;120105;1714766823;763416810;world;0.000339299;-0.000609323;-0.000237274;0.000415513;0.001775066;-0.002475444;0.999995351
2024/05/03/13:07:03.783148;120106;1714766823;782878750;world;0.000447597;-0.00062355;-0.000239442;-0.000229777;0.001336823;-0.002814566;0.999995112
2024/05/03/13:07:03.803784;120107;1714766823;803455273;world;0.000552841;-0.000585832;-0.000234027;-0.000578533;0.000892716;-0.002976764;0.999994993
2024/05/03/13:07:03.824110;120108;1714766823;823755545;world;0.000536833;-0.000603598;-0.000234042;-0.000584328;0.000797358;-0.00289302;0.999995351
2024/05/03/13:07:03.833444;120109;1714766823;833091684;world;0.000417672;-0.000532664;-0.000236144;-0.000245178;0.001132436;-0.002882231;0.999995232
2024/05/03/13:07:03.853557;120110;1714766823;853262625;world;0.000415999;-0.00063806;-0.000239289;-0.000221417;0.001250088;-0.002845499;0.999995232
2024/05/03/13:07:03.863902;120111;1714766823;863626833;world;0.000464845;-0.000602219;-0.000229078;-0.000349185;0.001160957;-0.002885165;0.999995112
2024/05/03/13:07:03.893663;120112;1714766823;892946340;world;0.000405371;-0.000528254;-0.000233276;-0.000205324;0.001110984;-0.002863208;0.999995351
2024/05/03/13:07:03.893697;120113;1714766823;892985924;world;0.000335924;-0.00060761;-0.000244847;0.000376356;0.00168087;-0.002499223;0.99999547
2024/05/03/13:07:03.913365;120114;1714766823;912927014;world;0.000524994;-0.000581302;-0.000228837;-0.000564527;0.000930114;-0.002905941;0.999995232
2024/05/03/13:07:03.923638;120115;1714766823;923264743;world;0.000556912;-0.000587679;-0.000225147;-0.000586037;0.000853332;-0.002910119;0.999995232
2024/05/03/13:07:03.933599;120116;1714766823;933317137;world;0.000489116;-0.000588294;-0.000232314;-0.000239172;0.001178649;-0.002831351;0.999995351
2024/05/03/13:07:03.953402;120117;1714766823;953001834;world;0.000338264;-0.000628095;-0.000248375;0.000329074;0.001823956;-0.002464453;0.999995232
2024/05/03/13:07:03.973775;120118;1714766823;973325371;world;0.000399958;-0.000505902;-0.000217525;-0.000494575;0.001068386;-0.003032362;0.999994755
2024/05/03/13:07:03.993550;120119;1714766823;993270985;world;0.000474922;-0.000575423;-0.000254791;-0.00031624;0.001229212;-0.002809304;0.999995232
2024/05/03/13:07:04.004333;120120;1714766824;3958965;world;0.000420935;-0.000527918;-0.000224304;-0.000299144;0.001132737;-0.002845202;0.999995351
2024/05/03/13:07:04.023447;120121;1714766824;23054117;world;0.000350878;-0.000601448;-0.000221672;0.000268637;0.001628622;-0.002513842;0.99999547
2024/05/03/13:07:04.033648;120122;1714766824;33226932;world;0.000549018;-0.000583366;-0.000232998;-0.000595068;0.000841836;-0.002952379;0.999995112
2024/05/03/13:07:04.043388;120123;1714766824;43016977;world;0.000536717;-0.000589021;-0.000246794;-0.000578329;0.000902171;-0.002946154;0.999995112
2024/05/03/13:07:04.063395;120124;1714766824;63064867;world;0.000473756;-0.000584569;-0.000270256;-0.000248233;0.00134257;-0.002842301;0.999995112
2024/05/03/13:07:04.083378;120125;1714766824;83056682;world;0.000562828;-0.000580255;-0.000242449;-0.000602325;0.000804744;-0.003007961;0.999994993
2024/05/03/13:07:04.093624;120126;1714766824;92976777;world;0.000464119;-0.000594266;-0.0002619;-0.000171277;0.001335281;-0.002763099;0.999995351
2024/05/03/13:07:04.123318;120127;1714766824;122983936;world;0.000340819;-0.000632066;-0.000232941;0.000338488;0.001736731;-0.002489434;0.999995351
2024/05/03/13:07:04.134092;120128;1714766824;133308781;world;0.000387322;-0.000521619;-0.000220611;-0.000483825;0.001162599;-0.00299737;0.999994755
2024/05/03/13:07:04.143610;120129;1714766824;143253718;world;0.000482637;-0.000593655;-0.000258161;-0.000316189;0.001264685;-0.002820524;0.999995232
2024/05/03/13:07:04.153921;120130;1714766824;153123341;world;0.000432465;-0.00049955;-0.000242454;-0.000316325;0.001039053;-0.002970199;0.999994993
2024/05/03/13:07:04.173803;120131;1714766824;173372504;world;0.000357367;-0.000602718;-0.000247519;0.000250421;0.001683842;-0.002594987;0.999995232
2024/05/03/13:07:04.193352;120132;1714766824;192982748;world;0.00037512;-0.000577997;-0.000225905;-0.000304874;0.001280398;-0.002931149;0.999994874
2024/05/03/13:07:04.203487;120133;1714766824;203249462;world;0.0005298;-0.000623945;-0.000218385;-0.000570549;0.00096914;-0.003007474;0.999994874
2024/05/03/13:07:04.223301;120134;1714766824;223090052;world;0.000479858;-0.000578605;-0.000238809;-0.000358415;0.001162045;-0.002850888;0.999995232
2024/05/03/13:07:04.234221;120135;1714766824;233015884;world;0.000336662;-0.000611003;-0.000253971;0.000480242;0.001787971;-0.002470104;0.999995232
2024/05/03/13:07:04.253303;120136;1714766824;253080018;world;0.000525996;-0.000581983;-0.000234466;-0.000504656;0.00101715;-0.00285352;0.999995351
2024/05/03/13:07:04.263500;120137;1714766824;263228331;world;0.000545111;-0.000594907;-0.000225522;-0.00055876;0.000952733;-0.002923053;0.999995112
2024/05/03/13:07:04.283678;120138;1714766824;283324982;world;0.00049397;-0.000566881;-0.000261942;-0.000235107;0.001310311;-0.002778858;0.999995232
2024/05/03/13:07:04.303408;120139;1714766824;303091674;world;0.000340464;-0.000643659;-0.000254184;0.00028756;0.001745761;-0.002585836;0.999995112
2024/05/03/13:07:04.324540;120140;1714766824;324228618;world;0.000290275;-0.000705056;-0.000218886;0.000505734;0.001904518;-0.002309402;0.99999547
2024/05/03/13:07:04.333326;120141;1714766824;332986010;world;0.00043346;-0.000612322;-0.00023784;-0.000282291;0.00128961;-0.002813796;0.999995232
2024/05/03/13:07:04.344154;120142;1714766824;343581833;world;0.000563648;-0.000574995;-0.000249274;-0.000639125;0.000813264;-0.002952486;0.999995112
2024/05/03/13:07:04.363554;120143;1714766824;363225775;world;0.000574753;-0.000599448;-0.000234316;-0.000424697;0.000954231;-0.002922799;0.999995232
2024/05/03/13:07:04.373276;120144;1714766824;372921750;world;0.000367701;-0.000560138;-0.000212064;-0.000261511;0.001253668;-0.002914773;0.999994993
2024/05/03/13:07:04.393705;120145;1714766824;393362768;world;0.000291478;-0.000693511;-0.000230491;0.000396493;0.00193526;-0.002289249;0.99999547
2024/05/03/13:07:04.413598;120146;1714766824;413254714;world;0.000301538;-0.000681147;-0.000233902;0.000434821;0.001857071;-0.002370536;0.999995351
2024/05/03/13:07:04.433450;120147;1714766824;433221221;world;0.000290107;-0.000681829;-0.000240771;0.000475445;0.001853839;-0.00244077;0.999995232
2024/05/03/13:07:04.433459;120148;1714766824;433240467;world;0.000536121;-0.000592604;-0.000255307;-0.00061775;0.000949847;-0.002920561;0.999995112
2024/05/03/13:07:04.453624;120149;1714766824;453168501;world;0.000513911;-0.000547629;-0.000234376;-0.000392427;0.001088376;-0.002908944;0.999995112
2024/05/03/13:07:04.463340;120150;1714766824;462904681;world;0.000325397;-0.00061439;-0.000245432;0.000328272;0.00173039;-0.002485547;0.999995351
2024/05/03/13:07:04.483461;120151;1714766824;483177633;world;0.000541739;-0.000611585;-0.000255061;-0.000587238;0.001074915;-0.002951983;0.999994874
2024/05/03/13:07:04.503612;120152;1714766824;503300203;world;0.000554871;-0.000592422;-0.000226976;-0.000548247;0.000815127;-0.002910859;0.999995351
2024/05/03/13:07:04.513994;120153;1714766824;513703054;world;0.00046603;-0.000591733;-0.00022325;-0.000238555;0.001151029;-0.002777256;0.99999547
2024/05/03/13:07:04.533551;120154;1714766824;533234895;world;0.000528798;-0.000606019;-0.000238825;-0.000644039;0.000867976;-0.003015906;0.999994874
2024/05/03/13:07:04.553488;120155;1714766824;553041312;world;0.000389285;-0.000551969;-0.00021155;-0.000341378;0.001176237;-0.002867798;0.999995112
2024/05/03/13:07:04.563520;120156;1714766824;563247182;world;0.000303747;-0.000677459;-0.000219574;0.000451244;0.001809671;-0.002276383;0.999995708
2024/05/03/13:07:04.573320;120157;1714766824;573078220;world;0.000258703;-0.000727944;-0.000221924;0.000646562;0.002046418;-0.002359157;0.999994993
2024/05/03/13:07:04.603466;120158;1714766824;603170849;world;0.00030905;-0.000665039;-0.000216726;0.000446902;0.001853422;-0.002407497;0.999995351
2024/05/03/13:07:04.613358;120159;1714766824;613061460;world;0.000338655;-0.000649277;-0.000258895;0.000517977;0.001874071;-0.002381481;0.999995351
2024/05/03/13:07:04.643728;120160;1714766824;643242173;world;0.000523571;-0.000588097;-0.00026146;-0.000556356;0.000938975;-0.003016166;0.999994874
2024/05/03/13:07:04.643743;120161;1714766824;643270717;world;0.000542402;-0.000584818;-0.000227226;-0.000640774;0.000798834;-0.002939325;0.999995232
2024/05/03/13:07:04.653656;120162;1714766824;653317427;world;0.000319302;-0.000672068;-0.000242471;0.000531584;0.001957351;-0.002377091;0.999995112
2024/05/03/13:07:04.673551;120163;1714766824;673226632;world;0.000414804;-0.000623725;-0.000254198;-8.72E-05;0.001415724;-0.002724106;0.999995351
2024/05/03/13:07:04.693403;120164;1714766824;693091995;world;0.000403367;-0.000530973;-0.000203351;-0.000471596;0.001133251;-0.002985203;0.999994874
2024/05/03/13:07:04.713705;120165;1714766824;713399973;world;0.000387885;-0.000594147;-0.000234647;5.97E-05;0.001528338;-0.002708294;0.999995232
2024/05/03/13:07:04.723638;120166;1714766824;723319806;world;0.000369228;-0.000561174;-0.000227786;-0.000345354;0.00128689;-0.002920409;0.999994874
2024/05/03/13:07:04.743465;120167;1714766824;743161168;world;0.00041819;-0.000527717;-0.000197051;-0.000324198;0.001158165;-0.002776782;0.99999547
2024/05/03/13:07:04.753584;120168;1714766824;753221176;world;0.0003033;-0.000652518;-0.000213918;0.000537541;0.001826353;-0.002304835;0.999995589
2024/05/03/13:07:04.763399;120169;1714766824;763106106;world;0.000524525;-0.000592947;-0.000210717;-0.000640465;0.000966026;-0.002944975;0.999994993
2024/05/03/13:07:04.783489;120170;1714766824;783169986;world;0.000489071;-0.000571586;-0.000248544;-0.000370995;0.001212212;-0.002861119;0.999995112
2024/05/03/13:07:04.813393;120171;1714766824;813102974;world;0.000403199;-0.000522215;-0.000244141;-0.000311975;0.001111408;-0.002847506;0.999995351
2024/05/03/13:07:04.813402;120172;1714766824;813139753;world;0.000448767;-0.000607707;-0.000241743;-0.000198729;0.001293335;-0.002842197;0.999995112
2024/05/03/13:07:04.853300;120173;1714766824;852970755;world;0.000398386;-0.000563376;-0.000238603;-0.000189445;0.001269471;-0.002785665;0.999995351
2024/05/03/13:07:04.853322;120174;1714766824;853005080;world;0.000331044;-0.000615224;-0.000256548;0.000459955;0.001781974;-0.002436633;0.999995351
2024/05/03/13:07:04.864110;120175;1714766824;863750864;world;0.000560869;-0.000584815;-0.00026262;-0.000580378;0.001109072;-0.002982084;0.999994755
2024/05/03/13:07:04.873666;120176;1714766824;873137880;world;0.000893127;-0.000546437;-0.000231515;-0.000573431;0.001019629;-0.002759851;0.999995589
2024/05/03/13:07:04.893405;120177;1714766824;893133180;world;0.001571916;-0.000667583;-0.000223377;-0.00018272;0.001465701;-0.002333465;0.999996185
2024/05/03/13:07:04.913456;120178;1714766824;913127118;world;0.002119584;-0.000617061;-0.000201893;-0.00020453;0.001336692;-0.002136344;0.999996781
2024/05/03/13:07:04.923514;120179;1714766824;923221480;world;0.004245169;-0.000712097;-3.52E-05;-0.000488851;0.001950772;-0.000569886;0.999997854
2024/05/03/13:07:04.943323;120180;1714766824;943012267;world;0.004998429;-0.000745613;3.84E-05;-0.000621824;0.001987404;-0.000149889;0.999997854
2024/05/03/13:07:04.953364;120181;1714766824;953029314;world;0.006606089;-0.000714909;5.25E-05;-0.000748416;0.001905647;0.001131661;0.999997258
2024/05/03/13:07:04.973427;120182;1714766824;973170148;world;0.00831422;-0.000602819;-0.000158319;-0.000202197;0.001801886;0.002362169;0.999995589
2024/05/03/13:07:04.983701;120183;1714766824;983405345;world;0.009984816;-0.000429019;-0.000130523;-0.001188458;0.000499174;0.003437884;0.999993324
2024/05/03/13:07:05.003711;120184;1714766825;3448937;world;0.011700643;-0.00053177;-6.89E-05;0.000387846;0.001939993;0.00538367;0.999983549
2024/05/03/13:07:05.013593;120185;1714766825;13274634;world;0.012523109;-0.000654187;5.50E-05;3.08E-05;0.002082595;0.005953137;0.999980092
2024/05/03/13:07:05.053734;120186;1714766825;53359604;world;0.015197119;-0.000433762;-0.000349375;0.000865644;0.001200111;0.007255956;0.999972582
2024/05/03/13:07:05.053761;120187;1714766825;53395261;world;0.016159263;-0.0004602;-0.000559199;0.001993603;0.001312194;0.00803961;0.999964833
2024/05/03/13:07:05.063707;120188;1714766825;63426423;world;0.017928582;-0.00042516;-0.000350079;0.002031661;0.001435461;0.009799976;0.999948859
2024/05/03/13:07:05.083243;120189;1714766825;82929791;world;0.01955894;-0.000373334;-0.000184522;0.002060995;0.001744632;0.011263459;0.999933004
2024/05/03/13:07:05.093570;120190;1714766825;93000982;world;0.021311536;-0.000311255;-0.000205778;0.002087578;0.001666565;0.012959774;0.9999125
2024/05/03/13:07:05.123202;120191;1714766825;122896618;world;0.022895811;-0.000119224;-0.000384012;0.002321938;0.001469504;0.013873655;0.999899983
2024/05/03/13:07:05.123212;120192;1714766825;122930562;world;0.024240149;-0.000239115;0.000151791;0.000470782;0.001758363;0.014864216;0.999887943
2024/05/03/13:07:05.153384;120193;1714766825;153095727;world;0.024965156;-0.000256103;0.000156297;0.000804405;0.00207766;0.01563015;0.999875426
2024/05/03/13:07:05.163471;120194;1714766825;163181830;world;0.027054062;-0.000208486;0.000203701;0.000430212;0.001989349;0.017436568;0.999845982
2024/05/03/13:07:05.173323;120195;1714766825;173024924;world;0.027646229;-0.00017022;0.000245335;-8.91E-07;0.002031495;0.01790845;0.999837637
2024/05/03/13:07:05.183686;120196;1714766825;183369072;world;0.028866298;3.26E-05;0.000106863;0.000724902;0.001957021;0.019146364;0.99981457
2024/05/03/13:07:05.203562;120197;1714766825;203283945;world;0.030045098;0.000201788;-5.66E-05;0.001777318;0.00187524;0.020368278;0.999789298
2024/05/03/13:07:05.224115;120198;1714766825;223744739;world;0.031129673;6.49E-05;0.000130611;0.00054552;0.002228617;0.021529865;0.999765575
2024/05/03/13:07:05.243623;120199;1714766825;243349428;world;0.03200962;0.000142947;0.000287213;-0.000353616;0.001837584;0.022271091;0.999750197
2024/05/03/13:07:05.253249;120200;1714766825;252932308;world;0.032841295;0.00027905;0.000177435;0.00026395;0.001546541;0.02343544;0.999724209
2024/05/03/13:07:05.263257;120201;1714766825;262949846;world;0.033271067;0.000409927;1.25E-05;0.001014915;0.001433817;0.023944246;0.999711812
2024/05/03/13:07:05.283190;120202;1714766825;282901285;world;0.034245219;0.000464216;-1.52E-05;0.001073964;0.001414296;0.025202282;0.999680758
2024/05/03/13:07:05.293331;120203;1714766825;293038888;world;0.034559786;0.000478599;3.11E-05;0.000895692;0.001356485;0.025616486;0.999670506
2024/05/03/13:07:05.323560;120204;1714766825;323238938;world;0.035186391;0.000505477;4.34E-05;0.000619961;0.001160715;0.026367011;0.999651551
2024/05/03/13:07:05.323588;120205;1714766825;323272130;world;0.035823513;0.000403561;0.000360336;-0.00079871;0.00110593;0.027063787;0.999632835
2024/05/03/13:07:05.373447;120206;1714766825;373136000;world;0.036406562;0.000489123;0.000243618;-0.000305922;0.000948914;0.027800821;0.999612987
2024/05/03/13:07:05.373471;120208;1714766825;373181796;world;0.037442513;0.000659969;2.81E-05;0.00072809;0.000906891;0.029390799;0.99956733
2024/05/03/13:07:05.393568;120209;1714766825;393283054;world;0.037903171;0.000655849;4.52E-05;0.000828095;0.000952672;0.030192364;0.999543309
2024/05/03/13:07:05.403825;120210;1714766825;403415888;world;0.038293518;0.000630856;4.70E-05;0.000633026;0.000815044;0.030785484;0.999525547
2024/05/03/13:07:05.423466;120211;1714766825;423202267;world;0.038691722;0.000636406;7.88E-05;0.000386177;0.000782628;0.03115163;0.999514341
2024/05/03/13:07:05.453520;120212;1714766825;453262935;world;0.038897984;0.000624113;7.28E-05;0.00038771;0.000801198;0.031465381;0.999504447
2024/05/03/13:07:05.453542;120213;1714766825;453298482;world;0.039372213;0.00069984;1.82E-05;0.000670984;0.000885081;0.032215264;0.999480426
2024/05/03/13:07:05.473823;120214;1714766825;473149192;world;0.039780874;0.000735436;2.00E-05;0.000878402;0.000942888;0.032769959;0.999462187
2024/05/03/13:07:05.483349;120215;1714766825;483039050;world;0.040257975;0.000780139;5.15E-05;0.000730956;0.000823079;0.033427428;0.99944061
2024/05/03/13:07:05.503531;120216;1714766825;503241440;world;0.040732823;0.000808515;1.00E-05;0.000951663;0.000929583;0.034061402;0.999418855
2024/05/03/13:07:05.533470;120217;1714766825;533096483;world;0.040990498;0.00078528;5.48E-05;0.000545489;0.00065248;0.03429465;0.999411464
2024/05/03/13:07:05.533499;120218;1714766825;533131518;world;0.041780233;0.000864696;6.57E-05;0.000698728;0.00071879;0.035526969;0.99936825
2024/05/03/13:07:05.563666;120219;1714766825;563324627;world;0.042017512;0.000870761;3.93E-05;0.000639863;0.000701927;0.035724901;0.999361217
2024/05/03/13:07:05.563690;120220;1714766825;563360324;world;0.042541102;0.000903331;4.27E-05;0.000756881;0.000738218;0.036473285;0.999334157
2024/05/03/13:07:05.583704;120221;1714766825;583341847;world;0.043101672;0.000951272;6.88E-05;0.00080952;0.000612689;0.037247371;0.999305606
2024/05/03/13:07:05.593664;120222;1714766825;593272062;world;0.043628536;0.000996031;4.04E-05;0.001053861;0.000631639;0.037956368;0.999278724
2024/05/03/13:07:05.613408;120223;1714766825;613102382;world;0.044112824;0.000990808;-3.29E-05;0.00131951;0.000820193;0.038478561;0.99925822
2024/05/03/13:07:05.633425;120224;1714766825;632920762;world;0.044739757;0.001094993;2.70E-05;0.00068039;0.000375013;0.038947679;0.999240994
2024/05/03/13:07:05.643362;120225;1714766825;643042094;world;0.045019325;0.001095507;4.72E-05;0.000845906;0.00057731;0.039365925;0.999224424
2024/05/03/13:07:05.663337;120226;1714766825;662950893;world;0.045867138;0.001177676;7.16E-05;0.000554955;0.000743934;0.040352598;0.999185145
2024/05/03/13:07:05.673352;120227;1714766825;673088636;world;0.046169735;0.001162577;1.60E-05;0.000731371;0.000767313;0.04062343;0.999174058
2024/05/03/13:07:05.693529;120228;1714766825;693219923;world;0.046862185;0.001264621;9.38E-05;-0.000201301;0.000138962;0.041155867;0.99915278
2024/05/03/13:07:05.703766;120229;1714766825;703444127;world;0.047533169;0.001264032;0.000113182;-6.06E-05;0.000392104;0.041878384;0.999122679
2024/05/03/13:07:05.723225;120230;1714766825;722981409;world;0.048167523;0.001284532;-1.99E-05;0.000285586;0.000538858;0.042528335;0.999095082
2024/05/03/13:07:05.733324;120231;1714766825;733003105;world;0.048872717;0.001394559;-9.16E-05;0.000240604;0.000261446;0.043080769;0.999071598
2024/05/03/13:07:05.773529;120232;1714766825;773081322;world;0.049539912;0.001466908;-0.000134259;0.000146361;0.000251142;0.0436446;0.999047101
2024/05/03/13:07:05.773559;120233;1714766825;773121106;world;0.050203364;0.001585487;-9.29E-05;0.00054349;0.000586531;0.044375308;0.999014616
2024/05/03/13:07:05.783193;120234;1714766825;782931601;world;0.050521471;0.001616511;-4.91E-05;0.000455781;0.000683362;0.04474555;0.998998106
2024/05/03/13:07:05.803636;120235;1714766825;803373315;world;0.051724166;0.001824796;-9.05E-06;7.90E-05;0.000217805;0.045658246;0.998957157
2024/05/03/13:07:05.813257;120236;1714766825;812959583;world;0.052112281;0.001895037;-3.40E-06;0.000101659;-7.86E-05;0.045976985;0.998942554
2024/05/03/13:07:05.833461;120237;1714766825;833148898;world;0.052773803;0.001820549;4.09E-05;0.000280971;8.24E-05;0.046843693;0.998902202
2024/05/03/13:07:05.843633;120238;1714766825;843322048;world;0.053523682;0.0018823;0.000154163;0.00011232;0.000387058;0.047573797;0.998867631
2024/05/03/13:07:05.873492;120239;1714766825;873203149;world;0.054201618;0.001990907;0.000171386;-0.000287013;-0.00015102;0.047890436;0.998852611
2024/05/03/13:07:05.873511;120240;1714766825;873237363;world;0.054857466;0.002073471;-1.25E-06;9.25E-05;8.99E-05;0.048723072;0.998812318
2024/05/03/13:07:05.893585;120241;1714766825;893345647;world;0.055187073;0.002105948;-3.47E-05;0.000501624;0.000359058;0.049081504;0.998794675
2024/05/03/13:07:05.913779;120242;1714766825;913436722;world;0.056256786;0.002192762;9.24E-05;0.000816411;0.000930341;0.05025024;0.998735964
2024/05/03/13:07:05.923285;120243;1714766825;922976237;world;0.057032146;0.002262421;9.36E-05;0.000744507;0.000717394;0.050844509;0.998706102
2024/05/03/13:07:05.943225;120244;1714766825;942918519;world;0.057335228;0.002240784;5.43E-05;0.000633173;0.000536762;0.050927181;0.998702049
2024/05/03/13:07:05.983498;120245;1714766825;983025448;world;0.058068894;0.002301134;0.000143522;0.000198865;0.000319625;0.051526941;0.998671532
2024/05/03/13:07:05.983527;120247;1714766825;983070643;world;0.059335984;0.002385773;0.000357479;-0.000259789;0.000511741;0.052788794;0.998605549
2024/05/03/13:07:06.003363;120248;1714766826;3027662;world;0.060022816;0.002546024;0.000378821;-2.91E-05;0.000734557;0.053668316;0.998558581
2024/05/03/13:07:06.013580;120249;1714766826;13306079;world;0.060659274;0.00256443;0.000359607;0.00035231;0.000972103;0.054521479;0.998512089
2024/05/03/13:07:06.044209;120250;1714766826;43625873;world;0.061311599;0.002624296;0.000513375;-8.15E-05;0.000884441;0.055267498;0.9984712
2024/05/03/13:07:06.053463;120251;1714766826;53218163;world;0.06204167;0.002732933;0.00056191;-0.000276241;0.000697333;0.056158353;0.998421669
2024/05/03/13:07:06.073358;120252;1714766826;73061639;world;0.062408067;0.002819251;0.000499082;-1.73E-05;0.000684946;0.056536391;0.99840039
2024/05/03/13:07:06.083464;120253;1714766826;83189696;world;0.063093722;0.002861012;0.000574502;-0.000692146;0.00063998;0.056928318;0.9983778
2024/05/03/13:07:06.093299;120254;1714766826;93006796;world;0.063724965;0.002886198;0.000611701;-0.00039521;0.000913376;0.057706401;0.998333156
2024/05/03/13:07:06.113623;120255;1714766826;113365089;world;0.06438081;0.003028091;0.000400016;0.000518378;0.001051802;0.058464333;0.99828881
2024/05/03/13:07:06.124123;120256;1714766826;123361091;world;0.065026075;0.003106855;0.000385667;0.000516911;0.001076406;0.059109878;0.998250782
2024/05/03/13:07:06.143593;120257;1714766826;143303857;world;0.065705597;0.003201213;0.000418902;0.000354464;0.001081748;0.059963189;0.99819994
2024/05/03/13:07:06.183233;120258;1714766826;182923593;world;0.066403605;0.003282655;0.000421522;0.000144268;0.000910377;0.060351066;0.998176813
2024/05/03/13:07:06.183256;120259;1714766826;182957827;world;0.066683918;0.003261518;0.000471161;3.59E-05;0.001080437;0.060767364;0.998151362
2024/05/03/13:07:06.193211;120260;1714766826;192912136;world;0.067311965;0.0033147;0.000490836;-0.000136584;0.000978859;0.061256681;0.99812156
2024/05/03/13:07:06.203680;120261;1714766826;203429894;world;0.067986906;0.003448464;0.000482046;-0.00042481;0.000746563;0.061895661;0.99808228
2024/05/03/13:07:06.213557;120262;1714766826;213184252;world;0.068625756;0.003570817;0.000479437;-0.000547655;0.00054988;0.062518775;0.998043537
2024/05/03/13:07:06.243197;120263;1714766826;242887445;world;0.069267631;0.003608216;0.000423604;-0.000205196;0.000790248;0.063191637;0.998001158
2024/05/03/13:07:06.253352;120264;1714766826;253072195;world;0.069854803;0.003677152;0.000423104;-0.00013588;0.000927511;0.063928157;0.99795413
2024/05/03/13:07:06.273321;120265;1714766826;272967770;world;0.070202693;0.003722608;0.000386698;-0.000121241;0.001203587;0.064264029;0.997932196
2024/05/03/13:07:06.283924;120266;1714766826;283589841;world;0.070813745;0.003774013;0.000369713;0.000103587;0.001276961;0.064881451;0.997892201
2024/05/03/13:07:06.293379;120267;1714766826;293045345;world;0.071545891;0.004144344;0.000427683;0.000288516;0.001068721;0.066395007;0.99779284
2024/05/03/13:07:06.313371;120268;1714766826;313114595;world;0.072341576;0.00446121;0.00024177;0.001047491;0.00149148;0.067884997;0.997691512
2024/05/03/13:07:06.323385;120269;1714766826;323101505;world;0.073007978;0.004522983;0.000370108;0.000582695;0.001116805;0.068222769;0.997669399
2024/05/03/13:07:06.343548;120270;1714766826;343110109;world;0.073536821;0.004487921;0.000458932;0.000679735;0.000621089;0.069155104;0.997605562
2024/05/03/13:07:06.363405;120271;1714766826;363069783;world;0.074614331;0.004392816;0.000653845;9.92E-07;0.000637208;0.069481641;0.997583032
2024/05/03/13:07:06.383502;120272;1714766826;383123465;world;0.074970588;0.004381157;0.000635058;-0.000172535;0.000529683;0.069887646;0.997554719
2024/05/03/13:07:06.393480;120273;1714766826;393190163;world;0.075687252;0.004683243;0.000595093;0.000156323;0.000318304;0.070647888;0.997501314
2024/05/03/13:07:06.403595;120274;1714766826;403296648;world;0.076299056;0.004763258;0.000644502;0.000237155;0.000201717;0.0713818;0.9974491
2024/05/03/13:07:06.423638;120275;1714766826;423330892;world;0.077256761;0.004879757;0.000693473;-0.000123691;0.00037579;0.0720938;0.99739778
2024/05/03/13:07:06.453408;120276;1714766826;453088331;world;0.077525072;0.004892363;0.000700955;-0.000204474;0.000390791;0.072347112;0.997379422
2024/05/03/13:07:06.453438;120277;1714766826;453129969;world;0.078144707;0.00495988;0.000649587;-4.42E-05;0.00049753;0.072994463;0.997332215
2024/05/03/13:07:06.483579;120278;1714766826;483206537;world;0.07882148;0.005182415;0.000501138;1.08E-06;-8.13E-05;0.073386125;0.997303605
2024/05/03/13:07:06.483608;120279;1714766826;483228168;world;0.079534128;0.005362311;0.000499748;-0.000330139;-0.000390158;0.073938146;0.997262716
2024/05/03/13:07:06.503531;120280;1714766826;503137247;world;0.080320656;0.005558234;0.000620992;-6.52E-05;-0.000747629;0.074691333;0.99720639
2024/05/03/13:07:06.513254;120281;1714766826;512980313;world;0.080734253;0.005711558;0.000584864;0.000156261;-0.000816482;0.075069986;0.997177958
2024/05/03/13:07:06.533276;120282;1714766826;532940973;world;0.081484511;0.005943882;0.000634286;0.000268459;-0.001152192;0.075733304;0.997127473
2024/05/03/13:07:06.553660;120283;1714766826;553296080;world;0.082162961;0.005912035;0.000527444;-0.000160361;-0.000769582;0.075881578;0.997116566
2024/05/03/13:07:06.563547;120284;1714766826;563141564;world;0.082510039;0.005732615;0.000586128;-0.000369241;-0.000124957;0.076768517;0.997048914
2024/05/03/13:07:06.583402;120285;1714766826;583094485;world;0.083090931;0.00578204;0.000865435;-7.17E-05;0.000423668;0.078089349;0.996946275
2024/05/03/13:07:06.603665;120286;1714766826;603398707;world;0.083773464;0.005864315;0.000860421;9.01E-05;0.00046883;0.078591779;0.996906817
2024/05/03/13:07:06.613466;120287;1714766826;613187183;world;0.084367901;0.006038638;0.000847393;0.000376423;0.000224809;0.079239495;0.996855497
2024/05/03/13:07:06.623521;120288;1714766826;623164336;world;0.084836461;0.005947962;0.000578881;0.000178446;0.000529275;0.079372779;0.996844888
2024/05/03/13:07:06.643543;120289;1714766826;643256899;world;0.085315026;0.006102728;0.000636118;-1.27E-05;1.88E-06;0.079904355;0.996802568
2024/05/03/13:07:06.663434;120290;1714766826;663098211;world;0.086516127;0.006397777;0.000704067;-0.000192685;-0.000332858;0.081074871;0.996707916
2024/05/03/13:07:06.703391;120291;1714766826;703071360;world;0.086822338;0.006443918;0.00067713;-0.000201527;-0.000295293;0.081347309;0.996685803
2024/05/03/13:07:06.703417;120293;1714766826;703117005;world;0.088179752;0.006867299;0.000582757;0.000254667;-0.000804089;0.082491018;0.996591449
2024/05/03/13:07:06.723379;120294;1714766826;723091998;world;0.088639505;0.006615069;0.000838314;0.000303045;0.000524036;0.08385396;0.996477902
2024/05/03/13:07:06.733427;120295;1714766826;733109775;world;0.089267597;0.006796695;0.000881778;0.000288856;0.000412596;0.084614933;0.996413648
2024/05/03/13:07:06.753374;120296;1714766826;753052097;world;0.08990249;0.006931272;0.000890073;0.000472874;0.000415423;0.085443541;0.996342838
2024/05/03/13:07:06.763639;120297;1714766826;763290940;world;0.090234347;0.006984619;0.000883445;0.000578181;0.00037753;0.085819967;0.996310413
2024/05/03/13:07:06.793640;120298;1714766826;793377646;world;0.091427214;0.007285861;0.000710712;-0.000445815;-0.000505077;0.086490959;0.996252477
2024/05/03/13:07:06.793667;120299;1714766826;793400369;world;0.091750562;0.007313966;0.000702441;-0.00052257;-0.000287116;0.086680122;0.996236026
2024/05/03/13:07:06.813279;120300;1714766826;812954262;world;0.092332028;0.007329248;0.000703027;-0.00043186;8.66E-05;0.08719223;0.996191502
2024/05/03/13:07:06.823116;120301;1714766826;822841606;world;0.092944495;0.00743529;0.000683797;-0.000398083;0.000234889;0.087742172;0.996143162
2024/05/03/13:07:06.843837;120302;1714766826;843526752;world;0.093577147;0.007476311;0.000876365;-0.000242349;0.000724448;0.088776141;0.996051371
2024/05/03/13:07:06.863533;120303;1714766826;863190629;world;0.094194904;0.007537968;0.000920928;-0.000137329;0.000828943;0.089574695;0.995979786
2024/05/03/13:07:06.893282;120304;1714766826;892987822;world;0.094782718;0.007710522;0.000952281;-9.83E-05;0.000750315;0.090404421;0.995904863
2024/05/03/13:07:06.893306;120305;1714766826;893022397;world;0.095449634;0.007879602;0.000963828;1.29E-05;0.000336759;0.091177471;0.995834589
2024/05/03/13:07:06.913391;120306;1714766826;913060879;world;0.096236229;0.008126147;0.000970925;0.000139305;0.00014392;0.091906406;0.995767713
2024/05/03/13:07:06.923197;120307;1714766826;922954875;world;0.096603103;0.008223423;0.000899457;-0.000281405;-0.000261953;0.09184812;0.995773017
2024/05/03/13:07:06.943608;120308;1714766826;943277891;world;0.097173408;0.008267338;0.000834226;-0.000229607;-0.000166802;0.092283987;0.995732725
2024/05/03/13:07:06.963288;120309;1714766826;962986313;world;0.097713999;0.008266896;0.000894755;-0.000281616;0.000596971;0.093018338;0.995664179
2024/05/03/13:07:06.963312;120310;1714766826;963024014;world;0.098376982;0.008377908;0.000853102;-0.000242286;0.000719637;0.093402408;0.995628119
2024/05/03/13:07:07.004370;120311;1714766827;3886568;world;0.099151388;0.00846679;0.000981658;-0.000215076;0.000805018;0.094271399;0.995546222
2024/05/03/13:07:07.004391;120312;1714766827;4012284;world;0.099616557;0.008542877;0.000961289;-0.000330107;0.000949141;0.094867222;0.995489419
2024/05/03/13:07:07.013538;120313;1714766827;13228131;world;0.100219265;0.008704027;0.000984951;-0.000168563;0.001152915;0.095449977;0.995433629
2024/05/03/13:07:07.033302;120314;1714766827;32989502;world;0.101021983;0.0089655;0.001000934;-0.0004186;0.000624808;0.096205086;0.995361269
2024/05/03/13:07:07.053348;120315;1714766827;53035879;world;0.101596721;0.009039626;0.000806096;-0.000481009;0.000174471;0.096721917;0.99531132
2024/05/03/13:07:07.063473;120316;1714766827;63214100;world;0.101933852;0.009110273;0.000811359;-0.000441423;-1.77E-05;0.097043037;0.995280147
2024/05/03/13:07:07.093275;120317;1714766827;92921002;world;0.102663614;0.009267438;0.000855707;-0.00045464;-0.000136379;0.097784154;0.995207608
2024/05/03/13:07:07.103593;120318;1714766827;103309265;world;0.103416666;0.009454397;0.000871325;-0.000242142;6.49E-05;0.098171853;0.995169461
2024/05/03/13:07:07.113438;120319;1714766827;113111401;world;0.104114145;0.009596253;0.000916975;-0.000147176;-0.000202927;0.09911789;0.995075643
2024/05/03/13:07:07.123535;120320;1714766827;123209016;world;0.104725778;0.009811765;0.00096465;-0.000222939;-4.80E-05;0.09960828;0.995026767
2024/05/03/13:07:07.143874;120321;1714766827;143584381;world;0.105234332;0.009903663;0.001010893;-0.000476633;0.000334376;0.100270234;0.99496007
2024/05/03/13:07:07.163405;120322;1714766827;163056179;world;0.105929501;0.010100525;0.001045333;-0.000452255;0.00027489;0.101023696;0.994883955
2024/05/03/13:07:07.173983;120323;1714766827;173662462;world;0.106268033;0.010195008;0.001009578;-0.000602738;-4.82E-05;0.101241328;0.994861782
2024/05/03/13:07:07.203656;120324;1714766827;203137301;world;0.106886834;0.01031391;0.000911775;-0.000675405;8.17E-05;0.101770736;0.994807661
2024/05/03/13:07:07.203685;120325;1714766827;203172367;world;0.107595384;0.010496549;0.000802457;-0.000549609;-0.000477835;0.102270372;0.99475646
2024/05/03/13:07:07.223521;120326;1714766827;223207673;world;0.108424723;0.010736568;0.000772028;-0.000585702;-0.000912415;0.102987312;0.994682133
2024/05/03/13:07:07.233297;120327;1714766827;232908782;world;0.109021015;0.010730892;0.000772902;-0.000869718;-0.00055107;0.103660889;0.994612217
2024/05/03/13:07:07.253260;120328;1714766827;252947659;world;0.109588243;0.010773464;0.000709661;-0.000711017;-0.000812054;0.10465201;0.994508326
2024/05/03/13:07:07.273690;120329;1714766827;273379580;world;0.110212013;0.010998795;0.00066297;-0.000824084;-0.000919793;0.105239026;0.994446278
2024/05/03/13:07:07.303158;120330;1714766827;302856142;world;0.11089389;0.011217382;0.000819106;-0.000943233;-0.000473288;0.10592819;0.994373202
2024/05/03/13:07:07.303187;120331;1714766827;302890747;world;0.111487553;0.011330803;0.000838896;-0.001011854;-0.000413951;0.106633507;0.994297802
2024/05/03/13:07:07.313253;120332;1714766827;312895982;world;0.112021022;0.011432217;0.000804516;-0.000652105;-0.00030483;0.107170589;0.994240403
2024/05/03/13:07:07.333266;120333;1714766827;332932860;world;0.112672545;0.011601564;0.000766384;-0.00068246;-0.000636594;0.107771337;0.994175255
2024/05/03/13:07:07.343341;120334;1714766827;343060995;world;0.113174319;0.011768702;0.00081585;-0.000745594;-0.00074453;0.10823866;0.994124472
2024/05/03/13:07:07.373400;120335;1714766827;373107657;world;0.114018068;0.011987513;0.000859917;-0.000749218;-0.001176622;0.108869739;0.994055033
2024/05/03/13:07:07.373433;120336;1714766827;373140619;world;0.114771917;0.012216317;0.000822733;-0.000618876;-0.001379467;0.109393656;0.993997335
2024/05/03/13:07:07.413334;120337;1714766827;413014973;world;0.115089513;0.012261621;0.00082775;-0.000492053;-0.001374432;0.109676905;0.993966281
2024/05/03/13:07:07.413360;120338;1714766827;413057092;world;0.115868695;0.012187125;0.000759338;-0.000278594;-0.000621175;0.111061811;0.993813276
2024/05/03/13:07:07.423312;120339;1714766827;422980954;world;0.116290629;0.012282526;0.000924771;0.00013347;-0.000522233;0.111779727;0.99373287
2024/05/03/13:07:07.433326;120340;1714766827;433049888;world;0.116930462;0.012430088;0.000915741;0.000289009;-0.000771393;0.112252042;0.993679464
2024/05/03/13:07:07.453654;120341;1714766827;453320782;world;0.117384374;0.01260036;0.000853774;-0.000520507;-0.000782449;0.112490915;0.993652344
2024/05/03/13:07:07.473178;120342;1714766827;472880500;world;0.117856205;0.0126562;0.000845759;-0.000997808;-0.000519392;0.11300005;0.993594348
2024/05/03/13:07:07.483317;120343;1714766827;483013681;world;0.11862684;0.012908973;0.000866198;-0.000997514;-0.000669374;0.113754869;0.993508101
2024/05/03/13:07:07.503387;120344;1714766827;503033542;world;0.119367309;0.013091195;0.000951804;-0.000882604;-0.000548903;0.114353947;0.993439615
2024/05/03/13:07:07.514154;120345;1714766827;513779606;world;0.119631767;0.013128196;0.000916419;-0.000902025;-0.000884779;0.114845738;0.993382573
2024/05/03/13:07:07.533219;120346;1714766827;532852486;world;0.120593876;0.013204491;0.001015504;-0.000619151;-0.00042115;0.115989424;0.993250251
2024/05/03/13:07:07.543267;120347;1714766827;542987134;world;0.121014655;0.013312139;0.001011176;-0.000435515;-0.000593083;0.116441227;0.993197322
2024/05/03/13:07:07.573328;120348;1714766827;573029137;world;0.121639669;0.013427155;0.000906124;-0.000523515;-0.000960371;0.117215395;0.993105948
2024/05/03/13:07:07.583383;120349;1714766827;582944914;world;0.122308493;0.013574087;0.001016821;-0.000489701;-0.000527073;0.117944814;0.993019879
2024/05/03/13:07:07.613982;120350;1714766827;613558791;world;0.123013243;0.013922166;0.001117468;0.000262784;-0.000299215;0.119095221;0.992882848
2024/05/03/13:07:07.614007;120351;1714766827;613597824;world;0.123725265;0.01425048;0.000930635;-0.000266484;-0.001232882;0.118826583;0.992914319
2024/05/03/13:07:07.623474;120352;1714766827;623179374;world;0.124493048;0.014482953;0.00104002;-0.000812351;-0.00136383;0.118972339;0.992896378
2024/05/03/13:07:07.643463;120353;1714766827;643143652;world;0.124851681;0.014521851;0.001055297;-0.00084211;-0.001211546;0.119405307;0.992844522
2024/05/03/13:07:07.653158;120354;1714766827;652854398;world;0.125663206;0.014595987;0.000954234;-0.000741045;-0.001072267;0.120575652;0.992703319
2024/05/03/13:07:07.683157;120355;1714766827;682886513;world;0.126095936;0.014779797;0.000970654;-0.000677045;-0.001108091;0.120810509;0.992674768
2024/05/03/13:07:07.683182;120356;1714766827;682919615;world;0.126859888;0.015036125;0.000912451;-0.000764425;-0.001379297;0.121512711;0.992588639
2024/05/03/13:07:07.713473;120357;1714766827;713085030;world;0.127515882;0.01514991;0.000953315;-0.000637924;-0.00138496;0.122314364;0.992490232
2024/05/03/13:07:07.724126;120358;1714766827;723841002;world;0.128010437;0.015141697;0.000935476;-0.000628986;-0.001032367;0.123590164;0.992332697
2024/05/03/13:07:07.733325;120359;1714766827;733011121;world;0.128607452;0.015314654;0.001080637;-0.000259222;-0.000400773;0.124814607;0.99217999
2024/05/03/13:07:07.753436;120360;1714766827;753166374;world;0.129129663;0.015403912;0.000943014;-0.000455696;-0.000532216;0.125229046;0.992127657
2024/05/03/13:07:07.763400;120361;1714766827;763153812;world;0.129332468;0.015430871;0.000848325;-0.000603194;-0.000776666;0.125254974;0.99212414
2024/05/03/13:07:07.783519;120362;1714766827;783271583;world;0.130776376;0.015835347;0.000917051;-0.00067958;-0.001233637;0.126318559;0.991988719
2024/05/03/13:07:07.824171;120363;1714766827;823086595;world;0.131211996;0.015911913;0.000943133;-0.000781129;-0.001511582;0.126605526;0.991951704
2024/05/03/13:07:07.824319;120364;1714766827;823126931;world;0.131942332;0.016124865;0.001032017;-0.000352772;-0.002122707;0.127399236;0.991849184
2024/05/03/13:07:07.833182;120365;1714766827;832907655;world;0.132511318;0.016322095;0.000998799;-0.000630411;-0.002034127;0.127911076;0.991783381
2024/05/03/13:07:07.843343;120366;1714766827;842911457;world;0.133057192;0.016536606;0.001056878;-0.000640471;-0.001934613;0.128627613;0.991690874
2024/05/03/13:07:07.863437;120367;1714766827;863112864;world;0.133464634;0.016531797;0.000940578;-0.000509489;-0.000967017;0.129512027;0.991577268
2024/05/03/13:07:07.883188;120368;1714766827;882906216;world;0.13387014;0.016606092;0.000918376;-0.00049609;-0.000566032;0.129901931;0.991526544
2024/05/03/13:07:07.893476;120369;1714766827;893161690;world;0.134486943;0.016822405;0.000990677;-0.000880549;-0.001032624;0.130471095;0.991451204
2024/05/03/13:07:07.923620;120370;1714766827;923299473;world;0.135114968;0.016969997;0.000962931;-0.000964911;-0.001195127;0.131062523;0.991372943
2024/05/03/13:07:07.923653;120371;1714766827;923342173;world;0.135682151;0.017204825;0.001042719;-0.000849044;-0.001405945;0.131390333;0.991329432
2024/05/03/13:07:07.943574;120372;1714766827;943029005;world;0.136622697;0.017556999;0.001055695;-0.000758167;-0.001945322;0.131775454;0.991277456
2024/05/03/13:07:07.953644;120373;1714766827;953321811;world;0.137349814;0.01764684;0.001070253;-0.000760187;-0.002109185;0.132433891;0.991189361
2024/05/03/13:07:07.963120;120374;1714766827;962867562;world;0.137934878;0.017731298;0.001152877;-0.000704546;-0.002132925;0.133231089;0.99108243
2024/05/03/13:07:07.983466;120375;1714766827;983173056;world;0.13857156;0.017943287;0.001177549;-0.000872329;-0.002194829;0.133671239;0.991022944
2024/05/03/13:07:08.013330;120376;1714766828;13021686;world;0.139225557;0.018237827;0.001164466;-0.00074854;-0.002172664;0.134556502;0.990903318
2024/05/03/13:07:08.013356;120377;1714766828;13060478;world;0.139366403;0.018327467;0.001198488;-0.000362299;-0.001926782;0.135068595;0.990834296
2024/05/03/13:07:08.033354;120378;1714766828;33013920;world;0.139928877;0.018305365;0.001236589;-0.00081181;-0.001072779;0.135967925;0.990712345
2024/05/03/13:07:08.043365;120379;1714766828;43035887;world;0.140208542;0.018363135;0.001171274;-0.000866258;-0.001041346;0.136238322;0.990675151
2024/05/03/13:07:08.063979;120380;1714766828;63411801;world;0.140915155;0.018698553;0.001156963;-0.000934581;-0.001319928;0.137035623;0.990564823
2024/05/03/13:07:08.093509;120381;1714766828;92998159;world;0.141900122;0.019101892;0.00117045;-0.00072093;-0.00176857;0.137522787;0.990496755
2024/05/03/13:07:08.093537;120382;1714766828;93032784;world;0.142682284;0.019300355;0.001129866;-0.000805115;-0.002091014;0.137949079;0.990436852
2024/05/03/13:07:08.113344;120383;1714766828;113026282;world;0.143259689;0.019459954;0.00115543;-0.000888405;-0.002074344;0.138716966;0.990329504
2024/05/03/13:07:08.123145;120384;1714766828;122860366;world;0.143835336;0.019596079;0.001155461;-0.000890018;-0.001854154;0.139457494;0.990225971
2024/05/03/13:07:08.143487;120385;1714766828;143239511;world;0.14446336;0.019806597;0.001155744;-0.0006194;-0.002142539;0.140196577;0.990121245
2024/05/03/13:07:08.163983;120386;1714766828;163172429;world;0.144751981;0.019627484;0.001273717;-0.000847118;-0.00103857;0.141501814;0.989937067
2024/05/03/13:07:08.173358;120387;1714766828;172991656;world;0.145098537;0.019749871;0.001441683;-0.000503436;-0.000993437;0.141976699;0.989869416
2024/05/03/13:07:08.193182;120388;1714766828;192882220;world;0.145685494;0.019922892;0.001298306;-0.00058681;-0.000652329;0.142412171;0.989807069
2024/05/03/13:07:08.203405;120389;1714766828;203135821;world;0.146215245;0.020026531;0.001144825;-0.001128444;-0.000952865;0.143073395;0.989710987
2024/05/03/13:07:08.223371;120390;1714766828;223083641;world;0.147104606;0.020383667;0.001217495;-0.000692375;-0.00129752;0.14363727;0.989629328
2024/05/03/13:07:08.233929;120391;1714766828;233341837;world;0.147851661;0.020586304;0.001200764;-0.001000753;-0.001610021;0.144285887;0.989534199
2024/05/03/13:07:08.253436;120392;1714766828;253149759;world;0.1485098;0.02073149;0.001240388;-0.001420567;-0.001910913;0.144720897;0.989469647
2024/05/03/13:07:08.263454;120393;1714766828;263058583;world;0.148824021;0.020888418;0.00123904;-0.001259335;-0.001968515;0.144985184;0.989431143
2024/05/03/13:07:08.293308;120394;1714766828;293020036;world;0.149739653;0.021251593;0.001267374;-0.001105112;-0.001912642;0.145954356;0.989288926
2024/05/03/13:07:08.293318;120395;1714766828;293051465;world;0.149854183;0.02117441;0.001263988;-0.001155859;-0.001504084;0.14660801;0.989192903
2024/05/03/13:07:08.343358;120396;1714766828;343050617;world;0.150382683;0.021330621;0.001461491;-0.000720789;-0.001081673;0.147478506;0.989064395
2024/05/03/13:07:08.343385;120398;1714766828;343094860;world;0.151632786;0.02166375;0.001384871;-0.0003572;-0.000565621;0.148658127;0.988888443
2024/05/03/13:07:08.363619;120399;1714766828;363294194;world;0.152358145;0.021966521;0.001343803;-0.000404886;-0.001140257;0.149081171;0.988824308
2024/05/03/13:07:08.373830;120400;1714766828;373052274;world;0.15313755;0.022238363;0.001415482;-0.000506164;-0.001657975;0.149755642;0.988721609
2024/05/03/13:07:08.393835;120401;1714766828;393460239;world;0.15380609;0.022400279;0.001386957;-0.000731592;-0.001868537;0.150291011;0.988639832
2024/05/03/13:07:08.403526;120402;1714766828;403252695;world;0.154076114;0.022497751;0.001388711;-0.000513393;-0.001792611;0.150685459;0.988580048
2024/05/03/13:07:08.423303;120403;1714766828;423031611;world;0.1546904;0.022665702;0.001379524;-0.00075402;-0.001916314;0.15124768;0.988493741
2024/05/03/13:07:08.443546;120404;1714766828;443228509;world;0.155237287;0.022796376;0.001394348;-0.000889004;-0.001713345;0.152166978;0.988352954
2024/05/03/13:07:08.453155;120405;1714766828;452924452;world;0.155776203;0.022952398;0.001509099;-0.000801092;-0.001315621;0.152827814;0.988251626
2024/05/03/13:07:08.473423;120406;1714766828;473087258;world;0.156250536;0.023038851;0.001436798;-0.001204037;-0.001461444;0.153484046;0.988149405
2024/05/03/13:07:08.483814;120407;1714766828;483417031;world;0.156781241;0.02317;0.001381841;-0.001177273;-0.001321894;0.154243559;0.988031268
2024/05/03/13:07:08.503396;120408;1714766828;503096529;world;0.157622069;0.023580298;0.001381409;-0.000660019;-0.00132067;0.154891968;0.987930298
2024/05/03/13:07:08.533952;120409;1714766828;533470936;world;0.158031702;0.023767434;0.001444752;-0.000469759;-0.001652069;0.155216217;0.987879097
2024/05/03/13:07:08.533983;120410;1714766828;533507264;world;0.159001395;0.024261497;0.001435216;-0.00016785;-0.002373506;0.156089813;0.98773998
2024/05/03/13:07:08.543576;120411;1714766828;543211654;world;0.15939866;0.024334032;0.001475917;-0.000667322;-0.002267563;0.156294301;0.987707675
2024/05/03/13:07:08.563189;120412;1714766828;562895371;world;0.160099044;0.024496444;0.001460679;-0.000776792;-0.002356154;0.156951115;0.987603247
2024/05/03/13:07:08.583335;120413;1714766828;583048156;world;0.160801843;0.024873838;0.001389095;-0.000966543;-0.002728876;0.157553598;0.98750627
2024/05/03/13:07:08.603671;120414;1714766828;603274922;world;0.161057457;0.02471754;0.001499622;-0.000730663;-0.001131651;0.158668026;0.987331092
2024/05/03/13:07:08.613210;120415;1714766828;612909160;world;0.161634982;0.024915341;0.001616851;-0.000330516;-0.000985099;0.15961577;0.987178683
2024/05/03/13:07:08.633746;120416;1714766828;633268174;world;0.16214636;0.024943341;0.00128497;-0.000659827;-0.000494657;0.159656212;0.987172425
2024/05/03/13:07:08.643675;120417;1714766828;643401159;world;0.162609175;0.025188353;0.001330633;-0.000961905;-0.001147487;0.160065785;0.98710525
2024/05/03/13:07:08.663533;120418;1714766828;663231059;world;0.163733944;0.025620036;0.001386577;-0.000983418;-0.001772082;0.160967097;0.986957669
2024/05/03/13:07:08.673807;120419;1714766828;673217729;world;0.164252549;0.025893819;0.001402331;-0.000900752;-0.002200233;0.161473423;0.986874282
2024/05/03/13:07:08.704307;120420;1714766828;703579273;world;0.164524585;0.025948912;0.001428241;-0.001367735;-0.001835357;0.161701053;0.986837149
2024/05/03/13:07:08.704333;120421;1714766828;703618767;world;0.16520682;0.026100717;0.001437895;-0.001413152;-0.002187734;0.162492886;0.986706316
2024/05/03/13:07:08.743407;120422;1714766828;743126150;world;0.166004315;0.026356766;0.00142709;-0.001671914;-0.002558212;0.163013101;0.986619174
2024/05/03/13:07:08.743432;120423;1714766828;743160394;world;0.166350737;0.026373398;0.00152263;-0.001272986;-0.001738841;0.164275914;0.986412048
2024/05/03/13:07:08.753447;120424;1714766828;753159196;world;0.166906327;0.026601208;0.001657473;-0.000764246;-0.001285121;0.164859444;0.986315906
2024/05/03/13:07:08.763435;120425;1714766828;763144433;world;0.167231992;0.026738847;0.001630442;-0.000808744;-0.001480485;0.165191799;0.986259997
2024/05/03/13:07:08.783370;120426;1714766828;783015382;world;0.168011665;0.02698135;0.001486053;-0.001301047;-0.002261468;0.166283071;0.986074626
2024/05/03/13:07:08.803773;120427;1714766828;803561791;world;0.168372124;0.027129941;0.001443172;-0.001091557;-0.002473526;0.166321173;0.986067951
2024/05/03/13:07:08.814199;120428;1714766828;813942470;world;0.169042572;0.027395032;0.001451272;-0.001026168;-0.001963832;0.166826025;0.985983908
2024/05/03/13:07:08.843623;120429;1714766828;843340849;world;0.169702873;0.027601084;0.001444218;-0.001009608;-0.001954115;0.167392805;0.985887825
2024/05/03/13:07:08.843652;120430;1714766828;843375133;world;0.170383886;0.027862545;0.001485921;-0.00110306;-0.002152108;0.168053895;0.985774875
2024/05/03/13:07:08.853137;120431;1714766828;852862236;world;0.17104058;0.028007949;0.001850217;-0.001045609;-0.001488562;0.169133186;0.985591531
2024/05/03/13:07:08.873632;120432;1714766828;873324864;world;0.171777576;0.028351216;0.001886545;-0.00069852;-0.00161082;0.169919908;0.985456288
2024/05/03/13:07:08.893357;120433;1714766828;892986509;world;0.172216952;0.028424304;0.001731227;-0.001167037;-0.001699126;0.170326412;0.985385537
2024/05/03/13:07:08.903241;120434;1714766828;902929617;world;0.172426105;0.028493792;0.001647029;-0.001266292;-0.002145413;0.170686811;0.985322237
2024/05/03/13:07:08.943324;120435;1714766828;943023332;world;0.173224539;0.028786946;0.001756541;-0.000910496;-0.001873424;0.171496674;0.985182583
2024/05/03/13:07:08.943350;120436;1714766828;943057236;world;0.173723832;0.02900476;0.001638225;-0.001083526;-0.002210825;0.171890631;0.985113025
2024/05/03/13:07:08.953384;120437;1714766828;953087728;world;0.174356192;0.029193884;0.001602071;-0.001133661;-0.001855965;0.172430769;0.985019326
2024/05/03/13:07:08.963423;120438;1714766828;963058083;world;0.174953938;0.0294376;0.001587431;-0.001040037;-0.001859748;0.173120365;0.984898388
2024/05/03/13:07:08.983621;120439;1714766828;983336645;world;0.175554067;0.029635984;0.001586653;-0.000984632;-0.001719976;0.173677921;0.984800577
2024/05/03/13:07:09.013969;120440;1714766829;13447127;world;0.176210523;0.02982386;0.001940556;-0.000692629;-0.001224511;0.174722493;0.984616756
2024/05/03/13:07:09.013988;120441;1714766829;13513441;world;0.176536292;0.02998846;0.001913356;-0.00063846;-0.001302261;0.175001949;0.984567106
2024/05/03/13:07:09.044373;120442;1714766829;44051618;world;0.177473888;0.030301031;0.001873706;-0.000729999;-0.001782244;0.176268294;0.98434031
2024/05/03/13:07:09.044405;120443;1714766829;44089620;world;0.17772311;0.03041219;0.001735143;-0.000906434;-0.002143941;0.176463753;0.984304368
2024/05/03/13:07:09.063288;120444;1714766829;63001678;world;0.178452507;0.030716568;0.001719361;-0.000786068;-0.002508775;0.177075863;0.984193742
2024/05/03/13:07:09.083549;120445;1714766829;83260844;world;0.179053366;0.030860413;0.001719792;-0.000892238;-0.001981169;0.177714288;0.984079778
2024/05/03/13:07:09.093321;120446;1714766829;93012953;world;0.179734349;0.031128684;0.001760461;-0.00086897;-0.001710831;0.178435907;0.983949721
2024/05/03/13:07:09.113468;120447;1714766829;113229871;world;0.180264965;0.031272411;0.001707936;-0.000907986;-0.001580999;0.178795978;0.983884513
2024/05/03/13:07:09.163558;120448;1714766829;163244271;world;0.180741921;0.031391025;0.002038504;-0.000902656;-0.001000519;0.179811865;0.983700097
