time;.header.seq;.header.stamp.secs;.header.stamp.nsecs;.header.frame_id;.pose.position.x;.pose.position.y;.pose.position.z;.pose.orientation.x;.pose.orientation.y;.pose.orientation.z;.pose.orientation.w
2024/05/03/13:28:08.473576;201032;1714768088;473042098;world;-1.03E-05;-7.02E-06;-2.00E-05;5.30E-05;-6.91E-06;-7.69E-05;1
2024/05/03/13:28:08.473632;201033;1714768088;473097861;world;-2.41E-05;-2.32E-05;-2.48E-05;-3.01E-05;-2.52E-05;-6.65E-05;1
2024/05/03/13:28:08.493536;201034;1714768088;493043669;world;-1.21E-06;-5.57E-07;-3.13E-05;2.82E-05;2.99E-05;-2.16E-05;1
2024/05/03/13:28:08.503809;201035;1714768088;503317514;world;-7.73E-06;2.33E-06;-1.89E-05;2.14E-05;1.89E-05;-5.83E-05;1
2024/05/03/13:28:08.523797;201036;1714768088;523353791;world;-1.32E-05;-6.56E-06;-1.31E-05;2.94E-05;1.44E-05;-4.93E-05;1
2024/05/03/13:28:08.533832;201037;1714768088;533410493;world;-1.15E-05;-8.83E-06;-7.10E-06;-2.20E-06;4.09E-05;-2.16E-05;1
2024/05/03/13:28:08.553535;201038;1714768088;553107123;world;-9.38E-06;-4.50E-06;-1.46E-06;-3.25E-05;3.23E-05;-2.56E-06;1
2024/05/03/13:28:08.573401;201039;1714768088;573154070;world;-1.59E-05;-1.42E-05;1.54E-05;1.38E-05;3.54E-05;-7.50E-05;1
2024/05/03/13:28:08.583337;201040;1714768088;583072378;world;-4.22E-05;-1.51E-05;3.28E-05;-1.63E-05;-1.30E-05;-5.12E-05;1
2024/05/03/13:28:08.593425;201041;1714768088;593143300;world;-3.07E-05;-2.90E-06;3.42E-05;-1.27E-07;-4.50E-06;-2.45E-05;1
2024/05/03/13:28:08.613340;201042;1714768088;613006575;world;-1.34E-05;-1.42E-05;3.11E-05;3.24E-05;3.77E-05;-2.78E-05;1
2024/05/03/13:28:08.633711;201043;1714768088;633287082;world;-4.97E-05;-1.47E-05;1.76E-05;-2.33E-05;1.49E-05;-2.88E-05;1
2024/05/03/13:28:08.655398;201044;1714768088;654943551;world;-8.59E-06;-8.64E-07;2.51E-05;4.50E-05;2.74E-05;-2.74E-05;1
2024/05/03/13:28:08.655437;201045;1714768088;654994104;world;-2.64E-05;-1.61E-05;9.85E-07;-7.43E-06;2.09E-06;-9.41E-05;1
2024/05/03/13:28:08.673602;201046;1714768088;673166139;world;-7.53E-06;-6.92E-06;-4.61E-06;1.86E-05;2.51E-05;-2.50E-05;1
2024/05/03/13:28:08.693285;201047;1714768088;692939298;world;2.94E-06;-3.58E-07;-5.48E-06;1.68E-06;5.84E-05;-1.50E-05;1
2024/05/03/13:28:08.703704;201048;1714768088;703298801;world;-8.50E-06;-5.79E-06;-1.63E-05;2.90E-05;6.76E-05;-2.88E-05;1
2024/05/03/13:28:08.724048;201049;1714768088;723014736;world;-3.73E-07;-1.17E-05;-1.75E-05;1.41E-05;1.62E-05;-3.31E-05;1
2024/05/03/13:28:08.743196;201050;1714768088;742915562;world;-1.24E-05;-5.31E-06;-1.37E-05;-1.32E-05;9.53E-06;-1.61E-06;1
2024/05/03/13:28:08.753373;201051;1714768088;753103799;world;1.20E-06;2.50E-06;-1.34E-06;3.46E-05;7.17E-05;1.25E-06;1
2024/05/03/13:28:08.773186;201052;1714768088;772858015;world;-3.07E-06;-6.87E-06;-1.09E-05;1.35E-05;-2.19E-05;-5.02E-05;1
2024/05/03/13:28:08.783289;201053;1714768088;782998563;world;-7.12E-06;-7.81E-06;-1.68E-05;-1.66E-07;7.14E-06;-3.59E-05;1
2024/05/03/13:28:08.803425;201054;1714768088;803113680;world;2.75E-06;-1.23E-06;-8.42E-06;4.33E-05;-1.61E-05;-5.83E-05;1
2024/05/03/13:28:08.813435;201055;1714768088;813195975;world;2.86E-06;1.17E-05;-1.80E-05;1.56E-05;3.10E-05;1.73E-06;1
2024/05/03/13:28:08.833286;201056;1714768088;833011686;world;-9.87E-06;-6.31E-06;-2.83E-05;1.28E-05;4.37E-05;-2.35E-05;1
2024/05/03/13:28:08.853396;201057;1714768088;853125284;world;-1.12E-05;7.96E-06;-2.87E-05;-1.18E-05;1.84E-05;2.46E-05;1
2024/05/03/13:28:08.863845;201058;1714768088;863441708;world;-1.20E-05;1.68E-05;-1.46E-05;-4.54E-05;-3.70E-05;2.22E-05;1
2024/05/03/13:28:08.884065;201059;1714768088;883362119;world;-2.92E-05;-9.58E-06;2.47E-06;6.47E-06;-5.40E-05;-6.26E-05;1
2024/05/03/13:28:08.893507;201060;1714768088;893181326;world;-7.95E-06;-1.36E-05;2.41E-06;-3.61E-05;-2.38E-05;-7.98E-05;1
2024/05/03/13:28:08.904124;201061;1714768088;903619500;world;-1.08E-05;-3.68E-07;-8.49E-07;2.66E-05;3.93E-05;-4.26E-05;1
2024/05/03/13:28:08.923461;201062;1714768088;923066824;world;-2.85E-05;2.95E-07;4.57E-06;-8.38E-06;2.62E-06;-3.16E-05;1
2024/05/03/13:28:08.944426;201063;1714768088;943223921;world;-1.88E-05;-1.95E-06;1.39E-05;1.51E-05;9.41E-06;-1.73E-05;1
2024/05/03/13:28:08.963254;201064;1714768088;962933794;world;-1.50E-05;-1.20E-05;-7.95E-06;-1.16E-06;1.38E-05;-3.74E-05;1
2024/05/03/13:28:08.983861;201065;1714768088;983376188;world;1.10E-05;-4.82E-06;-1.96E-05;8.31E-05;6.41E-05;-2.78E-05;1
2024/05/03/13:28:08.993560;201066;1714768088;993251409;world;-2.12E-05;-1.27E-05;-2.30E-05;-1.86E-05;2.90E-05;-2.02E-05;1
2024/05/03/13:28:09.003253;201067;1714768089;2947807;world;-4.50E-06;-1.60E-05;-2.43E-06;-1.56E-05;-5.29E-06;-5.74E-05;1
2024/05/03/13:28:09.023311;201068;1714768089;22993290;world;1.42E-05;-2.36E-06;-2.47E-05;3.09E-05;6.02E-05;-7.33E-06;1
2024/05/03/13:28:09.033562;201069;1714768089;33272687;world;-3.69E-07;-6.59E-06;-2.59E-05;-2.35E-05;2.60E-05;-1.54E-05;1
2024/05/03/13:28:09.063547;201070;1714768089;63209810;world;2.29E-05;-5.75E-06;-1.01E-05;5.94E-05;2.56E-05;-1.21E-05;1
2024/05/03/13:28:09.063573;201071;1714768089;63245115;world;1.88E-06;-8.86E-06;-4.68E-06;4.28E-06;3.72E-05;-3.98E-05;1
2024/05/03/13:28:09.083660;201072;1714768089;83350861;world;-1.43E-05;-7.08E-06;-9.89E-06;5.44E-05;-5.91E-05;-4.88E-05;1
2024/05/03/13:28:09.093862;201073;1714768089;93570766;world;-1.05E-06;-3.84E-06;-1.09E-05;2.54E-05;-2.93E-07;-2.97E-05;1
2024/05/03/13:28:09.113326;201074;1714768089;113041821;world;-2.87E-06;-4.42E-06;-8.95E-06;1.67E-05;5.24E-05;-3.31E-05;1
2024/05/03/13:28:09.133735;201075;1714768089;133466162;world;-1.81E-05;-1.08E-05;-1.44E-05;2.75E-05;2.79E-05;-6.60E-05;1
2024/05/03/13:28:09.143567;201076;1714768089;143273819;world;1.65E-06;-1.52E-05;-1.00E-05;-2.09E-05;-5.13E-06;-2.45E-05;1
2024/05/03/13:28:09.163586;201077;1714768089;163216663;world;7.04E-07;-2.28E-05;-2.89E-06;1.36E-05;-3.91E-05;-4.45E-05;1
2024/05/03/13:28:09.183249;201078;1714768089;182972945;world;-1.68E-06;-1.91E-05;-1.84E-05;-2.85E-05;3.61E-05;-5.50E-05;1
2024/05/03/13:28:09.193504;201079;1714768089;193090661;world;-7.32E-06;-2.39E-05;-7.67E-06;3.31E-06;4.26E-06;-9.74E-05;1
2024/05/03/13:28:09.203462;201080;1714768089;203279485;world;-1.24E-05;-1.47E-05;-8.94E-06;-4.95E-05;-1.11E-05;-2.54E-05;1
2024/05/03/13:28:09.223488;201081;1714768089;223302412;world;1.40E-05;-1.05E-05;-2.20E-05;1.10E-05;6.46E-05;-2.69E-05;1
2024/05/03/13:28:09.233849;201082;1714768089;233038245;world;1.61E-05;-3.33E-06;-1.00E-05;5.99E-06;3.78E-05;-3.74E-05;1
2024/05/03/13:28:09.264231;201083;1714768089;263831306;world;-9.39E-07;-7.74E-06;2.30E-06;-1.70E-06;4.97E-05;-7.80E-06;1
2024/05/03/13:28:09.264257;201084;1714768089;263868635;world;-2.66E-05;-1.58E-05;-7.21E-06;3.31E-06;1.91E-05;-5.88E-05;1
2024/05/03/13:28:09.283555;201085;1714768089;283267839;world;-3.68E-06;-1.09E-05;-2.87E-05;7.19E-05;5.54E-05;-3.45E-05;1
2024/05/03/13:28:09.303467;201086;1714768089;303157335;world;-2.59E-05;-3.46E-05;-1.00E-05;-2.18E-05;4.07E-06;-7.98E-05;1
2024/05/03/13:28:09.313477;201087;1714768089;313152577;world;-1.26E-05;-9.71E-06;1.62E-06;-1.40E-06;3.36E-05;-2.35E-05;1
2024/05/03/13:28:09.333329;201088;1714768089;333039609;world;2.38E-06;-5.71E-06;5.37E-06;-3.57E-05;1.32E-05;-1.59E-05;1
2024/05/03/13:28:09.353251;201089;1714768089;352890234;world;-8.49E-07;-1.87E-06;-1.46E-05;3.51E-06;9.42E-06;-1.92E-05;1
2024/05/03/13:28:09.363345;201090;1714768089;363058154;world;-8.43E-06;-1.46E-05;-9.62E-06;2.97E-05;3.74E-05;-3.64E-05;1
2024/05/03/13:28:09.393538;201091;1714768089;393344882;world;1.39E-05;-8.91E-06;1.01E-06;1.58E-05;5.37E-05;-9.71E-06;1
2024/05/03/13:28:09.404044;201092;1714768089;403224670;world;8.64E-07;-1.27E-05;-6.63E-06;1.23E-05;3.79E-05;-1.02E-05;1
2024/05/03/13:28:09.413548;201093;1714768089;413274594;world;9.35E-06;-1.10E-05;-4.17E-06;1.01E-05;3.43E-05;-4.55E-05;1
2024/05/03/13:28:09.423639;201094;1714768089;423371126;world;-5.02E-06;-1.23E-05;-1.50E-05;4.31E-06;1.97E-05;-1.50E-05;1
2024/05/03/13:28:09.443318;201095;1714768089;443060128;world;-1.21E-06;-2.25E-05;-1.16E-06;1.00E-05;-2.94E-05;-3.07E-05;1
2024/05/03/13:28:09.453810;201096;1714768089;453411355;world;-3.09E-06;-1.19E-05;-5.83E-06;8.29E-05;3.37E-05;-5.55E-05;1
2024/05/03/13:28:09.473385;201097;1714768089;473087206;world;2.82E-06;-3.24E-06;-1.37E-05;3.06E-05;1.14E-05;-1.83E-05;1
2024/05/03/13:28:09.493132;201098;1714768089;492873092;world;3.68E-06;1.30E-06;-1.59E-05;3.98E-05;2.50E-05;-1.64E-05;1
2024/05/03/13:28:09.503866;201099;1714768089;503313403;world;8.57E-08;-6.64E-06;-2.69E-06;-7.69E-06;3.06E-05;-2.02E-05;1
2024/05/03/13:28:09.524009;201100;1714768089;523742042;world;-2.71E-05;-1.07E-05;-6.48E-07;9.44E-07;5.89E-06;-4.31E-05;1
2024/05/03/13:28:09.533491;201101;1714768089;533193953;world;-1.05E-05;-2.24E-06;-7.45E-07;2.24E-05;-2.97E-07;-9.23E-06;1
2024/05/03/13:28:09.553121;201102;1714768089;552877210;world;5.38E-06;-1.08E-05;-1.60E-05;1.83E-05;4.05E-06;-1.69E-05;1
2024/05/03/13:28:09.573353;201103;1714768089;572991541;world;-1.44E-05;-3.36E-05;-1.06E-05;2.44E-05;2.10E-05;-6.55E-05;1
2024/05/03/13:28:09.593151;201104;1714768089;592862774;world;-5.39E-06;-1.06E-05;1.31E-06;6.13E-05;2.49E-05;-4.93E-05;1
2024/05/03/13:28:09.603887;201105;1714768089;603263553;world;-6.78E-07;-1.47E-05;-1.65E-05;2.53E-05;3.18E-05;-5.12E-05;1
2024/05/03/13:28:09.613449;201106;1714768089;613225873;world;1.48E-05;-7.35E-07;-1.36E-05;3.03E-06;2.62E-05;-1.50E-05;1
2024/05/03/13:28:09.633538;201107;1714768089;633222418;world;-1.40E-05;3.84E-07;-7.22E-06;-9.64E-06;-3.07E-05;-4.31E-05;1
2024/05/03/13:28:09.643542;201108;1714768089;643288439;world;2.54E-06;-5.95E-06;-9.73E-06;4.20E-05;5.19E-05;-2.88E-05;1
2024/05/03/13:28:09.663343;201109;1714768089;663036725;world;-1.55E-05;-1.03E-05;-5.47E-06;-4.34E-05;3.96E-05;-2.02E-05;1
2024/05/03/13:28:09.683168;201110;1714768089;682961888;world;-7.01E-06;-3.89E-06;-1.45E-05;-9.76E-06;-1.34E-05;-3.69E-05;1
2024/05/03/13:28:09.693635;201111;1714768089;693226756;world;2.98E-08;-8.41E-06;-1.35E-05;-5.07E-06;2.07E-05;-4.07E-05;1
2024/05/03/13:28:09.703743;201112;1714768089;703330767;world;7.86E-06;-8.54E-07;-7.80E-06;2.87E-05;5.50E-05;-3.21E-05;1
2024/05/03/13:28:09.723428;201113;1714768089;723009277;world;-6.49E-06;-1.94E-06;1.83E-06;2.95E-05;-2.50E-05;-6.65E-05;1
2024/05/03/13:28:09.743807;201114;1714768089;743575590;world;6.66E-06;-1.24E-05;-2.57E-05;8.06E-05;6.43E-05;-3.02E-05;1
2024/05/03/13:28:09.753320;201115;1714768089;753050362;world;7.02E-06;-7.82E-07;-8.33E-06;-3.86E-06;-2.16E-05;-4.94E-06;1
2024/05/03/13:28:09.773449;201116;1714768089;773144355;world;3.55E-06;-1.99E-05;1.01E-05;4.81E-05;1.26E-05;-3.02E-05;1
2024/05/03/13:28:09.783578;201117;1714768089;783272992;world;-5.74E-06;1.55E-06;-1.17E-06;4.29E-05;1.39E-05;-5.90E-06;1
2024/05/03/13:28:09.803571;201118;1714768089;803362046;world;3.22E-06;-8.56E-06;-1.20E-05;-8.48E-06;-1.28E-05;-4.31E-05;1
2024/05/03/13:28:09.823370;201119;1714768089;823046856;world;9.56E-06;9.28E-07;-1.88E-05;2.43E-05;8.31E-06;-2.50E-05;1
2024/05/03/13:28:09.833580;201120;1714768089;833298109;world;-7.63E-06;-1.30E-05;-3.91E-06;6.27E-05;1.74E-05;-5.50E-05;1
2024/05/03/13:28:09.843503;201121;1714768089;843103807;world;-1.83E-05;-2.41E-05;1.28E-05;-3.08E-05;-7.03E-05;-4.98E-05;1
2024/05/03/13:28:09.864066;201122;1714768089;863004238;world;5.44E-06;-3.45E-06;-1.23E-05;3.65E-05;2.83E-05;-1.76E-07;1
2024/05/03/13:28:09.883258;201123;1714768089;882984592;world;7.96E-06;-4.42E-06;-1.43E-05;-3.93E-06;8.49E-06;-2.31E-05;1
2024/05/03/13:28:09.913528;201124;1714768089;913142994;world;1.86E-07;-1.41E-05;1.65E-06;1.94E-05;9.77E-06;-4.88E-05;1
2024/05/03/13:28:09.913566;201125;1714768089;913181896;world;-1.64E-05;-6.86E-06;1.00E-05;2.96E-06;-1.31E-05;-6.07E-05;1
2024/05/03/13:28:09.923295;201126;1714768089;923028814;world;-4.12E-06;-1.01E-05;-4.33E-06;6.41E-06;1.90E-05;-2.64E-05;1
2024/05/03/13:28:09.944632;201127;1714768089;943720177;world;-1.38E-05;8.49E-06;-2.52E-05;-4.48E-05;-4.78E-05;1.13E-05;1
2024/05/03/13:28:09.953279;201128;1714768089;952996615;world;2.62E-06;-4.68E-06;-6.68E-06;-3.01E-05;-2.10E-05;-1.69E-05;1
2024/05/03/13:28:09.983529;201129;1714768089;983159465;world;-2.10E-05;-2.71E-05;4.43E-07;-2.99E-05;-1.81E-05;-8.12E-05;1
2024/05/03/13:28:09.983558;201130;1714768089;983204678;world;-1.82E-05;-1.95E-05;-1.19E-05;-2.47E-05;3.87E-05;-4.79E-05;1
2024/05/03/13:28:10.013599;201131;1714768090;13174495;world;-3.57E-06;-5.96E-06;-1.16E-05;-2.12E-05;-1.92E-05;-1.83E-05;1
2024/05/03/13:28:10.013630;201132;1714768090;13208328;world;2.75E-06;1.15E-05;-1.37E-05;3.36E-05;3.15E-05;-3.50E-05;1
2024/05/03/13:28:10.033571;201133;1714768090;33342124;world;-3.23E-05;-3.24E-06;-1.38E-05;-4.22E-05;2.85E-05;4.56E-05;1
2024/05/03/13:28:10.053461;201134;1714768090;53127592;world;-2.72E-06;-3.79E-06;3.62E-06;-1.52E-05;-5.93E-06;-6.07E-05;1
2024/05/03/13:28:10.063780;201135;1714768090;63417125;world;9.13E-07;-4.86E-06;-8.16E-06;-1.11E-06;-9.83E-06;-2.35E-05;1
2024/05/03/13:28:10.084241;201136;1714768090;83826792;world;-9.10E-06;-1.73E-05;-9.07E-06;2.84E-05;-5.17E-05;-1.16E-05;1
2024/05/03/13:28:10.113472;201137;1714768090;113075148;world;1.10E-05;-1.20E-05;2.51E-06;5.16E-05;4.00E-05;-3.45E-05;1
2024/05/03/13:28:10.113501;201138;1714768090;113124649;world;-1.19E-06;-7.47E-07;-1.60E-06;1.03E-05;2.79E-05;7.79E-07;1
2024/05/03/13:28:10.133546;201139;1714768090;133237628;world;-6.72E-06;-1.86E-05;-1.53E-05;4.02E-05;4.10E-05;-5.79E-05;1
2024/05/03/13:28:10.143766;201140;1714768090;143095668;world;-8.50E-06;-7.62E-06;-1.47E-05;-5.49E-05;1.65E-05;-1.21E-05;1
2024/05/03/13:28:10.163357;201141;1714768090;163054102;world;1.89E-05;-1.62E-05;1.12E-05;9.65E-05;2.76E-05;-8.08E-05;1
2024/05/03/13:28:10.183527;201142;1714768090;183237593;world;-3.88E-06;-9.71E-06;-5.75E-06;-2.35E-05;6.78E-06;-4.40E-05;1
2024/05/03/13:28:10.193554;201143;1714768090;192994977;world;-4.88E-07;8.05E-07;-1.45E-05;2.14E-05;2.88E-05;-4.21E-05;1
2024/05/03/13:28:10.223500;201144;1714768090;223085826;world;2.18E-06;2.26E-07;-1.68E-05;3.95E-05;9.62E-06;-1.78E-05;1
2024/05/03/13:28:10.223533;201145;1714768090;223122804;world;-1.09E-05;-2.47E-05;4.27E-06;3.93E-05;-2.30E-05;-6.93E-05;1
2024/05/03/13:28:10.243284;201146;1714768090;242933716;world;1.02E-05;1.95E-06;8.10E-08;9.45E-06;4.23E-05;-3.51E-06;1
2024/05/03/13:28:10.253483;201147;1714768090;253030736;world;-2.24E-05;-1.81E-05;-3.49E-06;-2.38E-06;-3.17E-05;-4.07E-05;1
2024/05/03/13:28:10.273746;201148;1714768090;273128838;world;1.36E-06;-6.75E-06;-1.47E-05;3.56E-05;4.76E-05;-2.45E-05;1
2024/05/03/13:28:10.293619;201149;1714768090;293284136;world;-8.84E-06;-1.20E-05;-1.06E-05;-6.05E-06;3.11E-05;-4.17E-05;1
2024/05/03/13:28:10.313724;201150;1714768090;313380359;world;-2.34E-05;-1.27E-05;-9.86E-06;3.28E-05;3.21E-05;-4.88E-05;1
2024/05/03/13:28:10.323583;201151;1714768090;323209669;world;-4.93E-06;-1.06E-06;-1.07E-05;1.03E-05;-6.63E-06;-3.04E-06;1
2024/05/03/13:28:10.333658;201152;1714768090;333286010;world;-4.82E-06;-8.08E-06;-1.57E-05;1.90E-05;9.49E-06;-5.79E-05;1
2024/05/03/13:28:10.353200;201153;1714768090;353029039;world;-1.23E-05;-9.89E-06;-2.16E-06;-1.85E-05;-8.58E-06;-3.16E-05;1
2024/05/03/13:28:10.363332;201154;1714768090;363100150;world;-6.15E-07;-9.91E-06;-1.43E-06;-3.71E-06;3.48E-05;-4.45E-05;1
2024/05/03/13:28:10.393182;201155;1714768090;392907086;world;-6.38E-06;2.67E-06;-1.03E-05;-9.76E-06;2.36E-05;-8.28E-06;1
2024/05/03/13:28:10.393208;201156;1714768090;392945948;world;-1.74E-05;-6.54E-06;-1.50E-05;6.41E-06;2.53E-05;1.73E-06;1
2024/05/03/13:28:10.413268;201157;1714768090;412927645;world;-1.35E-05;-1.04E-05;-1.07E-05;3.66E-05;1.52E-05;-7.03E-05;1
2024/05/03/13:28:10.423204;201158;1714768090;422920844;world;-9.51E-06;-1.70E-05;-4.12E-07;-3.61E-05;3.67E-05;-2.12E-05;1
2024/05/03/13:28:10.443309;201159;1714768090;442912820;world;-2.52E-06;3.25E-06;-6.21E-06;3.66E-05;5.98E-06;-2.50E-05;1
2024/05/03/13:28:10.453905;201160;1714768090;453694921;world;-2.54E-06;1.13E-05;-1.43E-05;2.71E-05;-8.72E-06;-2.64E-05;1
2024/05/03/13:28:10.473568;201161;1714768090;473328747;world;-5.32E-06;3.71E-06;-8.19E-06;3.74E-06;4.33E-05;8.88E-06;1
2024/05/03/13:28:10.493541;201162;1714768090;493306599;world;-2.48E-05;-1.23E-05;1.20E-05;-5.13E-05;-6.87E-05;-4.45E-05;1
2024/05/03/13:28:10.513493;201163;1714768090;513190265;world;1.89E-06;-1.05E-06;-1.71E-05;9.47E-06;4.33E-05;-3.69E-05;1
2024/05/03/13:28:10.523436;201164;1714768090;523096004;world;-1.39E-05;-9.48E-06;-1.30E-05;-5.69E-05;-3.54E-05;-5.17E-05;1
2024/05/03/13:28:10.533688;201165;1714768090;533296973;world;-1.53E-06;-1.84E-05;7.55E-06;1.63E-05;-5.39E-05;-4.93E-05;1
2024/05/03/13:28:10.553393;201166;1714768090;553085675;world;-4.68E-06;-2.74E-06;-3.26E-06;5.06E-06;2.48E-05;-3.07E-05;1
2024/05/03/13:28:10.573379;201167;1714768090;573000429;world;1.08E-05;-7.87E-06;-8.08E-06;5.29E-05;2.12E-05;-2.16E-05;1
2024/05/03/13:28:10.583687;201168;1714768090;583075528;world;-8.97E-06;-7.66E-06;-2.02E-05;-2.25E-05;1.85E-05;-7.80E-06;1
2024/05/03/13:28:10.603803;201169;1714768090;603487668;world;-2.79E-07;-1.56E-05;-1.09E-06;2.79E-05;2.49E-05;-5.55E-05;1
2024/05/03/13:28:10.633667;201170;1714768090;633312107;world;-9.77E-06;-2.96E-06;-6.09E-06;1.38E-05;3.56E-05;-3.74E-05;1
2024/05/03/13:28:10.633688;201171;1714768090;633348033;world;6.17E-06;-1.02E-05;-4.39E-06;5.21E-05;2.69E-05;-3.16E-05;1
2024/05/03/13:28:10.643248;201172;1714768090;642889399;world;-5.95E-06;-1.49E-05;-1.47E-05;5.32E-06;-1.13E-05;-5.17E-05;1
2024/05/03/13:28:10.653415;201173;1714768090;653164456;world;-1.94E-06;4.07E-06;-5.54E-06;-3.44E-06;3.25E-05;-1.88E-05;1
2024/05/03/13:28:10.673682;201174;1714768090;673386556;world;-3.80E-07;-1.34E-05;1.20E-05;-6.37E-05;-3.64E-06;-2.59E-05;1
2024/05/03/13:28:10.703380;201175;1714768090;703043327;world;-1.08E-07;4.45E-06;-9.86E-06;5.54E-07;4.32E-05;3.46E-05;1
2024/05/03/13:28:10.703393;201176;1714768090;703077450;world;-1.09E-06;-1.25E-06;-1.12E-05;-1.92E-05;5.71E-06;-1.11E-05;1
2024/05/03/13:28:10.733530;201177;1714768090;733134358;world;-4.50E-06;-1.24E-05;-2.03E-05;2.55E-05;6.39E-05;-3.07E-05;1
2024/05/03/13:28:10.733557;201178;1714768090;733166668;world;-1.20E-05;-1.82E-05;-4.15E-06;-2.36E-05;3.59E-05;-4.64E-05;1
2024/05/03/13:28:10.753472;201179;1714768090;753110709;world;-1.03E-05;-2.00E-05;2.38E-06;1.76E-06;-3.92E-05;-6.41E-05;1
2024/05/03/13:28:10.773325;201180;1714768090;772949690;world;-1.99E-05;-1.95E-06;-2.35E-05;-3.41E-05;-1.69E-05;-2.88E-05;1
2024/05/03/13:28:10.783541;201181;1714768090;783227891;world;-1.31E-05;-2.24E-06;-2.29E-05;4.83E-05;5.07E-05;-1.31E-05;1
2024/05/03/13:28:10.803529;201182;1714768090;803238613;world;-2.15E-05;3.78E-06;-1.36E-05;-4.33E-05;9.25E-06;-9.23E-06;1
2024/05/03/13:28:10.813679;201183;1714768090;813356951;world;-2.28E-05;-1.28E-05;-1.51E-05;-1.89E-05;-1.27E-05;-6.17E-05;1
2024/05/03/13:28:10.833521;201184;1714768090;833218708;world;-5.96E-08;4.03E-07;-1.76E-05;3.14E-05;-3.54E-05;-4.55E-05;1
2024/05/03/13:28:10.853357;201185;1714768090;853005135;world;-1.43E-06;-4.87E-06;-1.42E-05;2.37E-05;-2.40E-05;-5.50E-05;1
2024/05/03/13:28:10.863573;201186;1714768090;863334032;world;-1.34E-05;-6.80E-07;-1.86E-05;4.63E-05;-2.28E-05;-3.69E-05;1
2024/05/03/13:28:10.873600;201187;1714768090;873213141;world;-8.61E-06;-1.01E-05;-1.93E-05;7.47E-05;1.53E-05;-2.93E-05;1
2024/05/03/13:28:10.903674;201188;1714768090;903351987;world;1.28E-05;9.83E-06;-2.36E-05;6.76E-05;2.52E-06;-9.71E-06;1
2024/05/03/13:28:10.913453;201189;1714768090;913154384;world;1.94E-06;8.72E-06;-2.96E-05;0.000127536;4.46E-05;2.80E-05;1
2024/05/03/13:28:10.933679;201190;1714768090;933265371;world;-8.34E-07;5.88E-05;-1.92E-05;0.000168241;1.81E-05;0.000768007;0.999999762
2024/05/03/13:28:10.943672;201191;1714768090;943333526;world;-4.08E-06;5.69E-05;-5.26E-06;6.62E-05;-5.44E-05;0.001987762;0.999998093
2024/05/03/13:28:10.963257;201192;1714768090;962992500;world;5.51E-05;9.44E-05;-2.21E-05;0.000339612;-8.03E-05;0.003591859;0.999993563
2024/05/03/13:28:10.973355;201193;1714768090;972999856;world;2.89E-05;0.000107628;-2.10E-05;0.000281047;-9.23E-05;0.004509285;0.999989867
2024/05/03/13:28:10.993939;201194;1714768090;993643860;world;-4.63E-06;0.000116516;-1.64E-05;0.000159476;-0.000187118;0.00653677;0.999978662
2024/05/03/13:28:11.003279;201195;1714768091;3000055;world;-6.38E-06;0.000101188;-1.18E-05;0.00011359;-0.000218046;0.008644324;0.999962687
2024/05/03/13:28:11.053693;201196;1714768091;53374220;world;-7.25E-06;9.56E-05;8.34E-06;7.08E-05;-0.000288345;0.011031727;0.999939084
2024/05/03/13:28:11.053720;201198;1714768091;53416247;world;2.73E-05;0.000104817;3.07E-05;0.000267993;-0.000165669;0.015881693;0.999873877
2024/05/03/13:28:11.073470;201199;1714768091;73119353;world;-1.36E-05;3.87E-05;2.24E-05;0.000136725;-0.000185627;0.018537743;0.999828219
2024/05/03/13:28:11.083583;201200;1714768091;83267738;world;-3.22E-05;2.42E-05;2.83E-05;-9.57E-06;-0.00012642;0.019886436;0.999802291
2024/05/03/13:28:11.113592;201201;1714768091;113271661;world;-4.77E-05;5.10E-05;-5.88E-06;-0.000172475;-0.000125512;0.02257994;0.999745071
2024/05/03/13:28:11.113611;201202;1714768091;113310111;world;-0.000117496;7.20E-05;3.40E-06;-0.000274072;-0.000178069;0.025217019;0.99968195
2024/05/03/13:28:11.143569;201203;1714768091;143300578;world;-0.000160303;4.37E-05;-1.12E-05;-0.00050155;-0.000249293;0.02761507;0.99961853
2024/05/03/13:28:11.143601;201204;1714768091;143337916;world;-7.35E-05;7.21E-05;-1.21E-05;-0.000293743;-0.000164093;0.029994534;0.999550045
2024/05/03/13:28:11.163164;201205;1714768091;162903117;world;-5.23E-05;0.000101279;-1.94E-05;-0.000275073;-0.000203571;0.03239518;0.999475062
2024/05/03/13:28:11.173573;201206;1714768091;173278007;world;-3.23E-05;9.95E-05;7.44E-06;-0.000353797;-0.000258521;0.0348447;0.999392629
2024/05/03/13:28:11.193206;201207;1714768091;192927904;world;-1.41E-05;0.000103636;1.12E-05;-0.000126175;-0.000286057;0.036131419;0.999347031
2024/05/03/13:28:11.213764;201208;1714768091;213423111;world;9.16E-07;9.10E-05;3.22E-05;-0.00018205;-0.000267925;0.038561575;0.999256194
2024/05/03/13:28:11.243465;201209;1714768091;243139340;world;-4.40E-07;4.61E-05;-5.75E-06;-0.000111254;-0.000270889;0.040845271;0.999165416
2024/05/03/13:28:11.253222;201210;1714768091;252949871;world;-0.00015384;-2.31E-06;-2.32E-05;-0.000602579;-0.000569305;0.043070767;0.999071717
2024/05/03/13:28:11.253233;201211;1714768091;252983844;world;-0.000193782;-2.64E-05;-5.81E-05;-0.000677346;-0.000522812;0.045201078;0.998977542
2024/05/03/13:28:11.273408;201212;1714768091;273103436;world;-0.000194121;-2.52E-05;-1.69E-05;-0.000887475;-0.00075417;0.047167502;0.998886406
2024/05/03/13:28:11.283403;201213;1714768091;283102276;world;-0.000228938;-4.38E-05;-1.90E-05;-0.000858535;-0.000737367;0.049194127;0.998788655
2024/05/03/13:28:11.313217;201214;1714768091;312902881;world;-0.000211701;-8.95E-06;-1.18E-05;-0.00071059;-0.000640918;0.051084016;0.998693883
2024/05/03/13:28:11.323309;201215;1714768091;322921226;world;-0.000148091;4.12E-06;2.84E-05;-0.000574377;-0.000749549;0.052995041;0.998594344
2024/05/03/13:28:11.343208;201216;1714768091;342860325;world;-9.23E-05;4.43E-05;6.41E-05;-0.000318545;-0.000731093;0.0548703;0.998493195
2024/05/03/13:28:11.353163;201217;1714768091;352895382;world;-0.000144072;-2.54E-05;0.000107244;-0.000439906;-0.000635164;0.056522757;0.998401105
2024/05/03/13:28:11.363680;201218;1714768091;363415180;world;-0.000101767;-1.96E-05;0.00012718;-0.000401281;-0.000570222;0.058322765;0.998297513
2024/05/03/13:28:11.373452;201219;1714768091;373098911;world;-0.000112265;-2.88E-05;0.000147093;-0.000462296;-0.000533042;0.05920431;0.998245716
2024/05/03/13:28:11.393615;201220;1714768091;393141039;world;-9.66E-05;-3.74E-05;0.000140942;-0.000496314;-0.000477721;0.060917832;0.9981426
2024/05/03/13:28:11.413359;201221;1714768091;413023918;world;-0.000148781;-3.32E-05;0.000133615;-0.000653031;-0.000451477;0.062774807;0.998027384
2024/05/03/13:28:11.423259;201222;1714768091;423017198;world;-0.000244189;-9.30E-05;0.000105747;-0.000922257;-0.000528952;0.06436687;0.997925758
2024/05/03/13:28:11.453345;201223;1714768091;453023883;world;-0.000270043;-0.000107666;0.000124821;-0.001172367;-0.000610614;0.065839268;0.997829378
2024/05/03/13:28:11.453369;201224;1714768091;453062624;world;-0.000250973;-0.000107844;0.000129245;-0.001118731;-0.000595975;0.066620089;0.997777641
2024/05/03/13:28:11.473351;201225;1714768091;472922979;world;-0.000277612;-0.000121449;0.000120106;-0.001231651;-0.000723789;0.068074703;0.997679293
2024/05/03/13:28:11.493095;201226;1714768091;492856990;world;-0.00024341;-0.000104425;9.77E-05;-0.001218751;-0.000649459;0.069607042;0.997573555
2024/05/03/13:28:11.503208;201227;1714768091;502907415;world;-0.000234891;-7.33E-05;9.40E-05;-0.001257269;-0.00072295;0.071091913;0.99746871
2024/05/03/13:28:11.523355;201228;1714768091;523059829;world;-0.000221565;-7.56E-05;8.02E-05;-0.001048221;-0.000872598;0.072487414;0.997368455
2024/05/03/13:28:11.563676;201229;1714768091;563294090;world;-0.000222147;-9.42E-05;0.000122392;-0.001068908;-0.000919668;0.073831744;0.99726969
2024/05/03/13:28:11.563702;201230;1714768091;563336037;world;-0.000204772;-7.35E-05;0.000100391;-0.001022582;-0.000907413;0.075200804;0.997167528
2024/05/03/13:28:11.573189;201231;1714768091;572784778;world;-0.000233769;-7.61E-05;0.000104024;-0.001012945;-0.000926361;0.076618634;0.997059524
2024/05/03/13:28:11.583227;201232;1714768091;582964910;world;-0.000174962;-7.86E-05;0.000122465;-0.000871316;-0.000882552;0.078020781;0.996950984
2024/05/03/13:28:11.603310;201233;1714768091;603004026;world;-0.000189986;-8.60E-05;0.000121666;-0.00077621;-0.000911407;0.079402275;0.996842027
2024/05/03/13:28:11.623214;201234;1714768091;622957795;world;-0.000172853;-7.60E-05;0.000108114;-0.000656505;-0.000925839;0.080093041;0.996786833
2024/05/03/13:28:11.633131;201235;1714768091;632907771;world;-0.000140335;-8.65E-05;0.000110922;-0.000509249;-0.000792996;0.081432559;0.996678472
2024/05/03/13:28:11.643094;201236;1714768091;642886012;world;-0.000149861;-0.000115568;0.000114955;-0.000619645;-0.000873378;0.0827602;0.996568918
2024/05/03/13:28:11.663268;201237;1714768091;663020312;world;-0.000193603;-0.000161235;0.000140788;-0.00061613;-0.000896366;0.084061697;0.996460021
2024/05/03/13:28:11.673326;201238;1714768091;673057803;world;-0.000143353;-0.000155685;0.000147373;-0.000592352;-0.00083266;0.08545766;0.996341288
2024/05/03/13:28:11.693603;201239;1714768091;693241894;world;-0.000154104;-0.000171401;0.000108564;-0.000484335;-0.000720408;0.086762346;0.996228695
2024/05/03/13:28:11.713742;201240;1714768091;713422729;world;-0.000175655;-0.000202101;0.000104869;-0.000704041;-0.000910386;0.087994702;0.996120334
2024/05/03/13:28:11.723392;201241;1714768091;723099275;world;-0.000183895;-0.000198734;9.14E-05;-0.000709548;-0.000876606;0.089296103;0.996004522
2024/05/03/13:28:11.763749;201242;1714768091;762899271;world;-0.000232123;-0.000197695;6.69E-05;-0.000803859;-0.001024827;0.090651758;0.995881796
2024/05/03/13:28:11.763776;201243;1714768091;762937742;world;-0.000230696;-0.000177643;8.92E-05;-0.000767594;-0.001063579;0.091274314;0.995824933
2024/05/03/13:28:11.773557;201244;1714768091;773141494;world;-0.000221819;-0.000158735;9.95E-05;-0.000800975;-0.001107647;0.092548661;0.995707214
2024/05/03/13:28:11.783234;201245;1714768091;782954022;world;-0.000253722;-0.000157106;7.95E-05;-0.00077157;-0.000765127;0.093918599;0.995579302
2024/05/03/13:28:11.803333;201246;1714768091;802916586;world;-0.000279199;-0.000177375;7.41E-05;-0.00089907;-0.000866792;0.095180623;0.995459259
2024/05/03/13:28:11.813334;201247;1714768091;813047659;world;-0.000269677;-0.000171009;7.60E-05;-0.000876739;-0.000781381;0.09587989;0.995392203
2024/05/03/13:28:11.833150;201248;1714768091;832856260;world;-0.000295896;-0.000183123;8.78E-05;-0.001037154;-0.000747094;0.097214825;0.995262623
2024/05/03/13:28:11.864116;201249;1714768091;863658503;world;-0.000253547;-0.000173958;0.000128663;-0.001062338;-0.00066937;0.099244937;0.995062292
2024/05/03/13:28:11.864125;201250;1714768091;863703145;world;-0.000285849;-0.000187593;0.0001222;-0.001039979;-0.000676258;0.100602821;0.994925976
2024/05/03/13:28:11.883433;201251;1714768091;883099535;world;-0.000287518;-0.000195092;0.000115405;-0.001021582;-0.000584002;0.1018904;0.994794905
2024/05/03/13:28:11.893203;201252;1714768091;892953138;world;-0.000279292;-0.000197401;0.000145114;-0.001105289;-0.000613894;0.102534913;0.994728625
2024/05/03/13:28:11.913435;201253;1714768091;913114816;world;-0.000247162;-0.000189519;0.000149295;-0.001026373;-0.000576635;0.103927553;0.994584262
2024/05/03/13:28:11.923596;201254;1714768091;923237084;world;-0.000274587;-0.000184961;9.67E-05;-0.000990275;-0.000489706;0.105236493;0.994446635
2024/05/03/13:28:11.963838;201255;1714768091;963380878;world;-0.000202559;-0.000161873;0.00010163;-0.000819441;-0.000432621;0.106592745;0.994302392
2024/05/03/13:28:11.963868;201256;1714768091;963421152;world;-0.000182401;-0.000162283;0.00011057;-0.000796854;-0.000453805;0.107848138;0.99416697
2024/05/03/13:28:11.973408;201257;1714768091;973113790;world;-0.000182811;-0.000173792;0.000103979;-0.00076546;-0.000437317;0.108452573;0.994101226
2024/05/03/13:28:11.993223;201258;1714768091;992890362;world;-0.000212304;-0.000163088;9.78E-05;-0.000863488;-0.000576121;0.110380523;0.993888855
2024/05/03/13:28:12.013337;201259;1714768092;13075466;world;-0.000248123;-0.000164231;8.74E-05;-0.000913363;-0.000681548;0.111671276;0.993744552
2024/05/03/13:28:12.033374;201260;1714768092;33059497;world;-0.000247482;-0.000137134;8.29E-05;-0.001017331;-0.000662979;0.112418905;0.993660152
2024/05/03/13:28:12.033400;201261;1714768092;33096606;world;-0.000310984;-0.000174226;6.73E-05;-0.001163014;-0.000719961;0.113729179;0.993510902
2024/05/03/13:28:12.063672;201262;1714768092;63338271;world;-0.000365905;-0.000178885;5.08E-05;-0.00129949;-0.000813766;0.115034901;0.993360341
2024/05/03/13:28:12.063701;201263;1714768092;63375149;world;-0.000408489;-0.000208214;4.25E-05;-0.001397652;-0.000878714;0.116372265;0.993204355
2024/05/03/13:28:12.083292;201264;1714768092;82998723;world;-0.000413507;-0.000215957;4.20E-05;-0.001442195;-0.000844165;0.117073588;0.993121803
2024/05/03/13:28:12.093653;201265;1714768092;93326924;world;-0.000489712;-0.000227247;-5.10E-05;-0.001284095;-0.000990119;0.11839477;0.992965341
2024/05/03/13:28:12.113262;201266;1714768092;112959396;world;-0.000337034;-0.00018301;3.48E-05;-0.001309238;-0.000674009;0.119734935;0.992804825
2024/05/03/13:28:12.133476;201267;1714768092;133110181;world;-0.000345908;-0.000203593;6.02E-05;-0.001343515;-0.000811121;0.121116035;0.992637157
2024/05/03/13:28:12.163866;201268;1714768092;163359306;world;-0.000343189;-0.000158638;4.14E-05;-0.001287531;-0.000776947;0.122434698;0.99247545
2024/05/03/13:28:12.163889;201269;1714768092;163397927;world;-0.000297062;-0.000120492;3.79E-05;-0.001244422;-0.000894375;0.123898268;0.992293835
2024/05/03/13:28:12.173229;201270;1714768092;172865850;world;-0.000293214;-0.000120663;4.24E-05;-0.001440707;-0.000954568;0.125176281;0.992133081
2024/05/03/13:28:12.193392;201271;1714768092;193074586;world;-0.000256114;-0.000114183;4.52E-05;-0.001432776;-0.000936037;0.126465842;0.991969526
2024/05/03/13:28:12.203808;201272;1714768092;203395218;world;-0.000281271;-0.000125427;1.30E-05;-0.001416059;-0.000912052;0.127905607;0.99178493
2024/05/03/13:28:12.223349;201273;1714768092;223057338;world;-0.000246249;-0.000101284;5.70E-05;-0.001380898;-0.001006878;0.12856099;0.991700113
2024/05/03/13:28:12.233373;201274;1714768092;233076872;world;-0.000163592;-0.000101829;4.58E-05;-0.001097513;-0.000922041;0.12986365;0.991530895
2024/05/03/13:28:12.273865;201275;1714768092;273350039;world;-0.000207171;-0.000129933;2.49E-05;-0.001150837;-0.001066085;0.131186709;0.991356492
2024/05/03/13:28:12.273874;201276;1714768092;273385053;world;-0.000265229;-0.000148023;4.55E-06;-0.00124351;-0.00119214;0.132422954;0.991191804
2024/05/03/13:28:12.293267;201277;1714768092;292952118;world;-0.000267874;-0.000126055;1.35E-05;-0.001286164;-0.001247045;0.133742779;0.99101454
2024/05/03/13:28:12.303375;201278;1714768092;303078856;world;-0.000264589;-0.000124582;1.60E-05;-0.001324657;-0.001329475;0.134977296;0.990846932
2024/05/03/13:28:12.314361;201279;1714768092;313637080;world;-0.000240292;-0.000118378;3.57E-05;-0.001500544;-0.001321428;0.136333838;0.990660965
2024/05/03/13:28:12.333625;201280;1714768092;333273443;world;-0.000254761;-0.000133622;2.86E-05;-0.001573063;-0.001360153;0.136961371;0.990574181
2024/05/03/13:28:12.373459;201281;1714768092;373111031;world;-0.000281587;-0.000155028;3.38E-05;-0.001695932;-0.001427194;0.138257995;0.990393817
2024/05/03/13:28:12.373465;201282;1714768092;373160131;world;-0.000274997;-0.000195608;3.65E-05;-0.001702092;-0.001369529;0.139668554;0.99019593
2024/05/03/13:28:12.383315;201283;1714768092;382940012;world;-0.000337686;-0.000225613;6.64E-06;-0.001707218;-0.001347429;0.141070753;0.989997149
2024/05/03/13:28:12.393610;201284;1714768092;393278887;world;-0.000361159;-0.00021462;-9.54E-07;-0.001611972;-0.00125141;0.142469198;0.989797235
2024/05/03/13:28:12.413561;201285;1714768092;413214811;world;-0.000441443;-0.000249623;3.74E-05;-0.001864785;-0.00141374;0.143795043;0.989604712
2024/05/03/13:28:12.423624;201286;1714768092;423269585;world;-0.000462323;-0.000265857;-2.43E-05;-0.001648908;-0.001330868;0.145230889;0.989395559
2024/05/03/13:28:12.443682;201287;1714768092;443361205;world;-0.000420984;-0.000235498;4.40E-05;-0.001843738;-0.001553719;0.146628395;0.98918879
2024/05/03/13:28:12.473351;201288;1714768092;473004021;world;-0.000401538;-0.000236003;3.77E-05;-0.001789231;-0.001600803;0.147978723;0.988987625
2024/05/03/13:28:12.473374;201289;1714768092;473039707;world;-0.000419058;-0.000270633;4.71E-05;-0.001982392;-0.001681308;0.149304137;0.988787949
2024/05/03/13:28:12.493552;201290;1714768092;493265093;world;-0.00040644;-0.000273481;7.25E-05;-0.00208995;-0.001638165;0.149948895;0.988690197
2024/05/03/13:28:12.503205;201291;1714768092;502926826;world;-0.000395518;-0.000281809;5.29E-05;-0.00207097;-0.001624958;0.151264623;0.988489807
2024/05/03/13:28:12.523624;201292;1714768092;523270723;world;-0.000411127;-0.000301024;3.51E-05;-0.002219668;-0.001674475;0.152573913;0.988288224
2024/05/03/13:28:12.543669;201293;1714768092;543398292;world;-0.000421587;-0.000267716;5.56E-05;-0.002129624;-0.00167594;0.153921306;0.988079369
2024/05/03/13:28:12.553423;201294;1714768092;553086830;world;-0.000387799;-0.000231048;3.75E-05;-0.00218508;-0.001606225;0.155314803;0.987861276
2024/05/03/13:28:12.573409;201295;1714768092;572968510;world;-0.000384089;-0.000229876;3.26E-05;-0.002102507;-0.001634178;0.156644136;0.987651587
2024/05/03/13:28:12.583726;201296;1714768092;583415839;world;-0.000424057;-0.00022147;1.76E-05;-0.002094465;-0.001595962;0.157296941;0.987547874
2024/05/03/13:28:12.593287;201297;1714768092;592995837;world;-0.00039199;-0.000196479;5.16E-05;-0.001976342;-0.001525839;0.158588842;0.987341583
2024/05/03/13:28:12.613282;201298;1714768092;612994869;world;-0.000360437;-0.000169289;7.24E-05;-0.001856262;-0.001451515;0.159973264;0.987118602
2024/05/03/13:28:12.633956;201299;1714768092;633338506;world;-0.000325955;-0.000133572;8.01E-05;-0.001771281;-0.001423309;0.161381617;0.986889482
2024/05/03/13:28:12.643540;201300;1714768092;643262586;world;-0.000390213;-0.000166745;7.93E-05;-0.001718051;-0.00146695;0.162710935;0.986671269
2024/05/03/13:28:12.673336;201301;1714768092;673013594;world;-0.000426564;-0.000178749;6.80E-05;-0.001784694;-0.001484665;0.164137095;0.986434817
2024/05/03/13:28:12.673362;201302;1714768092;673058897;world;-0.000450149;-0.000194077;5.44E-05;-0.001821188;-0.00149779;0.165453419;0.986214817
2024/05/03/13:28:12.693466;201303;1714768092;693163002;world;-0.000421312;-0.000180679;3.07E-05;-0.00157654;-0.001404769;0.166785255;0.985990942
2024/05/03/13:28:12.703463;201304;1714768092;703162653;world;-0.000444531;-0.000184557;3.01E-05;-0.001629224;-0.001443808;0.167396277;0.985887349
2024/05/03/13:28:12.723695;201305;1714768092;723349511;world;-0.000426777;-0.000172319;2.42E-05;-0.001569846;-0.001412187;0.168652877;0.985673308
2024/05/03/13:28:12.743689;201306;1714768092;743333153;world;-0.000451297;-0.000202941;5.66E-05;-0.001796563;-0.001629976;0.169869304;0.985463679
2024/05/03/13:28:12.753505;201307;1714768092;753224195;world;-0.000477422;-0.000224484;3.74E-05;-0.001909278;-0.001686753;0.171204686;0.985232234
2024/05/03/13:28:12.773542;201308;1714768092;773237144;world;-0.000372127;-0.000206896;7.23E-05;-0.00179544;-0.001558378;0.172501653;0.985006392
2024/05/03/13:28:12.783444;201309;1714768092;783148568;world;-0.000436787;-0.000228978;5.99E-05;-0.001955316;-0.001706756;0.173769996;0.984782875
2024/05/03/13:28:12.803189;201310;1714768092;802967795;world;-0.000426769;-0.000252007;6.28E-05;-0.002049755;-0.001765588;0.175043464;0.984557033
2024/05/03/13:28:12.823750;201311;1714768092;823453619;world;-0.000459686;-0.000287035;5.86E-05;-0.002114231;-0.001882415;0.17621246;0.984348059
2024/05/03/13:28:12.833837;201312;1714768092;833164439;world;-0.000487652;-0.000300144;4.30E-05;-0.002154311;-0.001923151;0.177496791;0.98411721
2024/05/03/13:28:12.853155;201313;1714768092;852932919;world;-0.000477407;-0.00027458;4.58E-05;-0.002161009;-0.001952062;0.178204805;0.983989179
2024/05/03/13:28:12.883509;201314;1714768092;883144343;world;-0.000445828;-0.000265461;5.15E-05;-0.001969506;-0.001935066;0.179444879;0.983764172
2024/05/03/13:28:12.883531;201315;1714768092;883177765;world;-0.000480007;-0.00024236;3.53E-05;-0.00196578;-0.001981428;0.180811584;0.983513832
2024/05/03/13:28:12.893185;201316;1714768092;892938967;world;-0.000435133;-0.000202234;4.13E-05;-0.00185237;-0.001951615;0.182238847;0.983250678
2024/05/03/13:28:12.913544;201317;1714768092;913269049;world;-0.000304647;-0.000115199;8.42E-05;-0.001297527;-0.001636461;0.183630124;0.982993245
2024/05/03/13:28:12.923260;201318;1714768092;922885796;world;-0.000282712;-0.000116982;0.000107847;-0.001248186;-0.001500326;0.184879795;0.982759237
2024/05/03/13:28:12.953154;201319;1714768092;952863481;world;-0.000281438;-0.00012676;9.61E-05;-0.00121487;-0.001421094;0.186180204;0.982513845
2024/05/03/13:28:12.953175;201320;1714768092;952900690;world;-0.000291478;-0.000141993;0.000104063;-0.001340417;-0.001673669;0.187438428;0.982273996
2024/05/03/13:28:12.993223;201321;1714768092;992923727;world;-0.00039028;-0.000237684;5.82E-05;-0.001786828;-0.00179159;0.188678771;0.982035697
2024/05/03/13:28:12.993261;201322;1714768092;992957269;world;-0.000405453;-0.000241389;5.11E-05;-0.001955365;-0.001802274;0.189998135;0.981780887
2024/05/03/13:28:13.003868;201323;1714768093;3217964;world;-0.000406411;-0.000233807;5.42E-05;-0.002020969;-0.001817054;0.190698311;0.981644988
2024/05/03/13:28:13.023293;201324;1714768093;22905306;world;-0.000433668;-0.000247194;4.09E-05;-0.002148861;-0.001865185;0.192026526;0.981385589
2024/05/03/13:28:13.033634;201325;1714768093;33218627;world;-0.000425849;-0.000250108;2.36E-05;-0.0020515;-0.001786954;0.193291202;0.981137633
2024/05/03/13:28:13.064056;201326;1714768093;63324438;world;-0.000441864;-0.000233654;2.63E-05;-0.002047496;-0.001972028;0.194608182;0.980876982
2024/05/03/13:28:13.083407;201327;1714768093;83163121;world;-0.000468932;-0.000247592;3.03E-05;-0.002058341;-0.002128832;0.19584395;0.980630696
2024/05/03/13:28:13.083436;201328;1714768093;83195711;world;-0.000379708;-0.000185483;4.05E-05;-0.001807975;-0.001860629;0.196659088;0.980468512
2024/05/03/13:28:13.093377;201329;1714768093;93111613;world;-0.000441678;-0.000163113;4.38E-06;-0.002049163;-0.002092657;0.198703527;0.980055332
2024/05/03/13:28:13.113378;201330;1714768093;113128278;world;-0.000442371;-0.000159739;1.21E-05;-0.002021522;-0.002130027;0.199337229;0.979926527
2024/05/03/13:28:13.133228;201331;1714768093;132910132;world;-0.00048209;-0.000197709;-1.31E-06;-0.002039311;-0.002152964;0.200603262;0.979668081
2024/05/03/13:28:13.143395;201332;1714768093;143181461;world;-0.000487301;-0.000206102;6.82E-06;-0.001961126;-0.002169841;0.201920688;0.979397595
2024/05/03/13:28:13.163299;201333;1714768093;163034305;world;-0.000490014;-0.000207255;-1.31E-05;-0.001848277;-0.00214578;0.203306451;0.979111135
2024/05/03/13:28:13.183261;201334;1714768093;183007009;world;-0.000512227;-0.000251163;3.12E-05;-0.001967312;-0.002270634;0.204640061;0.978832722
2024/05/03/13:28:13.193495;201335;1714768093;193236856;world;-0.000539832;-0.000309085;1.08E-06;-0.002030841;-0.002338482;0.20588167;0.978572011
2024/05/03/13:28:13.203236;201336;1714768093;203010260;world;-0.000524368;-0.000303239;1.90E-06;-0.001964043;-0.00227877;0.206550524;0.978431404
2024/05/03/13:28:13.223137;201337;1714768093;222852454;world;-0.000518467;-0.000336366;-3.89E-06;-0.002019996;-0.002357395;0.207936168;0.978137493
2024/05/03/13:28:13.244084;201338;1714768093;243786718;world;-0.000398263;-0.000242954;5.73E-05;-0.00169867;-0.001885321;0.209312066;0.977845609
2024/05/03/13:28:13.263213;201339;1714768093;262958056;world;-0.000389196;-0.000264145;5.11E-05;-0.001844841;-0.001948096;0.210706457;0.977545679
2024/05/03/13:28:13.273385;201340;1714768093;273118349;world;-0.000356324;-0.000234453;6.15E-05;-0.001699701;-0.001904829;0.2120184;0.977262378
2024/05/03/13:28:13.283804;201341;1714768093;283460687;world;-0.000424851;-0.000260883;3.25E-05;-0.001828876;-0.001841829;0.21337916;0.976966083
2024/05/03/13:28:13.303542;201342;1714768093;303205822;world;-0.000417367;-0.000256394;4.96E-05;-0.001906825;-0.001990621;0.214723423;0.97667104
2024/05/03/13:28:13.313413;201343;1714768093;313121839;world;-0.000411637;-0.000218649;4.67E-05;-0.001815479;-0.001953983;0.216083422;0.976371288
2024/05/03/13:28:13.333476;201344;1714768093;333129980;world;-0.000412222;-0.000211053;5.28E-05;-0.001721322;-0.001888974;0.217409045;0.976077259
2024/05/03/13:28:13.363664;201345;1714768093;363201928;world;-0.000401128;-0.000161531;2.76E-05;-0.001762467;-0.002037499;0.218826234;0.975760162
2024/05/03/13:28:13.363689;201346;1714768093;363236442;world;-0.000395473;-0.000159603;2.50E-05;-0.001727139;-0.002020911;0.220091239;0.975475669
2024/05/03/13:28:13.403363;201347;1714768093;402966062;world;-0.000406474;-0.000166637;1.32E-05;-0.001726293;-0.002027337;0.220768437;0.975322664
2024/05/03/13:28:13.403389;201349;1714768093;403020412;world;-0.000351623;-0.000126635;1.76E-05;-0.001380286;-0.001799442;0.223417833;0.97472012
2024/05/03/13:28:13.433177;201350;1714768093;432885139;world;-0.000410862;-0.000188265;-1.18E-05;-0.001599471;-0.001839481;0.224791378;0.974403918
2024/05/03/13:28:13.443469;201351;1714768093;443174585;world;-0.000419024;-0.000198472;-1.61E-05;-0.001519504;-0.001816255;0.22612305;0.974095881
2024/05/03/13:28:13.463522;201352;1714768093;463155754;world;-0.000458978;-0.00025301;-3.69E-05;-0.001740468;-0.001884058;0.227439031;0.973789036
2024/05/03/13:28:13.493609;201353;1714768093;493017287;world;-0.000504941;-0.000289617;-3.35E-05;-0.002000553;-0.001923042;0.228696853;0.973493814
2024/05/03/13:28:13.503615;201354;1714768093;503222407;world;-0.000486538;-0.000302851;-1.37E-05;-0.001983194;-0.001959799;0.229908228;0.973208308
2024/05/03/13:28:13.503637;201355;1714768093;503250960;world;-0.000480209;-0.000299185;-1.82E-05;-0.001946029;-0.001960377;0.231194541;0.972903669
2024/05/03/13:28:13.523408;201356;1714768093;523090957;world;-0.000486407;-0.00026784;-1.28E-05;-0.002088133;-0.001973351;0.231932983;0.972727597
2024/05/03/13:28:13.543452;201357;1714768093;543175309;world;-0.000474073;-0.000190267;-1.23E-05;-0.001838944;-0.001881701;0.233262524;0.972410262
2024/05/03/13:28:13.553352;201358;1714768093;552867200;world;-0.000429604;-0.000139753;2.30E-06;-0.001638339;-0.001862641;0.234538049;0.972103775
2024/05/03/13:28:13.563419;201359;1714768093;563164833;world;-0.000389632;-0.000118725;9.58E-06;-0.001503168;-0.001923375;0.235848561;0.971786737
2024/05/03/13:28:13.603745;201360;1714768093;603344073;world;-0.000397969;-0.000127154;1.64E-05;-0.001513134;-0.001965076;0.236485153;0.971632004
2024/05/03/13:28:13.603770;201361;1714768093;603385550;world;-0.000405464;-0.000177418;1.32E-05;-0.001528532;-0.001917931;0.237763688;0.971319914
2024/05/03/13:28:13.613517;201362;1714768093;613191004;world;-0.000389095;-0.00018512;2.11E-05;-0.001469486;-0.002084764;0.239025608;0.97100991
2024/05/03/13:28:13.623275;201363;1714768093;622941222;world;-0.000413042;-0.000219795;2.78E-05;-0.001556177;-0.002212776;0.240260378;0.970704734
2024/05/03/13:28:13.643230;201364;1714768093;642956921;world;-0.00044468;-0.000309655;3.61E-05;-0.001817261;-0.002515012;0.241506502;0.970394254
2024/05/03/13:28:13.673729;201365;1714768093;673313064;world;-0.000490677;-0.000364744;2.32E-05;-0.001988576;-0.002576124;0.242773011;0.970077693
2024/05/03/13:28:13.673755;201366;1714768093;673365590;world;-0.000464167;-0.000343494;2.37E-05;-0.001863217;-0.002591653;0.244062886;0.969754159
2024/05/03/13:28:13.713748;201367;1714768093;713081856;world;-0.000486594;-0.000377533;1.52E-05;-0.001874148;-0.002640933;0.244673133;0.96960026
2024/05/03/13:28:13.713856;201368;1714768093;713119024;world;-0.00051067;-0.000432524;4.55E-05;-0.001799039;-0.002514698;0.245913804;0.96928674
2024/05/03/13:28:13.723562;201369;1714768093;723256618;world;-0.000518754;-0.000465551;2.30E-05;-0.001875816;-0.002623951;0.247225821;0.968952537
2024/05/03/13:28:13.733568;201370;1714768093;733315260;world;-0.000499766;-0.000471503;3.99E-05;-0.001719126;-0.002584849;0.248521343;0.968621492
2024/05/03/13:28:13.753547;201371;1714768093;753283695;world;-0.000508994;-0.000487895;4.37E-05;-0.001773276;-0.002686459;0.249825582;0.968285501
2024/05/03/13:28:13.773257;201372;1714768093;772927978;world;-0.000516526;-0.000450868;5.23E-05;-0.00168199;-0.002611483;0.251202106;0.967929661
2024/05/03/13:28:13.793268;201373;1714768093;793007870;world;-0.000536803;-0.00044685;3.85E-05;-0.001617808;-0.002701574;0.252452374;0.96760422
2024/05/03/13:28:13.803402;201374;1714768093;803036897;world;-0.000522692;-0.000438694;5.11E-05;-0.001698619;-0.002791962;0.253750622;0.967264175
2024/05/03/13:28:13.813328;201375;1714768093;813131792;world;-0.000547059;-0.000421914;2.61E-05;-0.00188848;-0.002699469;0.255063355;0.966918766
2024/05/03/13:28:13.833240;201376;1714768093;832927284;world;-0.000536691;-0.000425998;3.15E-05;-0.001865463;-0.00267885;0.255694598;0.966752172
2024/05/03/13:28:13.843230;201377;1714768093;842959444;world;-0.000495076;-0.00040592;7.26E-05;-0.001755407;-0.002729112;0.256928355;0.966425061
2024/05/03/13:28:13.873263;201378;1714768093;872989094;world;-0.000492983;-0.00037127;2.32E-05;-0.001802503;-0.002866791;0.258195102;0.966086924
2024/05/03/13:28:13.873291;201379;1714768093;873025451;world;-0.000488508;-0.000371317;4.39E-05;-0.001881791;-0.003217033;0.259462506;0.965746045
2024/05/03/13:28:13.913472;201380;1714768093;913177901;world;-0.000522427;-0.00040614;1.50E-05;-0.00177428;-0.003227408;0.260696948;0.96541369
2024/05/03/13:28:13.913496;201381;1714768093;913212384;world;-0.000565168;-0.000430779;-1.35E-05;-0.00192009;-0.00312033;0.262089163;0.96503675
2024/05/03/13:28:13.923589;201382;1714768093;923281052;world;-0.000557184;-0.000425709;1.15E-05;-0.001827604;-0.003138994;0.263440728;0.964668751
2024/05/03/13:28:13.943517;201383;1714768093;943251891;world;-0.00053231;-0.000418123;3.08E-05;-0.001909879;-0.002977654;0.2647973;0.964297593
2024/05/03/13:28:13.963618;201384;1714768093;963360487;world;-0.000529576;-0.000354497;3.31E-05;-0.001905551;-0.002882156;0.266188562;0.963914871
2024/05/03/13:28:13.973663;201385;1714768093;973214832;world;-0.000512794;-0.000328951;5.85E-05;-0.001845216;-0.002861989;0.266913563;0.96371454
2024/05/03/13:28:14.003740;201386;1714768094;2934683;world;-0.000489425;-0.000276561;4.76E-05;-0.001822766;-0.002752533;0.26828748;0.963333309
2024/05/03/13:28:14.013410;201387;1714768094;13137675;world;-0.000502504;-0.000271606;6.06E-05;-0.001823006;-0.002695544;0.270145178;0.962814152
2024/05/03/13:28:14.023520;201388;1714768094;23175550;world;-0.000484735;-0.000293618;7.61E-05;-0.001816932;-0.002639976;0.270745248;0.962645769
2024/05/03/13:28:14.033178;201389;1714768094;32898992;world;-0.000574246;-0.000384623;3.59E-05;-0.001933505;-0.00287496;0.271938741;0.962308288
2024/05/03/13:28:14.053568;201390;1714768094;53056751;world;-0.000601757;-0.00040933;3.39E-05;-0.001940353;-0.002977264;0.273137927;0.961968303
2024/05/03/13:28:14.083553;201391;1714768094;83267095;world;-0.000624206;-0.000455213;1.33E-05;-0.002071508;-0.003010926;0.274427921;0.96160078
2024/05/03/13:28:14.083574;201392;1714768094;83301428;world;-0.000612721;-0.000459849;1.49E-05;-0.002065106;-0.003105957;0.275712013;0.961233079
2024/05/03/13:28:14.093424;201393;1714768094;93120319;world;-0.000617661;-0.000461149;5.95E-07;-0.00205963;-0.003108657;0.276346773;0.961050808
2024/05/03/13:28:14.113617;201394;1714768094;113351059;world;-0.000638429;-0.000493785;-1.41E-05;-0.002190758;-0.003230248;0.277586341;0.960692763
2024/05/03/13:28:14.133721;201395;1714768094;133262981;world;-0.000649367;-0.000485012;-2.79E-05;-0.002132458;-0.00332865;0.279441714;0.960154533
2024/05/03/13:28:14.143630;201396;1714768094;143345126;world;-0.000644878;-0.000507839;-2.71E-05;-0.00223359;-0.003362569;0.280090004;0.959965348
2024/05/03/13:28:14.163543;201397;1714768094;163261549;world;-0.000624988;-0.000502142;-1.76E-05;-0.002161442;-0.003252099;0.281976223;0.959413528
2024/05/03/13:28:14.183617;201398;1714768094;183307646;world;-0.000650093;-0.000499675;-5.21E-06;-0.002194067;-0.003373639;0.282631516;0.959220111
2024/05/03/13:28:14.203469;201399;1714768094;203249306;world;-0.000657916;-0.000459996;1.38E-05;-0.002149294;-0.003336021;0.283959299;0.958828151
2024/05/03/13:28:14.203493;201400;1714768094;203282016;world;-0.000657719;-0.000510069;-3.66E-05;-0.002427224;-0.003424011;0.285287261;0.958432853
2024/05/03/13:28:14.223617;201401;1714768094;222911678;world;-0.00065957;-0.000530615;-3.77E-05;-0.002532122;-0.003453352;0.28595072;0.958234727
2024/05/03/13:28:14.243224;201402;1714768094;242963962;world;-0.000672519;-0.000536095;-3.68E-05;-0.002461606;-0.003436053;0.287252605;0.957845509
2024/05/03/13:28:14.253268;201403;1714768094;252959897;world;-0.000708606;-0.000535118;-4.69E-05;-0.00239673;-0.003445962;0.288625121;0.957433045
2024/05/03/13:28:14.273164;201404;1714768094;272888883;world;-0.000668697;-0.000507915;-2.67E-05;-0.00232276;-0.003375346;0.289982051;0.957023323
2024/05/03/13:28:14.283144;201405;1714768094;282917250;world;-0.000657059;-0.000515806;-2.21E-05;-0.002321275;-0.00343864;0.291216165;0.95664829
2024/05/03/13:28:14.333645;201406;1714768094;333230850;world;-0.000640459;-0.00053868;-3.03E-05;-0.002402465;-0.003464127;0.292529315;0.95624733
2024/05/03/13:28:14.333670;201408;1714768094;333274110;world;-0.000649557;-0.000485786;-4.24E-05;-0.002345616;-0.003317321;0.294473857;0.955650926
2024/05/03/13:28:14.343443;201409;1714768094;343170843;world;-0.000631537;-0.000503344;-4.38E-05;-0.00238067;-0.003293946;0.295694739;0.955273807
2024/05/03/13:28:14.363185;201410;1714768094;362923962;world;-0.000615001;-0.000481961;-1.96E-05;-0.002284729;-0.003271374;0.296936244;0.954888999
2024/05/03/13:28:14.383145;201411;1714768094;382898722;world;-0.000626735;-0.000467505;-3.10E-05;-0.002331845;-0.003182876;0.298193932;0.954497159
2024/05/03/13:28:14.393220;201412;1714768094;392931835;world;-0.000651229;-0.000486486;-5.29E-05;-0.002297528;-0.003290578;0.299399883;0.954119265
2024/05/03/13:28:14.413575;201413;1714768094;413177543;world;-0.000650521;-0.000472006;-7.89E-05;-0.002331088;-0.003213231;0.300768495;0.953688979
2024/05/03/13:28:14.423157;201414;1714768094;422892021;world;-0.000643153;-0.000442697;-7.62E-05;-0.002229331;-0.003107236;0.302121192;0.953261852
2024/05/03/13:28:14.443316;201415;1714768094;442901782;world;-0.000672355;-0.000483735;-7.58E-05;-0.002477064;-0.003287418;0.303449601;0.9528386
2024/05/03/13:28:14.463415;201416;1714768094;463063016;world;-0.000665493;-0.000473977;-8.91E-05;-0.002733226;-0.003175641;0.304862171;0.952387273
2024/05/03/13:28:14.473656;201417;1714768094;473367820;world;-0.000679825;-0.000476835;-9.86E-05;-0.002696529;-0.003217666;0.305498034;0.952183485
2024/05/03/13:28:14.483258;201418;1714768094;482997420;world;-0.000680808;-0.000515419;-0.000112707;-0.002766674;-0.003295616;0.306879371;0.951738715
2024/05/03/13:28:14.523632;201419;1714768094;523327576;world;-0.000677351;-0.000547627;-0.000112954;-0.002894734;-0.003399716;0.308194846;0.95131284
2024/05/03/13:28:14.523661;201420;1714768094;523367329;world;-0.000683792;-0.000547267;-0.000117596;-0.002880039;-0.003420073;0.309530973;0.950878918
2024/05/03/13:28:14.533559;201421;1714768094;533295970;world;-0.00065184;-0.000543066;-0.000132794;-0.002816891;-0.003347681;0.310842425;0.950451374
2024/05/03/13:28:14.553361;201422;1714768094;553097833;world;-0.000635188;-0.000567225;-0.000105372;-0.002798341;-0.003445203;0.312059909;0.950052023
2024/05/03/13:28:14.564832;201423;1714768094;563817409;world;-0.000684474;-0.000533649;-8.90E-05;-0.0029157;-0.00342407;0.313493699;0.949579597
2024/05/03/13:28:14.593193;201424;1714768094;592891221;world;-0.000682794;-0.000520844;-7.97E-05;-0.00294692;-0.003466352;0.31463027;0.949203432
2024/05/03/13:28:14.593221;201425;1714768094;592925093;world;-0.000670213;-0.000508564;-7.32E-05;-0.002992791;-0.003512056;0.315828711;0.948804975
2024/05/03/13:28:14.613278;201426;1714768094;612983866;world;-0.000688251;-0.000516769;-8.49E-05;-0.002957832;-0.003533683;0.316973746;0.948423207
2024/05/03/13:28:14.633569;201427;1714768094;633171439;world;-0.00071663;-0.000533607;-8.69E-05;-0.003066452;-0.003573216;0.318232298;0.948001146
2024/05/03/13:28:14.643427;201428;1714768094;643142638;world;-0.000702232;-0.000500846;-7.55E-05;-0.003019355;-0.003581121;0.318886161;0.947781444
2024/05/03/13:28:14.663234;201429;1714768094;662967427;world;-0.000708196;-0.000474319;-8.01E-05;-0.003000495;-0.003592008;0.320201516;0.947337925
2024/05/03/13:28:14.673285;201430;1714768094;672995526;world;-0.000695724;-0.000487434;-6.74E-05;-0.0029876;-0.003613626;0.321452141;0.946914196
2024/05/03/13:28:14.693374;201431;1714768094;693075269;world;-0.000743028;-0.000513019;-5.94E-05;-0.003074751;-0.003667134;0.322693497;0.94649148
2024/05/03/13:28:14.723695;201432;1714768094;723224212;world;-0.00074175;-0.00049027;-6.27E-05;-0.003009316;-0.00366458;0.323254347;0.946300209
2024/05/03/13:28:14.723701;201433;1714768094;723264145;world;-0.000699222;-0.000484124;-6.96E-05;-0.003012397;-0.003675983;0.324567556;0.945850611
2024/05/03/13:28:14.743267;201434;1714768094;742970029;world;-0.000705127;-0.000510855;-9.38E-05;-0.003076507;-0.003650859;0.325915933;0.945386708
2024/05/03/13:28:14.753599;201435;1714768094;753308546;world;-0.000691283;-0.000510256;-7.68E-05;-0.002998434;-0.003641652;0.327163875;0.944955826
2024/05/03/13:28:14.763802;201436;1714768094;763265235;world;-0.000687208;-0.000551938;-7.19E-05;-0.003017603;-0.003679957;0.328371108;0.944536805
2024/05/03/13:28:14.793221;201437;1714768094;792892969;world;-0.000641208;-0.000553878;-5.97E-05;-0.003003909;-0.003402229;0.329684079;0.944080472
2024/05/03/13:28:14.803259;201438;1714768094;802991936;world;-0.000636652;-0.000558637;-7.52E-05;-0.002979837;-0.003464164;0.33090204;0.94365406
2024/05/03/13:28:14.823517;201439;1714768094;823260883;world;-0.000642344;-0.000545707;-0.000105617;-0.002981721;-0.003357134;0.332165003;0.943210661
2024/05/03/13:28:14.833328;201440;1714768094;833044181;world;-0.000631377;-0.000531751;-0.000103103;-0.002897135;-0.003354297;0.332769871;0.942997634
2024/05/03/13:28:14.843225;201441;1714768094;842927509;world;-0.000612319;-0.000516654;-8.70E-05;-0.002913508;-0.003409351;0.333981276;0.942569137
2024/05/03/13:28:14.863743;201442;1714768094;862966648;world;-0.000636805;-0.000520557;-0.000115481;-0.002900689;-0.003385788;0.335224241;0.942127824
2024/05/03/13:28:14.873327;201443;1714768094;873036826;world;-0.000612479;-0.000447539;-9.77E-05;-0.002856237;-0.003408498;0.33649689;0.941674113
2024/05/03/13:28:14.893557;201444;1714768094;893116183;world;-0.000614122;-0.000407424;-8.83E-05;-0.002722473;-0.003537116;0.337665081;0.941255808
2024/05/03/13:28:14.933197;201445;1714768094;932900049;world;-0.000605665;-0.000410201;-8.65E-05;-0.002807843;-0.003591873;0.338921487;0.940803647
2024/05/03/13:28:14.933221;201446;1714768094;932940413;world;-0.000615969;-0.000462704;-9.12E-05;-0.00288966;-0.003636062;0.340209961;0.940338016
2024/05/03/13:28:14.943412;201447;1714768094;942944401;world;-0.00058876;-0.000445909;-6.58E-05;-0.002957687;-0.003528059;0.341520965;0.939862907
2024/05/03/13:28:14.953170;201448;1714768094;952917515;world;-0.000573207;-0.000470322;-6.85E-05;-0.003079698;-0.003296491;0.34279713;0.939398646
2024/05/03/13:28:14.973435;201449;1714768094;972997549;world;-0.000567529;-0.000457825;-7.19E-05;-0.003073594;-0.00332663;0.343398213;0.939179003
2024/05/03/13:28:15.003531;201450;1714768095;3251346;world;-0.000593901;-0.000471538;-0.000106587;-0.003118214;-0.003286084;0.344732225;0.938690126
2024/05/03/13:28:15.003539;201451;1714768095;3287172;world;-0.000585429;-0.000461848;-9.96E-05;-0.00317009;-0.003412671;0.345928907;0.938249171
2024/05/03/13:28:15.023461;201452;1714768095;23162909;world;-0.000564206;-0.000487402;-5.67E-05;-0.003420356;-0.003491529;0.347210646;0.93777442
2024/05/03/13:28:15.033458;201453;1714768095;32985140;world;-0.000580683;-0.000508409;-5.53E-05;-0.003427324;-0.003466645;0.348443151;0.937317252
2024/05/03/13:28:15.053588;201454;1714768095;53293888;world;-0.000560723;-0.000471729;-4.99E-05;-0.003247496;-0.003420762;0.349623978;0.936878324
2024/05/03/13:28:15.063285;201455;1714768095;63064147;world;-0.000564799;-0.000433992;-5.64E-05;-0.003147982;-0.003319829;0.350889534;0.936405718
2024/05/03/13:28:15.083594;201456;1714768095;83326478;world;-0.000568878;-0.00044177;-4.67E-05;-0.003095461;-0.003361914;0.35147506;0.936186075
2024/05/03/13:28:15.103268;201457;1714768095;102975837;world;-0.00056117;-0.000428992;-4.86E-05;-0.003035698;-0.00330143;0.352729082;0.935714781
2024/05/03/13:28:15.143556;201458;1714768095;143198348;world;-0.000561368;-0.000467939;-6.27E-05;-0.003051575;-0.003304088;0.353962868;0.935248673
2024/05/03/13:28:15.143583;201460;1714768095;143242459;world;-0.000551756;-0.00050276;-8.10E-05;-0.003008252;-0.00328867;0.356328696;0.934350073
2024/05/03/13:28:15.167214;201461;1714768095;166979828;world;-0.000568114;-0.00053604;-0.000105044;-0.00306912;-0.003443221;0.357624829;0.933853924
2024/05/03/13:28:15.173671;201462;1714768095;173347973;world;-0.000569213;-0.000533077;-0.000108752;-0.003059027;-0.003398573;0.358882159;0.933371663
2024/05/03/13:28:15.193637;201463;1714768095;193345842;world;-0.000562824;-0.000551146;-0.000110023;-0.002995903;-0.00345583;0.359486729;0.933139026
2024/05/03/13:28:15.203501;201464;1714768095;203201834;world;-0.000561576;-0.000555477;-0.000100031;-0.002970419;-0.003469483;0.360700428;0.932670593
2024/05/03/13:28:15.233218;201465;1714768095;232831622;world;-0.000598446;-0.000537715;-0.000105085;-0.003005613;-0.003420974;0.362023562;0.932157874
2024/05/03/13:28:15.243865;201466;1714768095;243162331;world;-0.0005977;-0.000526783;-0.000114907;-0.002881378;-0.003345987;0.363227576;0.931690037
2024/05/03/13:28:15.253195;201467;1714768095;252914252;world;-0.00059434;-0.000505706;-0.000120804;-0.002853478;-0.003305092;0.364446998;0.931213915
2024/05/03/13:28:15.263386;201468;1714768095;263103283;world;-0.000586033;-0.000491925;-0.000103778;-0.002931098;-0.00332309;0.365635872;0.930747449
2024/05/03/13:28:15.283373;201469;1714768095;283021874;world;-0.000609111;-0.000489147;-9.21E-05;-0.00288582;-0.003327375;0.366859436;0.930265963
2024/05/03/13:28:15.303781;201470;1714768095;303439535;world;-0.000614703;-0.000493272;-0.000108841;-0.003064552;-0.003270978;0.368164539;0.929749906
2024/05/03/13:28:15.313415;201471;1714768095;313107666;world;-0.00061344;-0.000436087;-0.000113748;-0.003043625;-0.00340471;0.368707597;0.929534256
2024/05/03/13:28:15.333663;201472;1714768095;333074562;world;-0.000612117;-0.000426594;-0.000118581;-0.003113568;-0.003501306;0.369958878;0.929036319
