time;.header.seq;.header.stamp.secs;.header.stamp.nsecs;.header.frame_id;.pose.position.x;.pose.position.y;.pose.position.z;.pose.orientation.x;.pose.orientation.y;.pose.orientation.z;.pose.orientation.w
2024/05/03/13:16:16.723539;155488;1714767376;723152296;world;-1.46E-05;-2.77E-05;-5.78E-07;8.77E-05;-1.29E-05;2.46E-05;-1
2024/05/03/13:16:16.743552;155489;1714767376;743067570;world;-2.37E-05;-1.23E-05;4.60E-06;6.90E-05;1.29E-05;1.58E-05;-1
2024/05/03/13:16:16.753314;155490;1714767376;752974110;world;-6.74E-06;-3.36E-05;8.85E-06;3.49E-05;-2.90E-05;1.49E-05;-1
2024/05/03/13:16:16.795009;155491;1714767376;793283512;world;-5.44E-06;-4.33E-05;-5.62E-06;0.000168009;-5.69E-05;5.54E-05;-1
2024/05/03/13:16:16.795045;155492;1714767376;793453470;world;-2.62E-05;-2.05E-05;-1.36E-05;4.96E-05;-2.94E-05;1.34E-05;-1
2024/05/03/13:16:16.803418;155493;1714767376;803180613;world;-1.25E-05;-3.02E-05;-3.73E-06;7.19E-05;-4.46E-05;4.78E-05;-1
2024/05/03/13:16:16.813231;155494;1714767376;812876858;world;-1.68E-05;-2.42E-05;1.69E-05;5.84E-05;-1.84E-05;2.13E-05;-1
2024/05/03/13:16:16.833674;155495;1714767376;833237735;world;-1.67E-05;-2.23E-05;-1.15E-05;0.000100705;-6.48E-05;3.49E-05;-1
2024/05/03/13:16:16.863569;155496;1714767376;863276212;world;-8.69E-06;-3.26E-05;-1.56E-06;4.76E-06;-3.38E-05;1.01E-05;-1
2024/05/03/13:16:16.863596;155497;1714767376;863313993;world;-1.35E-05;-2.88E-05;5.23E-06;5.41E-05;-2.90E-05;3.66E-06;-1
2024/05/03/13:16:16.893313;155498;1714767376;893045406;world;-2.04E-05;-1.93E-05;9.77E-06;6.74E-05;-1.84E-05;-3.25E-06;-1
2024/05/03/13:16:16.893341;155499;1714767376;893083778;world;-9.69E-06;-2.41E-05;2.98E-06;0.000103202;1.32E-05;1.65E-05;-1
2024/05/03/13:16:16.913559;155500;1714767376;913273844;world;-1.59E-05;-2.35E-05;-5.08E-06;8.44E-05;-1.96E-05;5.13E-05;-1
2024/05/03/13:16:16.933501;155501;1714767376;933193834;world;-9.83E-06;-2.94E-05;7.00E-06;5.34E-05;-1.80E-05;2.70E-05;-1
2024/05/03/13:16:16.943686;155502;1714767376;943269170;world;-9.91E-06;-1.84E-05;1.07E-05;3.17E-05;-2.08E-05;9.62E-06;-1
2024/05/03/13:16:16.963641;155503;1714767376;963363098;world;-2.17E-05;-1.13E-05;2.67E-06;2.73E-05;1.15E-05;1.80E-05;-1
2024/05/03/13:16:16.973611;155504;1714767376;973289129;world;-1.10E-05;-2.54E-05;2.50E-06;5.27E-05;-4.41E-06;3.63E-05;-1
2024/05/03/13:16:16.993545;155505;1714767376;993218647;world;-2.15E-05;-3.83E-05;-1.86E-06;4.86E-05;-5.39E-05;3.47E-05;-1
2024/05/03/13:16:17.003265;155506;1714767377;2972375;world;-1.40E-05;-2.36E-05;7.06E-06;6.75E-05;-2.40E-05;2.54E-05;-1
2024/05/03/13:16:17.023743;155507;1714767377;23159816;world;-1.93E-05;-2.20E-05;-7.65E-06;6.72E-05;-1.84E-05;2.82E-05;-1
2024/05/03/13:16:17.033636;155508;1714767377;33256659;world;-2.21E-05;-4.25E-05;-1.11E-05;0.000138512;-6.41E-05;5.25E-05;-1
2024/05/03/13:16:17.054101;155509;1714767377;53295315;world;-1.27E-05;-2.44E-05;1.60E-06;2.66E-05;-3.52E-05;4.23E-05;-1
2024/05/03/13:16:17.063658;155510;1714767377;62965263;world;-2.00E-05;-2.70E-05;6.61E-06;8.44E-05;-2.96E-05;4.30E-05;-1
2024/05/03/13:16:17.103335;155511;1714767377;102958028;world;-2.13E-05;-2.00E-05;4.77E-06;8.02E-05;-1.34E-05;4.62E-06;-1
2024/05/03/13:16:17.103360;155512;1714767377;102995408;world;-2.07E-05;-2.68E-05;-2.16E-06;9.82E-05;-2.87E-05;3.70E-05;-1
2024/05/03/13:16:17.113408;155513;1714767377;113137186;world;-1.27E-05;-2.28E-05;3.05E-06;9.32E-05;-3.45E-05;2.42E-05;-1
2024/05/03/13:16:17.123416;155514;1714767377;123123338;world;-8.83E-06;-2.14E-05;-4.81E-06;0.000111009;-2.45E-05;3.58E-05;-1
2024/05/03/13:16:17.143639;155515;1714767377;143303826;world;-9.32E-06;-4.68E-05;-9.87E-06;0.000119428;-5.99E-05;2.42E-05;-1
2024/05/03/13:16:17.163441;155516;1714767377;163148216;world;-1.93E-05;-3.64E-05;6.88E-07;7.21E-05;1.38E-05;2.70E-05;-1
2024/05/03/13:16:17.173543;155517;1714767377;173249960;world;-2.24E-05;-1.80E-05;-3.05E-06;4.85E-05;-1.68E-05;1.94E-05;-1
2024/05/03/13:16:17.203540;155518;1714767377;203245998;world;-8.91E-06;-2.92E-05;-3.40E-06;6.46E-05;-6.37E-05;3.01E-05;-1
2024/05/03/13:16:17.213540;155519;1714767377;213234743;world;-1.20E-05;-3.35E-05;1.03E-05;4.66E-05;-2.19E-05;2.04E-05;-1
2024/05/03/13:16:17.223392;155520;1714767377;223066743;world;-1.53E-05;-3.21E-05;-5.36E-06;0.00011148;-6.85E-05;4.56E-05;-1
2024/05/03/13:16:17.243520;155521;1714767377;243053029;world;-1.10E-05;-3.81E-05;-1.98E-05;7.57E-05;-8.51E-05;6.33E-05;-1
2024/05/03/13:16:17.253260;155522;1714767377;252891208;world;-1.16E-05;-3.02E-05;9.63E-06;5.26E-05;-1.31E-05;2.18E-05;-1
2024/05/03/13:16:17.273474;155523;1714767377;273144864;world;-2.80E-05;-2.10E-05;2.11E-05;8.37E-05;-2.76E-05;1.65E-05;-1
2024/05/03/13:16:17.304035;155524;1714767377;303222445;world;-2.23E-05;-2.77E-05;-9.33E-06;8.20E-05;-5.12E-05;3.66E-05;-1
2024/05/03/13:16:17.304060;155525;1714767377;303258623;world;-1.03E-05;-4.33E-05;-2.67E-05;0.000102386;-8.91E-05;5.35E-05;-1
2024/05/03/13:16:17.323853;155526;1714767377;323610890;world;-1.81E-05;-1.39E-05;3.96E-06;8.06E-05;-3.52E-05;6.66E-05;-1
2024/05/03/13:16:17.333573;155527;1714767377;333261846;world;-1.80E-05;-3.15E-05;1.74E-05;7.79E-05;-5.49E-06;1.32E-05;-1
2024/05/03/13:16:17.353433;155528;1714767377;353006397;world;-1.24E-05;-3.54E-05;-5.51E-06;7.59E-05;-2.63E-06;2.37E-05;-1
2024/05/03/13:16:17.373609;155529;1714767377;373087397;world;-3.04E-05;-1.84E-05;1.53E-06;1.18E-05;-2.55E-05;1.58E-05;-1
2024/05/03/13:16:17.383538;155530;1714767377;383193152;world;-2.64E-05;-4.05E-05;5.00E-06;7.69E-05;7.21E-07;-1.28E-05;-1
2024/05/03/13:16:17.403442;155531;1714767377;403090930;world;-1.26E-05;-3.78E-05;-3.67E-06;4.07E-05;9.88E-06;4.14E-06;-1
2024/05/03/13:16:17.403453;155532;1714767377;403143318;world;-2.12E-05;-2.35E-05;-9.20E-07;8.95E-05;5.70E-06;-3.01E-06;-1
2024/05/03/13:16:17.433421;155533;1714767377;433030873;world;-1.37E-05;-3.34E-05;-4.23E-06;5.07E-05;-3.80E-05;2.70E-05;-1
2024/05/03/13:16:17.443998;155534;1714767377;443618390;world;-2.11E-05;-3.43E-05;1.93E-06;3.93E-05;-3.70E-05;4.25E-05;-1
2024/05/03/13:16:17.453361;155535;1714767377;452997931;world;-1.92E-05;-2.79E-05;-7.67E-06;9.57E-05;-5.84E-05;4.99E-05;-1
2024/05/03/13:16:17.473665;155536;1714767377;473307511;world;-1.94E-05;-3.05E-05;2.72E-06;3.57E-05;6.85E-07;4.38E-06;-1
2024/05/03/13:16:17.513629;155537;1714767377;513162401;world;-2.01E-05;-3.52E-05;-5.95E-06;5.97E-05;1.02E-05;2.44E-05;-1
2024/05/03/13:16:17.513660;155538;1714767377;513198318;world;-2.64E-05;-2.57E-05;-3.49E-06;0.000116289;-4.84E-06;1.44E-05;-1
2024/05/03/13:16:17.523527;155539;1714767377;523159591;world;-2.74E-05;-1.47E-05;1.11E-05;8.33E-05;2.19E-05;4.30E-05;-1
2024/05/03/13:16:17.533746;155540;1714767377;533378825;world;-1.50E-05;-4.04E-05;-2.59E-06;0.000123265;-3.83E-05;3.56E-05;-1
2024/05/03/13:16:17.553886;155541;1714767377;553544392;world;-1.23E-05;-2.49E-05;-6.02E-06;3.18E-05;1.26E-05;3.43E-06;-1
2024/05/03/13:16:17.573428;155542;1714767377;573098980;world;-2.61E-05;-3.47E-05;2.54E-06;8.12E-05;-1.62E-05;3.04E-05;-1
2024/05/03/13:16:17.583333;155543;1714767377;583001253;world;-1.54E-05;-4.18E-05;2.19E-06;7.83E-05;-3.64E-05;3.89E-05;-1
2024/05/03/13:16:17.613323;155544;1714767377;612954581;world;-1.49E-05;-9.85E-06;1.57E-06;8.06E-05;-4.00E-06;3.61E-05;-1
2024/05/03/13:16:17.613349;155545;1714767377;612992602;world;-2.02E-05;-3.00E-05;3.38E-06;8.48E-05;-2.24E-05;4.51E-05;-1
2024/05/03/13:16:17.623278;155546;1714767377;622992557;world;-5.64E-06;-3.21E-05;-1.57E-05;0.000122634;-6.60E-05;2.77E-05;-1
2024/05/03/13:16:17.643569;155547;1714767377;643242666;world;-2.08E-05;-1.65E-05;3.51E-06;4.00E-05;-1.26E-05;3.13E-05;-1
2024/05/03/13:16:17.664161;155548;1714767377;663522471;world;-1.97E-05;-3.33E-05;2.79E-06;6.05E-05;-1.54E-05;1.73E-05;-1
2024/05/03/13:16:17.684159;155549;1714767377;683766079;world;-2.17E-05;-3.00E-05;-7.16E-06;8.38E-05;6.37E-06;2.32E-05;-1
2024/05/03/13:16:17.693483;155550;1714767377;693059674;world;-1.51E-05;-1.96E-05;-7.23E-06;7.15E-05;9.65E-06;1.51E-05;-1
2024/05/03/13:16:17.713969;155551;1714767377;713372180;world;-2.45E-05;-1.97E-05;3.26E-06;5.50E-05;3.17E-05;1.28E-06;-1
2024/05/03/13:16:17.723677;155552;1714767377;723317843;world;-1.35E-05;-2.52E-05;-1.63E-08;9.36E-05;1.75E-05;1.46E-05;-1
2024/05/03/13:16:17.733225;155553;1714767377;732848111;world;-1.63E-05;-2.45E-05;6.72E-06;4.64E-05;-6.18E-06;1.89E-05;-1
2024/05/03/13:16:17.753669;155554;1714767377;753229278;world;-1.26E-05;-3.75E-05;-1.65E-05;6.48E-05;-6.98E-05;6.04E-06;-1
2024/05/03/13:16:17.783310;155555;1714767377;782988140;world;-2.44E-05;-1.68E-05;5.05E-06;5.53E-05;-3.07E-05;2.85E-05;-1
2024/05/03/13:16:17.783340;155556;1714767377;783011033;world;-2.00E-05;-2.23E-05;-2.74E-06;5.31E-05;-2.39E-05;3.25E-07;-1
2024/05/03/13:16:17.813762;155557;1714767377;813414155;world;-1.05E-05;-2.50E-05;-5.97E-06;4.89E-05;-2.54E-05;1.92E-05;-1
2024/05/03/13:16:17.813793;155558;1714767377;813452737;world;-1.39E-05;-2.33E-05;-1.32E-05;9.42E-05;-4.85E-05;4.97E-05;-1
2024/05/03/13:16:17.833216;155559;1714767377;832943601;world;-2.51E-05;-3.19E-05;-1.26E-05;9.71E-05;-3.09E-05;-1.92E-05;-1
2024/05/03/13:16:17.853977;155560;1714767377;853062594;world;-7.28E-06;-1.09E-05;6.64E-06;6.06E-05;-9.57E-06;4.66E-05;-1
2024/05/03/13:16:17.863750;155561;1714767377;863415292;world;-2.46E-05;-1.66E-05;-1.59E-06;2.08E-05;4.41E-06;2.71E-06;-1
2024/05/03/13:16:17.883902;155562;1714767377;883495722;world;-1.28E-05;-1.64E-05;1.09E-06;4.83E-05;-1.52E-05;4.38E-06;-1
2024/05/03/13:16:17.893657;155563;1714767377;893389473;world;-1.09E-05;-2.92E-05;-2.21E-05;0.000103384;-8.87E-05;5.97E-05;-1
2024/05/03/13:16:17.923328;155564;1714767377;923045529;world;-2.66E-05;-7.59E-06;-5.76E-07;0.000103333;-2.34E-05;2.46E-05;-1
2024/05/03/13:16:17.933613;155565;1714767377;933301228;world;-7.41E-06;-1.78E-05;-4.46E-06;9.63E-05;-1.40E-05;1.39E-05;-1
2024/05/03/13:16:17.943368;155566;1714767377;943033972;world;-1.70E-05;-3.52E-05;-1.86E-05;9.98E-05;-9.73E-05;6.64E-05;-1
2024/05/03/13:16:17.953900;155567;1714767377;953649015;world;-2.43E-05;-2.03E-05;-7.39E-06;9.75E-05;-4.56E-06;1.25E-05;-1
2024/05/03/13:16:17.983606;155568;1714767377;983227186;world;-8.70E-06;-1.13E-05;2.67E-07;5.50E-05;-3.67E-05;2.23E-05;-1
2024/05/03/13:16:17.983634;155569;1714767377;983281077;world;-1.22E-05;-1.82E-05;-6.33E-06;3.46E-05;-8.23E-05;3.56E-05;-1
2024/05/03/13:16:18.023307;155570;1714767378;22981429;world;-2.32E-05;-2.85E-05;-6.02E-06;8.30E-05;-5.27E-05;4.14E-06;-1
2024/05/03/13:16:18.023333;155571;1714767378;23014070;world;-1.14E-06;-1.68E-05;-1.72E-05;3.18E-05;-5.21E-05;-3.25E-06;-1
2024/05/03/13:16:18.033348;155572;1714767378;33015147;world;-9.81E-06;-1.41E-05;-1.20E-05;9.31E-06;-7.46E-05;-1.42E-05;-1
2024/05/03/13:16:18.053704;155573;1714767378;53369491;world;-3.43E-06;2.49E-06;2.87E-06;3.46E-06;-3.92E-05;-3.76E-05;-1
2024/05/03/13:16:18.063333;155574;1714767378;63021644;world;-1.57E-05;-9.55E-06;1.10E-06;5.01E-05;-3.28E-05;-1.33E-05;-1
2024/05/03/13:16:18.093807;155575;1714767378;93297075;world;-1.10E-05;-1.38E-05;-9.40E-06;5.61E-05;-5.81E-05;-1.58E-06;-1
2024/05/03/13:16:18.093834;155576;1714767378;93474327;world;-1.37E-05;-5.61E-06;-9.72E-06;2.76E-05;-5.25E-05;8.01E-07;-1
2024/05/03/13:16:18.123302;155577;1714767378;122980056;world;-1.19E-05;-2.32E-05;-1.15E-05;2.85E-05;-6.93E-05;-6.59E-06;-1
2024/05/03/13:16:18.123326;155578;1714767378;123015082;world;-6.26E-07;-1.40E-05;-2.48E-05;-2.50E-05;-0.000139358;-3.40E-05;-1
2024/05/03/13:16:18.143272;155579;1714767378;142956081;world;-7.69E-06;-1.63E-05;-2.96E-05;1.77E-05;-0.000130879;-2.61E-05;-1
2024/05/03/13:16:18.163621;155580;1714767378;163104520;world;1.43E-07;-2.05E-05;-3.64E-05;-5.71E-05;-0.00014013;-3.76E-05;-1
2024/05/03/13:16:18.173483;155581;1714767378;173203711;world;-7.49E-07;-1.91E-05;-4.26E-05;-5.49E-05;-0.000154508;-2.26E-05;-1
2024/05/03/13:16:18.193693;155582;1714767378;193321708;world;-1.60E-05;-3.81E-05;-6.08E-05;-9.19E-06;-0.000191217;-6.59E-06;-1
2024/05/03/13:16:18.223648;155583;1714767378;223355480;world;-1.30E-05;-3.49E-05;-4.23E-05;-1.21E-05;-0.000105799;-3.76E-05;-1
2024/05/03/13:16:18.223692;155584;1714767378;223393251;world;-1.23E-05;-2.93E-05;-4.25E-05;-2.54E-05;-0.000105842;-5.83E-05;-1
2024/05/03/13:16:18.243243;155585;1714767378;242895117;world;-1.87E-05;-3.53E-05;-4.42E-05;-7.55E-06;-0.000112733;-3.38E-05;-1
2024/05/03/13:16:18.253475;155586;1714767378;253109424;world;-1.03E-05;-2.67E-05;-4.98E-05;2.05E-05;-6.62E-05;-3.85E-05;-1
2024/05/03/13:16:18.273228;155587;1714767378;272864154;world;-1.48E-05;-1.00E-05;-3.81E-05;-3.16E-05;-3.73E-05;-4.26E-05;-1
2024/05/03/13:16:18.293463;155588;1714767378;292990581;world;-6.06E-06;-1.10E-05;-4.18E-05;1.01E-05;-8.99E-05;9.15E-06;-1
2024/05/03/13:16:18.333169;155589;1714767378;332854958;world;-7.32E-06;-1.14E-05;-3.41E-05;-9.37E-05;-2.54E-05;-6.93E-05;-1
2024/05/03/13:16:18.333201;155591;1714767378;332899571;world;4.44E-06;1.98E-05;-2.42E-05;-0.000117211;-6.47E-05;2.11E-05;-1
2024/05/03/13:16:18.353553;155592;1714767378;353249108;world;1.82E-05;-4.03E-06;-3.92E-05;-7.85E-05;-0.000123692;1.08E-05;-1
2024/05/03/13:16:18.363978;155593;1714767378;363327849;world;1.46E-05;1.35E-05;-2.59E-05;-0.000131;-7.34E-05;-2.11E-05;-1
2024/05/03/13:16:18.373316;155594;1714767378;373036618;world;5.68E-05;5.20E-05;-9.14E-06;-0.000413107;0.000210471;-0.000108003;-0.999999881
2024/05/03/13:16:18.393206;155595;1714767378;392897057;world;4.28E-05;1.57E-05;-1.28E-05;-0.000416195;0.000145659;-4.38E-05;-0.999999881
2024/05/03/13:16:18.433379;155596;1714767378;432990993;world;6.79E-05;1.63E-05;-4.83E-05;-0.000544582;4.83E-05;-0.000172077;-0.999999881
2024/05/03/13:16:18.443516;155597;1714767378;443203607;world;6.61E-05;2.89E-05;-4.53E-05;-0.000574617;2.86E-05;-0.000191141;-0.999999881
2024/05/03/13:16:18.443547;155598;1714767378;443239053;world;6.53E-05;1.87E-05;-3.91E-05;-0.000522779;8.13E-05;-0.000169709;-0.999999881
2024/05/03/13:16:18.453476;155599;1714767378;453187251;world;6.37E-05;1.58E-05;-4.73E-05;-0.000498076;4.26E-05;-0.000160866;-0.999999881
2024/05/03/13:16:18.473446;155600;1714767378;473121107;world;6.50E-05;-8.28E-06;-4.12E-05;-0.000480415;0.000115077;-3.19E-05;-0.999999881
2024/05/03/13:16:18.493585;155601;1714767378;493285465;world;0.000513405;-3.01E-05;-4.64E-05;-0.000678636;-2.04E-05;0.000319105;-0.999999762
2024/05/03/13:16:18.503946;155602;1714767378;503140367;world;0.001541223;-5.02E-05;-2.32E-05;-0.000753329;3.74E-06;0.000844801;-0.999999404
2024/05/03/13:16:18.533370;155603;1714767378;533029013;world;0.003045406;-4.73E-05;-2.85E-05;-0.000487364;5.39E-05;0.001677573;-0.99999845
2024/05/03/13:16:18.533398;155604;1714767378;533076662;world;0.004598442;-0.000129102;-3.92E-05;-0.000468034;-9.69E-05;0.002574335;-0.999996543
2024/05/03/13:16:18.553357;155605;1714767378;553053510;world;0.006110685;-7.62E-05;4.39E-05;-0.000155476;0.000183158;0.004173565;-0.999991298
2024/05/03/13:16:18.563438;155606;1714767378;563023950;world;0.007829463;-0.000129908;2.75E-06;8.96E-05;5.86E-05;0.005544011;-0.999984622
2024/05/03/13:16:18.583268;155607;1714767378;582947396;world;0.008799865;-0.000140312;2.11E-06;8.22E-05;-3.06E-06;0.00607424;-0.999981523
2024/05/03/13:16:18.603314;155608;1714767378;602952686;world;0.010626199;-0.000220832;7.85E-05;-5.31E-05;-4.52E-05;0.007191447;-0.999974132
2024/05/03/13:16:18.633769;155609;1714767378;633458089;world;0.012373695;-0.000209472;6.49E-05;0.000147081;-4.75E-05;0.008404715;-0.999964714
2024/05/03/13:16:18.633797;155610;1714767378;633493185;world;0.014125956;-0.000290922;7.41E-05;0.00037551;9.45E-05;0.009617064;-0.999953747
2024/05/03/13:16:18.644429;155611;1714767378;643762826;world;0.015990358;-0.000420695;2.54E-05;0.000434897;0.000229431;0.010645136;-0.999943256
2024/05/03/13:16:18.663727;155612;1714767378;663113819;world;0.017783396;-0.000415903;0.000143616;5.57E-05;-2.38E-05;0.011756477;-0.999930978
2024/05/03/13:16:18.673752;155613;1714767378;673086783;world;0.019626398;-0.000593316;6.60E-05;-0.000197538;0.000138494;0.01292938;-0.999916434
2024/05/03/13:16:18.703552;155614;1714767378;703113277;world;0.021364857;-0.000567475;0.000234313;-0.000152309;-0.000746138;0.014679112;-0.999891996
2024/05/03/13:16:18.713332;155615;1714767378;713017894;world;0.023022119;-0.000624068;0.000301183;9.96E-05;-0.00051684;0.015969349;-0.999872327
2024/05/03/13:16:18.743645;155616;1714767378;743315578;world;0.024608701;-0.000691462;0.000309238;0.000110171;-0.000630355;0.017108345;-0.999853492
2024/05/03/13:16:18.743668;155617;1714767378;743349151;world;0.025370941;-0.000700254;0.000314835;-0.000136579;-0.000611425;0.017688001;-0.999843359
2024/05/03/13:16:18.753526;155618;1714767378;753261031;world;0.02677137;-0.000698196;0.000361711;0.000134025;-0.000609974;0.019173171;-0.999816
2024/05/03/13:16:18.763391;155619;1714767378;763067462;world;0.028155658;-0.000856884;0.000310022;2.35E-05;-0.000761025;0.02031957;-0.999793231
2024/05/03/13:16:18.783486;155620;1714767378;783210466;world;0.029639199;-0.000998009;0.000323417;-0.000569736;-0.000699678;0.021186676;-0.999775112
2024/05/03/13:16:18.803320;155621;1714767378;803067002;world;0.030972991;-0.001117682;0.000243142;-0.000829028;-0.000659329;0.0221703;-0.999753654
2024/05/03/13:16:18.843669;155622;1714767378;843345544;world;0.032023627;-0.001084629;0.000323659;-0.000673553;-0.000638138;0.02336555;-0.999726593
2024/05/03/13:16:18.843693;155623;1714767378;843387694;world;0.032847539;-0.001151179;0.000391576;-0.000325903;-0.000698181;0.024505623;-0.999699473
2024/05/03/13:16:18.853168;155624;1714767378;852957009;world;0.033763617;-0.001140801;0.000439691;-0.000571608;-0.000839724;0.025499051;-0.99967432
2024/05/03/13:16:18.863273;155625;1714767378;862982342;world;0.03416748;-0.001129561;0.000500083;-0.000547321;-0.000971077;0.026165977;-0.999657035
2024/05/03/13:16:18.883660;155626;1714767378;883344983;world;0.035136379;-0.00112517;0.000485874;-0.000663783;-0.000806755;0.027300444;-0.999626756
2024/05/03/13:16:18.893367;155627;1714767378;893003257;world;0.035894096;-0.001234706;0.000435038;-0.000549482;-0.00048658;0.028067583;-0.999605834
2024/05/03/13:16:18.913448;155628;1714767378;913046720;world;0.036619306;-0.001283523;0.000387418;-0.000800234;-0.000732179;0.02887056;-0.999582589
2024/05/03/13:16:18.953449;155629;1714767378;953120266;world;0.036911603;-0.001254984;0.000423;-0.00076806;-0.000781392;0.029390829;-0.999567449
2024/05/03/13:16:18.953483;155631;1714767378;953167003;world;0.038118489;-0.001394157;0.000404465;-0.000937145;-0.000265126;0.030724039;-0.999527454
2024/05/03/13:16:18.973468;155632;1714767378;973106879;world;0.038510431;-0.001377086;0.000419982;-0.00051159;-0.000286605;0.03162523;-0.999499679
2024/05/03/13:16:18.983299;155633;1714767378;983025655;world;0.039029174;-0.001486688;0.000450881;-0.000476753;-0.000629447;0.032592867;-0.999468386
2024/05/03/13:16:19.013362;155634;1714767379;13060505;world;0.039560791;-0.001584186;0.000416873;-0.000570778;-0.000661428;0.033171751;-0.999449313
2024/05/03/13:16:19.023757;155635;1714767379;23461452;world;0.040107138;-0.001582523;0.000449862;-0.000825449;-0.000761271;0.033963799;-0.999422431
2024/05/03/13:16:19.043763;155636;1714767379;43493823;world;0.040458839;-0.001611177;0.000489223;-0.000552514;-0.001048218;0.034944046;-0.999388576
2024/05/03/13:16:19.043791;155637;1714767379;43530101;world;0.040651638;-0.001584035;0.000483479;-0.000406781;-0.000986882;0.035223372;-0.99937892
2024/05/03/13:16:19.063446;155638;1714767379;63138037;world;0.041009724;-0.001632126;0.000497705;-0.000187825;-0.001002357;0.035983004;-0.999351919
2024/05/03/13:16:19.083545;155639;1714767379;83151131;world;0.041494168;-0.001627785;0.000501711;-0.000221871;-0.001019428;0.036534615;-0.999331892
2024/05/03/13:16:19.093539;155640;1714767379;93266174;world;0.041899472;-0.001669521;0.000451715;-0.000131872;-0.000870854;0.03716993;-0.999308586
2024/05/03/13:16:19.113390;155641;1714767379;113070785;world;0.042341501;-0.001730987;0.000465117;-0.000541537;-0.000971305;0.037657313;-0.999290109
2024/05/03/13:16:19.143925;155642;1714767379;143454347;world;0.042864401;-0.001755312;0.000543692;-0.000857873;-0.001290437;0.038375955;-0.999262154
2024/05/03/13:16:19.143927;155643;1714767379;143511394;world;0.043267384;-0.001727212;0.000544291;-0.0005777;-0.001143606;0.039258916;-0.999228239
2024/05/03/13:16:19.163468;155644;1714767379;163135402;world;0.043802056;-0.001777695;0.000573213;-0.000718932;-0.001185845;0.039824422;-0.999205768
2024/05/03/13:16:19.173537;155645;1714767379;173170855;world;0.044280287;-0.001770158;0.000585032;-0.000721717;-0.001286701;0.040485591;-0.999179065
2024/05/03/13:16:19.193428;155646;1714767379;193166035;world;0.044612687;-0.001796969;0.000555818;-0.000684761;-0.001188054;0.040758464;-0.999168158
2024/05/03/13:16:19.213218;155647;1714767379;212925464;world;0.045361105;-0.001863668;0.000521362;-0.000761313;-0.001048466;0.041460227;-0.999139309
2024/05/03/13:16:19.223646;155648;1714767379;223322811;world;0.045611437;-0.001898301;0.000535856;-0.000671047;-0.001077478;0.041861545;-0.999122679
2024/05/03/13:16:19.253436;155649;1714767379;253162399;world;0.046215184;-0.001958603;0.00051623;-0.000852729;-0.001107836;0.042495139;-0.999095678
2024/05/03/13:16:19.253461;155650;1714767379;253197074;world;0.046855517;-0.002030591;0.000590975;-0.001148189;-0.000804079;0.043213718;-0.999064863
2024/05/03/13:16:19.263635;155651;1714767379;263387978;world;0.047534857;-0.002062855;0.000568359;-0.001135805;-0.000783627;0.04372675;-0.999042571
2024/05/03/13:16:19.283534;155652;1714767379;283224401;world;0.048147976;-0.002136427;0.00057281;-0.001085746;-0.000804786;0.044394381;-0.999013186
2024/05/03/13:16:19.303370;155653;1714767379;303052589;world;0.048767682;-0.002206096;0.000558965;-0.001007298;-0.000830701;0.045007199;-0.998985827
2024/05/03/13:16:19.323528;155654;1714767379;323060994;world;0.049393494;-0.002316633;0.000483654;-0.000598037;-0.001130352;0.04585284;-0.998947442
2024/05/03/13:16:19.343691;155655;1714767379;343293261;world;0.049990453;-0.002305179;0.000543354;-0.000654734;-0.000846006;0.046343803;-0.99892503
2024/05/03/13:16:19.353463;155656;1714767379;353015294;world;0.050751496;-0.002417561;0.000471095;-0.000595929;-0.001308704;0.047314301;-0.998879015
2024/05/03/13:16:19.363186;155657;1714767379;362904520;world;0.051124394;-0.002492174;0.000455113;-0.000700816;-0.001508789;0.047727294;-0.998859048
2024/05/03/13:16:19.373341;155658;1714767379;372987011;world;0.051808387;-0.0024869;0.000567786;-0.001006329;-0.001222267;0.048200127;-0.998836458
2024/05/03/13:16:19.393590;155659;1714767379;393258109;world;0.052506991;-0.002559749;0.00056646;-0.000989213;-0.001188461;0.048901632;-0.998802423
2024/05/03/13:16:19.423681;155660;1714767379;423342223;world;0.053190239;-0.002647607;0.000570667;-0.000952112;-0.001172175;0.049668822;-0.998764634
2024/05/03/13:16:19.423707;155661;1714767379;423378781;world;0.053864993;-0.002736256;0.00056916;-0.000691232;-0.001212667;0.050366521;-0.998729885
2024/05/03/13:16:19.453254;155662;1714767379;452963858;world;0.054625385;-0.002816553;0.000573306;-0.000908947;-0.001222976;0.051131569;-0.998690784
2024/05/03/13:16:19.453384;155663;1714767379;452998854;world;0.055367742;-0.002906158;0.000577413;-0.001038611;-0.001429413;0.051937431;-0.998648822
2024/05/03/13:16:19.473406;155664;1714767379;473101446;world;0.056174494;-0.002910422;0.000627585;-0.001376359;-0.001597866;0.052549507;-0.998616099
2024/05/03/13:16:19.493740;155665;1714767379;493366731;world;0.05655358;-0.002927467;0.000591032;-0.001415184;-0.001394568;0.052611887;-0.998613119
2024/05/03/13:16:19.503555;155666;1714767379;503236394;world;0.057286777;-0.00303102;0.000604974;-0.001334351;-0.001189487;0.053143617;-0.998585343
2024/05/03/13:16:19.523309;155667;1714767379;523014549;world;0.057983652;-0.003134686;0.00061458;-0.001612681;-0.001231357;0.053921983;-0.998543143
2024/05/03/13:16:19.533388;155668;1714767379;533034721;world;0.058698412;-0.003228094;0.000657878;-0.001707488;-0.001048003;0.054540262;-0.998509586
2024/05/03/13:16:19.553273;155669;1714767379;552979739;world;0.059404284;-0.003290703;0.000674128;-0.001845616;-0.001069986;0.055191964;-0.998473465
2024/05/03/13:16:19.563303;155670;1714767379;563023217;world;0.060103156;-0.003346582;0.00068504;-0.001842479;-0.001281936;0.055912942;-0.998433173
2024/05/03/13:16:19.583202;155671;1714767379;582889845;world;0.060447253;-0.003419898;0.000667048;-0.001844168;-0.001419324;0.056213368;-0.998416066
2024/05/03/13:16:19.593508;155672;1714767379;593209812;world;0.061309543;-0.003442494;0.000683252;-0.002156767;-0.001193205;0.056657862;-0.998390675
2024/05/03/13:16:19.623645;155673;1714767379;623337765;world;0.061990812;-0.003520622;0.000733695;-0.001981858;-0.00108197;0.057412989;-0.998347998
2024/05/03/13:16:19.633507;155674;1714767379;633141764;world;0.062658824;-0.003583243;0.000749167;-0.0019379;-0.001005557;0.05813377;-0.998306394
2024/05/03/13:16:19.673356;155675;1714767379;673030377;world;0.063325323;-0.003704108;0.000671544;-0.001695505;-0.000952587;0.058750201;-0.998270869
2024/05/03/13:16:19.673379;155677;1714767379;673083827;world;0.064645126;-0.003854471;0.000667223;-0.001458793;-0.001135901;0.060081188;-0.998191774
2024/05/03/13:16:19.693217;155678;1714767379;692931812;world;0.06498035;-0.003876743;0.000663677;-0.001433301;-0.00115451;0.060444843;-0.998169899
2024/05/03/13:16:19.703581;155679;1714767379;703242578;world;0.065652296;-0.003916031;0.000670044;-0.001498476;-0.001175316;0.061183847;-0.998124778
2024/05/03/13:16:19.733329;155680;1714767379;733028599;world;0.066293597;-0.004020333;0.000655649;-0.001241138;-0.001213748;0.061792385;-0.998087585
2024/05/03/13:16:19.753505;155681;1714767379;753236834;world;0.06705258;-0.004102477;0.0006596;-0.001411152;-0.001285227;0.062334709;-0.998053551
2024/05/03/13:16:19.763387;155682;1714767379;763122163;world;0.067674436;-0.004262589;0.000683463;-0.001257788;-0.001147441;0.062925451;-0.998016834
2024/05/03/13:16:19.773892;155683;1714767379;773489928;world;0.068285972;-0.004373773;0.000658549;-0.001030667;-0.001050796;0.063550211;-0.997977555
2024/05/03/13:16:19.783415;155684;1714767379;783100482;world;0.068960361;-0.004413849;0.000673478;-0.001247798;-0.001198284;0.064139925;-0.997939408
2024/05/03/13:16:19.803228;155685;1714767379;802933038;world;0.069577463;-0.004491553;0.000738139;-0.001469449;-0.001370809;0.064805634;-0.997895956
2024/05/03/13:16:19.833321;155686;1714767379;833013074;world;0.070210487;-0.004563349;0.000824608;-0.001393799;-0.001194496;0.065415531;-0.997856438
2024/05/03/13:16:19.833389;155687;1714767379;833060513;world;0.070801325;-0.004690431;0.000822932;-0.001386385;-0.001175983;0.066053316;-0.997814417
2024/05/03/13:16:19.873592;155688;1714767379;873285375;world;0.071184248;-0.00476801;0.000754382;-0.001355023;-0.00142307;0.066498265;-0.997784674
2024/05/03/13:16:19.873757;155690;1714767379;873329788;world;0.072449997;-0.004945781;0.000723952;-0.001268562;-0.001568928;0.067854285;-0.997693241
2024/05/03/13:16:19.893344;155691;1714767379;893069411;world;0.073066406;-0.004978461;0.000754689;-0.001426734;-0.001624048;0.068542942;-0.997645795
2024/05/03/13:16:19.913684;155692;1714767379;913358472;world;0.073709399;-0.005104832;0.000756566;-0.001389992;-0.001682766;0.069131665;-0.997605205
2024/05/03/13:16:19.934487;155693;1714767379;933907041;world;0.074339084;-0.005210619;0.000761694;-0.001399344;-0.001678466;0.069668971;-0.997567832
2024/05/03/13:16:19.943454;155694;1714767379;943152601;world;0.074959807;-0.005278202;0.000748862;-0.001381196;-0.001680973;0.070270889;-0.997525632
2024/05/03/13:16:19.983693;155695;1714767379;983375350;world;0.075592257;-0.005379053;0.000740444;-0.001301301;-0.001622759;0.070908301;-0.99748069
2024/05/03/13:16:19.983718;155696;1714767379;983410576;world;0.075902373;-0.005407386;0.000750836;-0.001132354;-0.001572313;0.071243808;-0.997457087
2024/05/03/13:16:19.993510;155697;1714767379;993134071;world;0.076904938;-0.00556411;0.000735713;-0.001062617;-0.001537446;0.072143778;-0.997392535
2024/05/03/13:16:20.003578;155698;1714767380;3171268;world;0.077216186;-0.005567722;0.000814896;-0.0011999;-0.001696534;0.072641842;-0.997355938
2024/05/03/13:16:20.013571;155699;1714767380;13275999;world;0.077853248;-0.005599918;0.000849264;-0.001225262;-0.001796227;0.073405065;-0.99729985
2024/05/03/13:16:20.033188;155700;1714767380;32887790;world;0.078456685;-0.005674477;0.000854118;-0.001139738;-0.00173317;0.073997855;-0.997256339
2024/05/03/13:16:20.063227;155701;1714767380;62890761;world;0.079063386;-0.005788872;0.000858951;-0.001030429;-0.001802392;0.074626178;-0.997209489
2024/05/03/13:16:20.063255;155702;1714767380;62925656;world;0.079651132;-0.005858866;0.000892233;-0.000764624;-0.001837717;0.075214915;-0.997165382
2024/05/03/13:16:20.083639;155703;1714767380;83009720;world;0.080383778;-0.006030036;0.000862268;-0.000961109;-0.002050561;0.076009035;-0.997104585
2024/05/03/13:16:20.103616;155704;1714767380;103316451;world;0.081036538;-0.006165299;0.000829316;-0.000792442;-0.002088432;0.076628745;-0.997057199
2024/05/03/13:16:20.113531;155705;1714767380;113240733;world;0.081408598;-0.006214464;0.000815186;-0.000763019;-0.001966119;0.076885544;-0.997037768
2024/05/03/13:16:20.133596;155706;1714767380;133369235;world;0.082013778;-0.006261437;0.000827521;-0.000697321;-0.001834239;0.077688292;-0.99697578
2024/05/03/13:16:20.143820;155707;1714767380;143352048;world;0.082646109;-0.006383378;0.000849881;-0.00053571;-0.001923276;0.078213632;-0.996934652
2024/05/03/13:16:20.173365;155708;1714767380;173016463;world;0.083269231;-0.006414415;0.00093925;-0.000452812;-0.00207384;0.079000518;-0.996872365
2024/05/03/13:16:20.173370;155709;1714767380;173051358;world;0.083906688;-0.006485942;0.000925253;-0.000355203;-0.002002205;0.079678364;-0.996818542
2024/05/03/13:16:20.193321;155710;1714767380;193019959;world;0.084190719;-0.00653312;0.000913986;-0.000512165;-0.002034201;0.079875477;-0.996802688
2024/05/03/13:16:20.203735;155711;1714767380;203455430;world;0.084745914;-0.006659096;0.00092365;-9.87E-05;-0.001812474;0.080389842;-0.996761918
2024/05/03/13:16:20.223701;155712;1714767380;223440734;world;0.085420936;-0.00682331;0.000897651;-0.000208406;-0.001895813;0.081134103;-0.996701419
2024/05/03/13:16:20.243888;155713;1714767380;243356947;world;0.086101644;-0.00692775;0.000905353;-0.000128556;-0.001885709;0.081818804;-0.99664551
2024/05/03/13:16:20.273358;155714;1714767380;273006796;world;0.086812258;-0.007056757;0.000860075;-0.000161054;-0.001740045;0.082435668;-0.996594846
2024/05/03/13:16:20.273365;155715;1714767380;273047853;world;0.087457277;-0.007126671;0.000882576;-9.33E-05;-0.001652381;0.083094634;-0.996540308
2024/05/03/13:16:20.283419;155716;1714767380;283124411;world;0.088057742;-0.007182875;0.000923425;2.95E-05;-0.001970154;0.083802715;-0.996480405
2024/05/03/13:16:20.303776;155717;1714767380;303428492;world;0.088324308;-0.007208521;0.000944162;2.06E-05;-0.001999074;0.08403153;-0.996461093
2024/05/03/13:16:20.313444;155718;1714767380;313158140;world;0.088915884;-0.007278854;0.000957297;0.000186978;-0.002004672;0.084533423;-0.996418595
2024/05/03/13:16:20.364128;155719;1714767380;363832650;world;0.089931726;-0.007397666;0.000972002;6.67E-05;-0.001880702;0.085645638;-0.996323943
2024/05/03/13:16:20.403287;155720;1714767380;402954459;world;0.090252452;-0.007444483;0.000979834;9.08E-05;-0.001877347;0.085956767;-0.996297181
2024/05/03/13:16:20.403312;155723;1714767380;403010454;world;0.092429362;-0.007910549;0.000914806;-0.000528663;-0.001355632;0.087543473;-0.996159673
2024/05/03/13:16:20.413319;155724;1714767380;412976740;world;0.093173906;-0.008047926;0.00086431;-0.000642358;-0.001484617;0.088002525;-0.996119022
2024/05/03/13:16:20.423840;155725;1714767380;423541544;world;0.093742438;-0.008056317;0.000958923;-0.000587789;-0.001699788;0.08881174;-0.996046841
2024/05/03/13:16:20.443429;155726;1714767380;443116577;world;0.094436094;-0.008160498;0.000978072;-0.000659868;-0.00160952;0.089678995;-0.995969176
2024/05/03/13:16:20.473435;155727;1714767380;473081846;world;0.095084265;-0.008236356;0.001015751;-0.000649468;-0.001509666;0.090268739;-0.995916069
2024/05/03/13:16:20.473458;155728;1714767380;473131720;world;0.09539894;-0.008305232;0.001013795;-0.000626757;-0.001473721;0.090605147;-0.99588567
2024/05/03/13:16:20.493576;155729;1714767380;493260743;world;0.096152015;-0.008462753;0.001003766;-0.000687694;-0.001464542;0.091343142;-0.995818198
2024/05/03/13:16:20.503545;155730;1714767380;503248244;world;0.0967464;-0.008594844;0.001008747;-0.000571038;-0.001674424;0.09200649;-0.995756924
2024/05/03/13:16:20.523420;155731;1714767380;523038727;world;0.097351849;-0.008723088;0.00102092;-0.000565961;-0.00162532;0.092620127;-0.995700121
2024/05/03/13:16:20.533485;155732;1714767380;533173009;world;0.098053031;-0.008885237;0.000960023;-0.000760425;-0.001624968;0.093137182;-0.995651662
2024/05/03/13:16:20.554136;155733;1714767380;553734422;world;0.098687351;-0.008921426;0.001031285;-0.000664363;-0.001836127;0.093873538;-0.995582283
2024/05/03/13:16:20.583579;155734;1714767380;583244048;world;0.099292152;-0.009085715;0.000949836;-0.000364753;-0.00209728;0.094334885;-0.995538294
2024/05/03/13:16:20.583599;155735;1714767380;583280887;world;0.099912263;-0.009183832;0.00095342;-0.00017245;-0.002152202;0.094823673;-0.995491803
2024/05/03/13:16:20.603154;155736;1714767380;602861880;world;0.100246601;-0.009244658;0.000946205;-0.000252874;-0.002171139;0.095146157;-0.995460927
2024/05/03/13:16:20.613665;155737;1714767380;613223193;world;0.101007804;-0.009421747;0.001015157;-0.000687008;-0.001893654;0.096144497;-0.995365381
2024/05/03/13:16:20.633188;155738;1714767380;632882885;world;0.101563491;-0.009548126;0.000980656;-0.000312782;-0.001934553;0.096770845;-0.995304823
2024/05/03/13:16:20.653926;155739;1714767380;653328129;world;0.102278009;-0.009672851;0.001019293;-0.000560832;-0.001987999;0.097499363;-0.995233476
2024/05/03/13:16:20.653946;155740;1714767380;653385347;world;0.102957211;-0.009829733;0.000976832;-0.000574817;-0.001802955;0.097968578;-0.995187759
2024/05/03/13:16:20.683677;155741;1714767380;683370393;world;0.103637122;-0.009931875;0.001003549;-0.000461398;-0.002180439;0.098666646;-0.995118141
2024/05/03/13:16:20.693396;155742;1714767380;693082028;world;0.104292899;-0.010055272;0.001009155;-0.000428076;-0.002085099;0.099286444;-0.995056629
2024/05/03/13:16:20.703508;155743;1714767380;703201739;world;0.104592815;-0.010111559;0.001018989;-0.000406423;-0.001977545;0.09957435;-0.995028079
2024/05/03/13:16:20.723412;155744;1714767380;723120496;world;0.105241992;-0.010234844;0.000999751;-0.000256597;-0.001992699;0.100249723;-0.994960308
2024/05/03/13:16:20.733392;155745;1714767380;733127735;world;0.105986476;-0.010383243;0.000986958;-0.000507233;-0.0018811;0.100946292;-0.994889975
2024/05/03/13:16:20.753155;155746;1714767380;752873808;world;0.106669135;-0.010520075;0.001015167;-0.000716131;-0.001883128;0.101679333;-0.994815171
2024/05/03/13:16:20.793351;155747;1714767380;793025322;world;0.107331365;-0.010649523;0.001016606;-0.00079311;-0.001849589;0.102323346;-0.994749129
2024/05/03/13:16:20.793377;155749;1714767380;793070256;world;0.108262628;-0.010893225;0.000920431;-0.00063673;-0.001834668;0.103175215;-0.994661391
2024/05/03/13:16:20.813676;155750;1714767380;813300468;world;0.10928411;-0.011020673;0.000988499;-0.000697056;-0.001915219;0.104234636;-0.994550645
2024/05/03/13:16:20.833411;155751;1714767380;833104771;world;0.109954894;-0.011136143;0.001013719;-0.000663361;-0.001838397;0.104848862;-0.994486272
2024/05/03/13:16:20.853580;155752;1714767380;853304396;world;0.110260032;-0.011196435;0.001031292;-0.000648868;-0.001824028;0.105203554;-0.9944489
2024/05/03/13:16:20.883376;155753;1714767380;882974058;world;0.111263201;-0.011442739;0.001045877;-0.000618551;-0.001680285;0.106235869;-0.994339406
2024/05/03/13:16:20.883394;155754;1714767380;883009424;world;0.111572653;-0.011514645;0.001043712;-0.000597151;-0.001623674;0.106552064;-0.99430567
2024/05/03/13:16:20.893349;155755;1714767380;893025513;world;0.11224474;-0.011706983;0.001010903;-0.000772848;-0.001718728;0.107244089;-0.994230986
2024/05/03/13:16:20.913951;155756;1714767380;913474425;world;0.112893954;-0.011867059;0.000985368;-0.00081913;-0.001678966;0.107779816;-0.99417311
2024/05/03/13:16:20.923443;155757;1714767380;923111619;world;0.113528199;-0.012017295;0.000922855;-0.000863779;-0.001625669;0.10835959;-0.994110048
2024/05/03/13:16:20.943669;155758;1714767380;943330469;world;0.114135668;-0.01208211;0.001014291;-0.000660802;-0.00190219;0.109275788;-0.994009495
2024/05/03/13:16:20.953439;155759;1714767380;953179572;world;0.114457212;-0.012143091;0.001007318;-0.000738716;-0.002003301;0.109643608;-0.993968725
2024/05/03/13:16:20.983653;155760;1714767380;983333537;world;0.115077838;-0.012302094;0.000985358;-0.000561857;-0.00199538;0.11021889;-0.993905246
2024/05/03/13:16:20.993807;155761;1714767380;993368107;world;0.116072491;-0.012581099;0.000928238;-0.000744995;-0.002133719;0.111151733;-0.993800938
2024/05/03/13:16:21.003765;155762;1714767381;3269687;world;0.116409443;-0.012652189;0.000949935;-0.000756447;-0.002074215;0.111457817;-0.993766785
2024/05/03/13:16:21.023905;155763;1714767381;23528232;world;0.11705099;-0.012774255;0.000940298;-0.000720328;-0.002089113;0.112065978;-0.993698359
2024/05/03/13:16:21.033547;155764;1714767381;33226711;world;0.11765153;-0.01289968;0.000946355;-0.000608942;-0.002167928;0.112714715;-0.993624806
2024/05/03/13:16:21.063348;155765;1714767381;62960006;world;0.118367292;-0.013063396;0.000887222;-0.000605957;-0.001915202;0.113114841;-0.993579984
2024/05/03/13:16:21.063367;155766;1714767381;62994781;world;0.118999623;-0.013153154;0.000958228;-0.000628918;-0.00198933;0.113902815;-0.993489742
2024/05/03/13:16:21.083569;155767;1714767381;83310104;world;0.119360015;-0.013215169;0.000966332;-0.000734795;-0.00195203;0.114267007;-0.993447959
2024/05/03/13:16:21.103805;155768;1714767381;102990885;world;0.11999841;-0.013367056;0.001009551;-0.000656672;-0.001863464;0.114928812;-0.993371844
2024/05/03/13:16:21.113629;155769;1714767381;113311952;world;0.120667107;-0.013532987;0.001014005;-0.000789063;-0.001991007;0.115571864;-0.993296802
2024/05/03/13:16:21.123477;155770;1714767381;123181211;world;0.121323541;-0.013725242;0.001045041;-0.000904333;-0.001981748;0.11619512;-0.993224025
2024/05/03/13:16:21.143398;155771;1714767381;143106261;world;0.12195529;-0.013910343;0.001005505;-0.000813055;-0.001916865;0.116918311;-0.993139327
2024/05/03/13:16:21.163605;155772;1714767381;163299039;world;0.122577839;-0.014061099;0.001036634;-0.000906373;-0.00202491;0.11764241;-0.993053615
2024/05/03/13:16:21.203954;155773;1714767381;203185931;world;0.123187825;-0.014193447;0.001011749;-0.000847483;-0.001852229;0.118194692;-0.992988408
2024/05/03/13:16:21.203964;155775;1714767381;203233120;world;0.124217689;-0.014425626;0.001057101;-0.000682306;-0.00214674;0.119100221;-0.992879689
2024/05/03/13:16:21.223526;155776;1714767381;223289215;world;0.1248933;-0.014526522;0.001074168;-0.000809881;-0.002210673;0.119783424;-0.992797315
2024/05/03/13:16:21.243402;155777;1714767381;242995784;world;0.125501588;-0.014707983;0.001026016;-0.000519223;-0.002328372;0.120496355;-0.992710948
2024/05/03/13:16:21.263678;155778;1714767381;263377320;world;0.126130745;-0.014892437;0.001043748;-0.000587259;-0.00229938;0.121039875;-0.992644787
2024/05/03/13:16:21.273644;155779;1714767381;273365693;world;0.126739457;-0.015002018;0.001079686;-0.000350086;-0.002379793;0.121791281;-0.992552817
2024/05/03/13:16:21.293375;155780;1714767381;293058015;world;0.127500474;-0.015267456;0.000876649;-0.000582247;-0.002213329;0.121999405;-0.992527604
2024/05/03/13:16:21.303568;155781;1714767381;303298411;world;0.128107041;-0.015308464;0.000984367;-0.000856391;-0.002544736;0.122835845;-0.992423415
2024/05/03/13:16:21.313330;155782;1714767381;313087952;world;0.128426731;-0.015421456;0.000952924;-0.000453963;-0.002312347;0.123307034;-0.992365777
2024/05/03/13:16:21.333373;155783;1714767381;333067975;world;0.128968865;-0.015645009;0.001036607;-0.000474348;-0.002435016;0.123999894;-0.992279172
2024/05/03/13:16:21.343555;155784;1714767381;343188953;world;0.129623711;-0.015813418;0.000996833;-0.000628915;-0.002268222;0.124660581;-0.992196679
2024/05/03/13:16:21.363374;155785;1714767381;362925744;world;0.130278394;-0.015977368;0.001014318;-0.000727581;-0.002400447;0.125297248;-0.992116153
2024/05/03/13:16:21.373576;155786;1714767381;373120193;world;0.131037712;-0.016152253;0.001043077;-0.001111538;-0.002189829;0.126148954;-0.992008328
2024/05/03/13:16:21.393520;155787;1714767381;393149007;world;0.131711349;-0.016348517;0.001023353;-0.001094039;-0.002141934;0.126830921;-0.991921425
2024/05/03/13:16:21.413212;155788;1714767381;412925719;world;0.132350951;-0.016539449;0.000939571;-0.001047873;-0.002163345;0.127349749;-0.991855025
2024/05/03/13:16:21.423604;155789;1714767381;423291439;world;0.13290602;-0.016697094;0.000975404;-0.000716512;-0.002141831;0.127907217;-0.991783619
2024/05/03/13:16:21.443891;155790;1714767381;443571876;world;0.1331985;-0.016799504;0.000976918;-0.000570342;-0.002131094;0.128168687;-0.991749942
2024/05/03/13:16:21.463850;155791;1714767381;463458344;world;0.133874074;-0.016845401;0.001074418;-0.000755928;-0.002300811;0.128890589;-0.991655946
2024/05/03/13:16:21.473863;155792;1714767381;473214370;world;0.134555951;-0.017046841;0.001074623;-0.000790864;-0.002348591;0.12953873;-0.991571307
2024/05/03/13:16:21.493517;155793;1714767381;493220252;world;0.135254309;-0.017190745;0.001062129;-0.000816918;-0.002250383;0.13021265;-0.991483271
2024/05/03/13:16:21.503170;155794;1714767381;502882473;world;0.135928109;-0.017392222;0.001075145;-0.000947358;-0.002286438;0.130900517;-0.991392493
2024/05/03/13:16:21.513469;155795;1714767381;513136835;world;0.136539429;-0.017583594;0.001085715;-0.000891317;-0.002271739;0.131396785;-0.991326869
2024/05/03/13:16:21.533578;155796;1714767381;532945777;world;0.137187511;-0.017774619;0.001054925;-0.000994564;-0.002355665;0.132056683;-0.991238892
2024/05/03/13:16:21.553577;155797;1714767381;553277259;world;0.137817249;-0.017953763;0.001058581;-0.001022754;-0.002313243;0.132725477;-0.991149664
2024/05/03/13:16:21.573455;155798;1714767381;573147276;world;0.138422579;-0.018140882;0.001058726;-0.000980967;-0.002175742;0.133339375;-0.991067588
2024/05/03/13:16:21.593293;155799;1714767381;593022141;world;0.139008597;-0.018253505;0.001128503;-0.000902277;-0.002267206;0.134001896;-0.990978122
2024/05/03/13:16:21.603887;155800;1714767381;603111865;world;0.139647156;-0.018425198;0.001163251;-0.000964124;-0.002218968;0.134582415;-0.990899444
2024/05/03/13:16:21.613434;155801;1714767381;613021531;world;0.139965728;-0.018524904;0.001150008;-0.000940697;-0.002284735;0.134874687;-0.990859568
2024/05/03/13:16:21.623338;155802;1714767381;623088296;world;0.14068535;-0.018736236;0.001132791;-0.000952753;-0.002287913;0.135589778;-0.990761936
2024/05/03/13:16:21.643502;155803;1714767381;643054376;world;0.141320631;-0.018894114;0.001091954;-0.00078336;-0.002344629;0.136275694;-0.99066788
2024/05/03/13:16:21.663358;155804;1714767381;662966652;world;0.14193815;-0.019019045;0.001097022;-0.000825824;-0.002409405;0.136946365;-0.990575194
2024/05/03/13:16:21.673490;155805;1714767381;673175549;world;0.142494559;-0.019170009;0.001099817;-0.000717166;-0.002353132;0.137552813;-0.99049145
2024/05/03/13:16:21.703981;155806;1714767381;703564593;world;0.142785266;-0.019265335;0.001095908;-0.000602733;-0.002370883;0.137842342;-0.990451157
2024/05/03/13:16:21.704009;155807;1714767381;703611110;world;0.143762544;-0.019560818;0.001095667;-0.000715057;-0.002359878;0.138577431;-0.990348577
2024/05/03/13:16:21.723642;155808;1714767381;723352305;world;0.144436136;-0.01972351;0.001127312;-0.000780982;-0.002710365;0.139416769;-0.990229785
2024/05/03/13:16:21.743688;155809;1714767381;743260845;world;0.145178556;-0.019958269;0.001049028;-0.001029718;-0.002782958;0.140092164;-0.99013406
2024/05/03/13:16:21.753240;155810;1714767381;752988599;world;0.145489812;-0.0199749;0.001122173;-0.000970556;-0.00247099;0.14035058;-0.990098298
2024/05/03/13:16:21.773691;155811;1714767381;773318768;world;0.146110252;-0.020130021;0.001178073;-0.000948677;-0.00236355;0.14106749;-0.989996791
2024/05/03/13:16:21.784042;155812;1714767381;783781397;world;0.146672204;-0.020298541;0.001175088;-0.00069238;-0.00250406;0.141618282;-0.989917934
2024/05/03/13:16:21.803730;155813;1714767381;803168041;world;0.147389874;-0.020551629;0.001169406;-0.00097747;-0.002446849;0.142310306;-0.989818633
2024/05/03/13:16:21.823813;155814;1714767381;823520111;world;0.1480373;-0.020748938;0.001218586;-0.000992291;-0.00238918;0.142809331;-0.989746809
2024/05/03/13:16:21.833259;155815;1714767381;832967240;world;0.148419812;-0.020866178;0.001141238;-0.001460817;-0.002549852;0.14298436;-0.989720643
2024/05/03/13:16:21.844298;155816;1714767381;843971117;world;0.149023175;-0.021019161;0.001179056;-0.001472479;-0.002590397;0.143593937;-0.989632249
2024/05/03/13:16:21.863236;155817;1714767381;862922010;world;0.149530157;-0.021186849;0.001180152;-0.001280825;-0.00258808;0.144323751;-0.989526391
2024/05/03/13:16:21.883614;155818;1714767381;882956204;world;0.15020214;-0.02143074;0.00116594;-0.000929971;-0.002579933;0.145013794;-0.989425898
2024/05/03/13:16:21.903959;155819;1714767381;903483413;world;0.150839269;-0.021611949;0.001167933;-0.000986348;-0.002631705;0.145672336;-0.989328921
2024/05/03/13:16:21.913888;155820;1714767381;913527772;world;0.151546136;-0.021793108;0.001204378;-0.001139834;-0.002845657;0.14638339;-0.989223242
2024/05/03/13:16:21.923586;155821;1714767381;923260697;world;0.152180433;-0.022014212;0.001199479;-0.001125621;-0.002750797;0.146961287;-0.989137828
2024/05/03/13:16:21.943399;155822;1714767381;943118398;world;0.152783543;-0.022187378;0.001228689;-0.000870464;-0.00270809;0.147509649;-0.989056528
2024/05/03/13:16:21.963481;155823;1714767381;963171818;world;0.153419435;-0.022346059;0.001238624;-0.001146345;-0.00276118;0.148144409;-0.988961279
2024/05/03/13:16:21.984017;155824;1714767381;983326648;world;0.154013067;-0.022518735;0.001268158;-0.001023084;-0.002842822;0.148756057;-0.988869309
2024/05/03/13:16:21.993260;155825;1714767381;992916506;world;0.154307902;-0.022625579;0.00126812;-0.000952856;-0.002794146;0.149020836;-0.988829672
2024/05/03/13:16:22.023695;155826;1714767382;23335307;world;0.154956162;-0.022851491;0.001280433;-0.00109009;-0.00270122;0.149718598;-0.988724411
2024/05/03/13:16:22.023722;155827;1714767382;23372347;world;0.155755728;-0.023126407;0.00127228;-0.001447006;-0.002625742;0.150373742;-0.988624692
2024/05/03/13:16:22.033470;155828;1714767382;33152318;world;0.156425849;-0.023260945;0.001310466;-0.001642662;-0.002701815;0.151149228;-0.98850596
2024/05/03/13:16:22.053650;155829;1714767382;53358134;world;0.156987846;-0.023470191;0.001301742;-0.001455648;-0.002703075;0.15185234;-0.988398492
2024/05/03/13:16:22.063613;155830;1714767382;63292706;world;0.157587141;-0.023721311;0.001232488;-0.001323917;-0.002750028;0.152382597;-0.988316953
2024/05/03/13:16:22.083402;155831;1714767382;83142591;world;0.158141106;-0.023894606;0.001237019;-0.001031198;-0.002601395;0.152985424;-0.988224506
2024/05/03/13:16:22.113479;155832;1714767382;113017185;world;0.158770278;-0.024089828;0.00127627;-0.001027396;-0.00253756;0.153613925;-0.988127172
2024/05/03/13:16:22.113507;155833;1714767382;113058001;world;0.159089684;-0.024187859;0.001262176;-0.001052303;-0.002617737;0.153822109;-0.988094509
2024/05/03/13:16:22.123566;155834;1714767382;123255816;world;0.159718007;-0.024399096;0.001235354;-0.000960915;-0.002680505;0.154466748;-0.987993956
2024/05/03/13:16:22.143283;155835;1714767382;143007874;world;0.160394892;-0.024578612;0.001182964;-0.001075425;-0.002491626;0.155162513;-0.987885296
2024/05/03/13:16:22.163611;155836;1714767382;163298269;world;0.161054015;-0.024830054;0.001123053;-0.001148338;-0.002323422;0.155640066;-0.987810493
2024/05/03/13:16:22.183314;155837;1714767382;183050923;world;0.161396325;-0.024913283;0.001159935;-0.0012652;-0.002279249;0.15603134;-0.987748682
2024/05/03/13:16:22.193362;155838;1714767382;193098238;world;0.162246004;-0.025142785;0.001208626;-0.00097417;-0.002378684;0.157101959;-0.987579048
2024/05/03/13:16:22.213386;155839;1714767382;213113465;world;0.16284205;-0.025355177;0.001200637;-0.000770011;-0.002297694;0.157709882;-0.987482548
2024/05/03/13:16:22.223995;155840;1714767382;223689352;world;0.163125396;-0.025459502;0.001226299;-0.000682637;-0.002265579;0.157984927;-0.987438738
2024/05/03/13:16:22.233517;155841;1714767382;233198526;world;0.163749486;-0.025658906;0.001260589;-0.000514252;-0.002105501;0.158833817;-0.987303019
2024/05/03/13:16:22.253642;155842;1714767382;253346402;world;0.164397046;-0.025894053;0.001303105;-0.000756025;-0.002153947;0.159655273;-0.98717016
2024/05/03/13:16:22.263613;155843;1714767382;263305602;world;0.165050223;-0.026101317;0.001288776;-0.000823694;-0.002216064;0.160389289;-0.98705101
2024/05/03/13:16:22.283751;155844;1714767382;283360374;world;0.165639341;-0.026328478;0.001301385;-0.000661553;-0.00211708;0.161070168;-0.986940563
2024/05/03/13:16:22.333283;155845;1714767382;332978503;world;0.166399583;-0.02656769;0.001259132;-0.000815946;-0.002153929;0.161609516;-0.986852109
2024/05/03/13:16:22.333312;155847;1714767382;333023918;world;0.167266712;-0.026992956;0.00123738;-0.000670262;-0.002179621;0.16230759;-0.986737549
2024/05/03/13:16:22.354119;155848;1714767382;353211449;world;0.167790413;-0.0271409;0.001191845;-0.000913315;-0.001995021;0.162736386;-0.986667216
2024/05/03/13:16:22.363835;155849;1714767382;363418969;world;0.168386281;-0.027310681;0.001223293;-0.000794774;-0.001973084;0.163495287;-0.986541867
2024/05/03/13:16:22.393168;155850;1714767382;392895169;world;0.169034317;-0.027508745;0.001236341;-0.000855188;-0.002040132;0.16417186;-0.986429334
2024/05/03/13:16:22.393203;155851;1714767382;392934422;world;0.169667676;-0.027742194;0.00124121;-0.000952027;-0.002066512;0.164979368;-0.986294448
2024/05/03/13:16:22.433488;155852;1714767382;433103559;world;0.170309007;-0.027932817;0.001231159;-0.000860218;-0.002147437;0.165626854;-0.986185789
2024/05/03/13:16:22.433517;155853;1714767382;433149485;world;0.17067486;-0.02801061;0.001239773;-0.001156635;-0.002176659;0.165961921;-0.986129105
2024/05/03/13:16:22.443499;155854;1714767382;443228559;world;0.171643659;-0.028333537;0.001159025;-0.001089529;-0.002110888;0.166874602;-0.985975325
2024/05/03/13:16:22.453220;155855;1714767382;452938559;world;0.17224966;-0.028513506;0.001240973;-0.001195371;-0.002072176;0.167747483;-0.985827088
2024/05/03/13:16:22.473277;155856;1714767382;472961121;world;0.172526836;-0.028595738;0.001257267;-0.001076427;-0.002002178;0.168095276;-0.985768139
2024/05/03/13:16:22.493625;155857;1714767382;493353809;world;0.173100799;-0.028845092;0.001275943;-0.001002145;-0.001998424;0.168683916;-0.985667706
2024/05/03/13:16:22.523660;155858;1714767382;523362494;world;0.173727661;-0.029055797;0.001289919;-0.00104545;-0.002021365;0.169288158;-0.985563993
2024/05/03/13:16:22.533352;155859;1714767382;533043916;world;0.174378842;-0.029316854;0.001304338;-0.001122478;-0.0019475;0.170065895;-0.985430121
2024/05/03/13:16:22.533384;155860;1714767382;533075746;world;0.174985632;-0.029535577;0.001310308;-0.001259164;-0.001839259;0.170770898;-0.98530823
2024/05/03/13:16:22.553600;155861;1714767382;553148071;world;0.175575182;-0.02974721;0.001318202;-0.001155873;-0.001862043;0.171399653;-0.985199153
2024/05/03/13:16:22.573476;155862;1714767382;573127873;world;0.176181763;-0.029984191;0.001288011;-0.000948727;-0.001947593;0.17202501;-0.985090256
2024/05/03/13:16:22.593617;155863;1714767382;593311007;world;0.176774397;-0.03020609;0.001278726;-0.000983196;-0.001981714;0.172550932;-0.984998167
2024/05/03/13:16:22.603638;155864;1714767382;603334165;world;0.177469045;-0.03041384;0.001289807;-0.001222938;-0.002038235;0.173119619;-0.984898031
2024/05/03/13:16:22.643682;155865;1714767382;643191609;world;0.177721918;-0.030529089;0.001307759;-0.001051311;-0.002176057;0.173539847;-0.984823942
2024/05/03/13:16:22.643710;155867;1714767382;643231063;world;0.178981736;-0.031022198;0.001252244;-0.000962759;-0.002084247;0.174770311;-0.984606624
2024/05/03/13:16:22.663363;155868;1714767382;663109013;world;0.179568827;-0.03123842;0.001266076;-0.000872713;-0.00212199;0.175525591;-0.984472215
2024/05/03/13:16:22.673460;155869;1714767382;672989891;world;0.179873198;-0.031388372;0.001290562;-0.000975607;-0.002063886;0.175952822;-0.984395981
2024/05/03/13:16:22.693438;155870;1714767382;693165911;world;0.180818632;-0.031707458;0.00132496;-0.001041965;-0.002127854;0.176894531;-0.984227002
2024/05/03/13:16:22.704314;155871;1714767382;703949998;world;0.181130543;-0.031798515;0.001337588;-0.000992655;-0.002139739;0.177177474;-0.984176099
2024/05/03/13:16:22.723486;155872;1714767382;723227056;world;0.181836873;-0.032034017;0.001298124;-0.001245497;-0.002136203;0.177685559;-0.984084189
2024/05/03/13:16:22.734605;155873;1714767382;733835798;world;0.182501614;-0.032264806;0.001278318;-0.001215755;-0.002120375;0.178282589;-0.983976364
2024/05/03/13:16:22.753447;155874;1714767382;753133965;world;0.183111802;-0.032560792;0.001244982;-0.000861544;-0.001943156;0.178915754;-0.983862102
2024/05/03/13:16:22.763252;155875;1714767382;762947961;world;0.183729261;-0.03284055;0.001232822;-0.000838912;-0.002046096;0.179744497;-0.983710825
2024/05/03/13:16:22.783689;155876;1714767382;783373148;world;0.184333488;-0.033075586;0.00123097;-0.000632598;-0.002132674;0.180450216;-0.983581662
2024/05/03/13:16:22.803418;155877;1714767382;802919199;world;0.184645757;-0.033213895;0.001227448;-0.000740237;-0.002147333;0.180651098;-0.983544648
2024/05/03/13:16:22.843690;155878;1714767382;843251207;world;0.185577348;-0.033571642;0.001251727;-0.000909366;-0.002138355;0.181541428;-0.983380556
2024/05/03/13:16:22.843720;155879;1714767382;843297183;world;0.18618691;-0.033778507;0.001280219;-0.000872679;-0.002150031;0.182205811;-0.983257711
2024/05/03/13:16:22.853317;155880;1714767382;853012126;world;0.186820999;-0.033983961;0.001333161;-0.00065486;-0.001989128;0.182849929;-0.98313868
2024/05/03/13:16:22.863669;155881;1714767382;863203240;world;0.187419623;-0.034236096;0.001299046;-0.000607399;-0.002194458;0.183488041;-0.983019292
2024/05/03/13:16:22.883282;155882;1714767382;882979220;world;0.187850296;-0.03435234;0.001314638;-0.001003144;-0.002054218;0.183853894;-0.982950985
2024/05/03/13:16:22.904487;155883;1714767382;903606597;world;0.188524872;-0.034660701;0.001258002;-0.001454084;-0.002191966;0.184624195;-0.982805669
2024/05/03/13:16:22.943371;155884;1714767382;943096030;world;0.189134315;-0.034921642;0.001252927;-0.001230826;-0.002228347;0.185365766;-0.982666373
2024/05/03/13:16:22.943403;155886;1714767382;943138970;world;0.190285146;-0.035350777;0.001262519;-0.001157922;-0.002225156;0.186459675;-0.982459426
2024/05/03/13:16:22.953622;155887;1714767382;953359389;world;0.19055818;-0.035446424;0.001258048;-0.00106989;-0.00226818;0.186710462;-0.982411802
2024/05/03/13:16:22.973607;155888;1714767382;973310174;world;0.191136256;-0.035633303;0.001284265;-0.001247635;-0.002313501;0.187271968;-0.982304573
2024/05/03/13:16:22.993374;155889;1714767382;993009091;world;0.191790313;-0.035850856;0.001287609;-0.001030573;-0.002204529;0.187949717;-0.982175648
2024/05/03/13:16:23.003481;155890;1714767383;3181128;world;0.192461461;-0.036048047;0.001290463;-0.000940685;-0.002126408;0.188686565;-0.982034683
2024/05/03/13:16:23.043319;155891;1714767383;42967870;world;0.193227798;-0.03636007;0.001270561;-0.001206596;-0.002199382;0.189448625;-0.98188746
2024/05/03/13:16:23.043342;155892;1714767383;43006893;world;0.19385469;-0.036599308;0.001256276;-0.001262665;-0.002285697;0.190196976;-0.981742501
2024/05/03/13:16:23.053234;155893;1714767383;52975537;world;0.194407493;-0.036798563;0.001285268;-0.001121163;-0.002283753;0.19081682;-0.981622458
2024/05/03/13:16:23.063424;155894;1714767383;63088684;world;0.194950968;-0.037034065;0.001315261;-0.000890009;-0.002223549;0.191435099;-0.981502354
2024/05/03/13:16:23.083643;155895;1714767383;83224148;world;0.19554083;-0.03730106;0.001333409;-0.000756123;-0.00207362;0.191992626;-0.981393933
2024/05/03/13:16:23.093272;155896;1714767383;92845223;world;0.195833445;-0.037417643;0.001330824;-0.000715522;-0.00209114;0.192267925;-0.981339991
2024/05/03/13:16:23.113232;155897;1714767383;112913711;world;0.19641152;-0.037677273;0.001333934;-0.000833162;-0.002112995;0.192853764;-0.981224954
2024/05/03/13:16:23.143655;155898;1714767383;143323695;world;0.197079822;-0.037921026;0.001337706;-0.00103045;-0.001990889;0.19337596;-0.981122255
2024/05/03/13:16:23.143684;155899;1714767383;143358320;world;0.197796673;-0.038267948;0.001277902;-0.001152042;-0.001992715;0.194076881;-0.980983675
2024/05/03/13:16:23.163261;155900;1714767383;162886295;world;0.198381305;-0.038515668;0.001290514;-0.001019218;-0.002003119;0.19484967;-0.98083055
2024/05/03/13:16:23.173355;155901;1714767383;173071538;world;0.198994577;-0.038715426;0.001322726;-0.001074917;-0.002236899;0.195674807;-0.980665743
2024/05/03/13:16:23.193525;155902;1714767383;193231377;world;0.1996025;-0.038926303;0.001355296;-0.00105157;-0.002187864;0.196207941;-0.980559349
2024/05/03/13:16:23.203785;155903;1714767383;203464489;world;0.200224608;-0.039151501;0.00134437;-0.001109974;-0.002287145;0.196783483;-0.980443716
2024/05/03/13:16:23.233413;155904;1714767383;232973253;world;0.200798035;-0.039370578;0.001321624;-0.000786186;-0.002298199;0.197264984;-0.980347276
2024/05/03/13:16:23.243516;155905;1714767383;243128605;world;0.201372191;-0.039622542;0.001311923;-0.000671142;-0.002236568;0.197851643;-0.980229259
2024/05/03/13:16:23.253438;155906;1714767383;253117824;world;0.201652035;-0.039724685;0.001323445;-0.000900832;-0.002193264;0.198068559;-0.98018527
2024/05/03/13:16:23.273545;155907;1714767383;273189458;world;0.202309832;-0.040056035;0.001320301;-0.000843615;-0.002190539;0.198877692;-0.980021536
2024/05/03/13:16:23.283139;155908;1714767383;282884843;world;0.202966407;-0.040332764;0.001272635;-0.000909782;-0.002067893;0.199519426;-0.979891241
2024/05/03/13:16:23.363853;155909;1714767383;363313958;world;0.203657225;-0.04063835;0.001242073;-0.001113805;-0.001991651;0.200131431;-0.979766369
2024/05/03/13:16:23.363882;155913;1714767383;363383318;world;0.205642238;-0.041406058;0.001298534;-0.000894513;-0.002139281;0.202544242;-0.979270458
2024/05/03/13:16:23.383735;155914;1714767383;383424456;world;0.206268743;-0.041666351;0.001305663;-0.000999348;-0.002150682;0.203146487;-0.979145527
2024/05/03/13:16:23.393319;155915;1714767383;392968675;world;0.206896752;-0.041944198;0.001321346;-0.001137199;-0.002071689;0.203732297;-0.979023814
2024/05/03/13:16:23.453478;155916;1714767383;453168499;world;0.207540751;-0.042304419;0.001256007;-0.001085885;-0.00215462;0.204424575;-0.978879333
2024/05/03/13:16:23.453486;155919;1714767383;453220747;world;0.209317252;-0.043030038;0.001303628;-0.001145534;-0.002158839;0.206041008;-0.978540301
2024/05/03/13:16:23.474221;155920;1714767383;473902847;world;0.209980279;-0.043303356;0.001321175;-0.001516415;-0.002172906;0.206560984;-0.978430152
2024/05/03/13:16:23.483986;155921;1714767383;483584711;world;0.210314825;-0.043449577;0.001331359;-0.001615967;-0.002221243;0.206852064;-0.978368402
2024/05/03/13:16:23.503552;155922;1714767383;503274535;world;0.210963964;-0.043720189;0.001307682;-0.001262604;-0.002134688;0.207650363;-0.978200018
2024/05/03/13:16:23.513404;155923;1714767383;513088801;world;0.211592183;-0.043995049;0.001358802;-0.001458971;-0.002032406;0.208389238;-0.978042841
2024/05/03/13:16:23.543612;155924;1714767383;543231552;world;0.212182492;-0.044273242;0.001338854;-0.001434264;-0.002070599;0.209098816;-0.977891326
2024/05/03/13:16:23.553674;155925;1714767383;553317751;world;0.212450624;-0.044417251;0.001332796;-0.001371823;-0.002110094;0.20942536;-0.977821469
2024/05/03/13:16:23.573550;155926;1714767383;573208023;world;0.213351786;-0.044758178;0.001357088;-0.00129991;-0.002051403;0.210205212;-0.977654278
