time;.header.seq;.header.stamp.secs;.header.stamp.nsecs;.header.frame_id;.pose.position.x;.pose.position.y;.pose.position.z;.pose.orientation.x;.pose.orientation.y;.pose.orientation.z;.pose.orientation.w
2024/05/03/13:39:15.993401;243751;1714768755;993004069;world;1.49E-05;2.09E-05;1.37E-06;5.20E-05;-5.12E-06;-3.84E-05;-1
2024/05/03/13:39:15.993453;243752;1714768755;993041278;world;-5.33E-06;8.28E-06;-1.51E-05;4.22E-06;-3.29E-05;1.21E-05;-1
2024/05/03/13:39:16.023701;243753;1714768756;23334752;world;7.56E-07;8.73E-06;-3.23E-06;6.65E-06;-1.72E-05;-1.17E-05;-1
2024/05/03/13:39:16.023744;243754;1714768756;23372773;world;9.17E-06;1.67E-05;-4.15E-07;4.40E-06;-6.75E-05;-3.65E-05;-1
2024/05/03/13:39:16.043392;243755;1714768756;42944630;world;-1.11E-06;1.62E-05;-8.05E-06;2.11E-05;-2.71E-05;3.54E-06;-1
2024/05/03/13:39:16.053399;243756;1714768756;53059477;world;-1.57E-05;7.96E-07;-1.50E-05;9.69E-05;-5.98E-05;-8.87E-06;-1
2024/05/03/13:39:16.073574;243757;1714768756;73274533;world;7.72E-06;9.19E-06;-6.64E-06;-8.41E-06;-7.86E-05;-6.00E-06;-1
2024/05/03/13:39:16.093449;243758;1714768756;93165123;world;5.27E-06;1.18E-05;-1.11E-05;7.73E-05;-8.36E-07;-1.46E-05;-1
2024/05/03/13:39:16.113204;243759;1714768756;112887511;world;5.38E-06;9.58E-06;-3.29E-06;7.66E-05;-4.83E-05;-1.08E-05;-1
2024/05/03/13:39:16.123584;243760;1714768756;123290563;world;-9.35E-07;1.35E-05;-1.26E-06;4.92E-05;-9.92E-05;-3.18E-05;-1
2024/05/03/13:39:16.133401;243761;1714768756;133034020;world;-2.13E-06;5.13E-06;-2.90E-06;6.26E-05;-4.80E-05;-3.14E-06;-1
2024/05/03/13:39:16.153597;243762;1714768756;153313715;world;4.90E-06;1.15E-05;-5.16E-06;8.32E-05;-1.93E-05;-4.13E-05;-1
2024/05/03/13:39:16.163511;243763;1714768756;163176336;world;-4.99E-06;7.56E-06;3.33E-06;7.24E-05;-3.97E-05;-3.65E-05;-1
2024/05/03/13:39:16.193274;243764;1714768756;192954165;world;1.16E-05;1.08E-05;-4.27E-07;4.65E-05;-0.000131003;-3.27E-05;-1
2024/05/03/13:39:16.193311;243765;1714768756;192990152;world;1.01E-05;8.52E-06;-4.29E-06;9.19E-05;-7.64E-05;-4.51E-05;-1
2024/05/03/13:39:16.213333;243766;1714768756;212999332;world;-1.26E-05;-1.64E-06;-4.95E-06;0.000119138;-3.48E-05;1.50E-05;-1
2024/05/03/13:39:16.223392;243767;1714768756;223068674;world;-4.89E-06;-6.43E-08;9.12E-07;8.21E-05;-6.09E-05;8.30E-06;-1
2024/05/03/13:39:16.243253;243768;1714768756;242915944;world;2.84E-06;3.75E-06;-3.75E-06;5.80E-05;-6.88E-05;-1.74E-05;-1
2024/05/03/13:39:16.253387;243769;1714768756;253025359;world;-7.59E-06;7.50E-06;-9.90E-06;5.97E-05;-1.73E-05;-2.79E-05;-1
2024/05/03/13:39:16.273498;243770;1714768756;273156329;world;1.21E-05;5.81E-06;-2.45E-05;-5.93E-05;-5.08E-05;-5.75E-05;-1
2024/05/03/13:39:16.293335;243771;1714768756;293029868;world;-6.13E-06;1.52E-05;-2.43E-06;7.17E-05;-2.48E-05;-1.55E-05;-1
2024/05/03/13:39:16.313543;243772;1714768756;313245154;world;-6.81E-06;5.97E-07;3.41E-06;5.27E-05;-3.60E-05;1.63E-06;-1
2024/05/03/13:39:16.333308;243773;1714768756;332988020;world;-7.38E-06;4.80E-06;-1.23E-05;2.44E-05;-5.81E-06;1.40E-05;-1
2024/05/03/13:39:16.333336;243774;1714768756;333028185;world;2.91E-05;2.33E-05;-7.06E-06;-4.65E-05;-7.43E-05;-3.75E-05;-1
2024/05/03/13:39:16.353574;243775;1714768756;353237375;world;-1.37E-05;-2.07E-06;-3.24E-06;5.45E-05;-1.87E-05;-2.13E-05;-1
2024/05/03/13:39:16.364524;243776;1714768756;363086650;world;7.60E-06;3.71E-06;6.14E-06;9.11E-05;-9.63E-05;-3.08E-05;-1
2024/05/03/13:39:16.383352;243777;1714768756;383030741;world;6.28E-06;1.58E-05;-7.64E-06;3.28E-05;-5.18E-05;-4.89E-05;-1
2024/05/03/13:39:16.403502;243778;1714768756;403145913;world;1.58E-06;7.47E-06;-4.17E-07;5.57E-05;5.92E-06;-1.84E-05;-1
2024/05/03/13:39:16.423574;243779;1714768756;423226716;world;5.66E-07;1.34E-05;-1.27E-05;3.74E-05;-3.67E-05;-2.19E-06;-1
2024/05/03/13:39:16.433209;243780;1714768756;432893708;world;-3.13E-05;8.97E-06;-8.73E-06;5.12E-05;-2.39E-05;5.44E-06;-1
2024/05/03/13:39:16.443535;243781;1714768756;443227374;world;1.24E-05;1.42E-05;-6.53E-06;3.62E-05;-1.17E-05;2.58E-06;-1
2024/05/03/13:39:16.463955;243782;1714768756;463302697;world;3.36E-06;1.28E-05;-1.08E-05;4.49E-05;-3.24E-05;-2.70E-05;-1
2024/05/03/13:39:16.473378;243783;1714768756;473046642;world;-3.02E-06;1.98E-06;-6.49E-06;5.01E-05;-5.18E-05;-3.14E-06;-1
2024/05/03/13:39:16.503655;243784;1714768756;503345356;world;-4.13E-06;9.10E-06;-1.07E-05;6.97E-05;-3.77E-05;-6.96E-06;-1
2024/05/03/13:39:16.503685;243785;1714768756;503380632;world;1.31E-05;1.41E-05;-2.60E-06;3.61E-05;-1.43E-05;-8.86E-06;-1
2024/05/03/13:39:16.523448;243786;1714768756;523068096;world;-2.71E-06;-2.49E-07;-1.25E-06;2.85E-05;-4.65E-05;6.40E-06;-1
2024/05/03/13:39:16.543432;243787;1714768756;543115938;world;-8.18E-06;5.87E-06;-1.11E-05;8.47E-05;-1.18E-05;-6.95E-06;-1
2024/05/03/13:39:16.553365;243788;1714768756;552984838;world;-8.70E-06;1.07E-05;-1.62E-05;8.56E-05;-4.36E-05;6.39E-06;-1
2024/05/03/13:39:16.573715;243789;1714768756;573137837;world;-5.50E-06;1.17E-05;-7.21E-06;8.34E-05;-1.74E-05;9.26E-06;-1
2024/05/03/13:39:16.583279;243790;1714768756;582980586;world;1.75E-05;1.78E-05;-6.63E-07;8.62E-05;-3.91E-05;-6.96E-06;-1
2024/05/03/13:39:16.603382;243791;1714768756;603053727;world;2.69E-05;1.74E-05;-2.51E-05;-4.72E-05;6.25E-06;-6.32E-05;-1
2024/05/03/13:39:16.623350;243792;1714768756;623070806;world;1.15E-05;1.51E-05;-2.15E-05;8.66E-06;-1.16E-05;-9.81E-06;-1
2024/05/03/13:39:16.633333;243793;1714768756;633023168;world;1.12E-08;8.38E-06;-9.16E-06;5.31E-05;-5.26E-05;-1.55E-05;-1
2024/05/03/13:39:16.643523;243794;1714768756;643249512;world;8.98E-07;1.54E-05;-2.60E-06;6.52E-05;-5.97E-05;-1.74E-05;-1
2024/05/03/13:39:16.663712;243795;1714768756;663396049;world;6.65E-06;2.14E-06;-5.97E-06;2.86E-05;-4.36E-05;-3.14E-06;-1
2024/05/03/13:39:16.683424;243796;1714768756;683068003;world;-1.98E-05;-1.79E-06;-5.51E-06;0.000103622;-2.08E-05;7.35E-06;-1
2024/05/03/13:39:16.703588;243797;1714768756;703241070;world;-7.80E-06;4.94E-06;-5.04E-06;-1.25E-05;-3.60E-05;-9.81E-06;-1
2024/05/03/13:39:16.713301;243798;1714768756;713023806;world;-6.19E-06;1.82E-07;-1.49E-05;1.16E-05;-1.03E-05;1.59E-05;-1
2024/05/03/13:39:16.723671;243799;1714768756;723379784;world;-9.37E-06;7.52E-06;-3.18E-06;5.06E-06;-1.79E-05;2.83E-05;-1
2024/05/03/13:39:16.743329;243800;1714768756;742979161;world;4.98E-06;1.01E-05;2.13E-06;5.11E-05;-4.41E-05;-1.74E-05;-1
2024/05/03/13:39:16.763634;243801;1714768756;763308719;world;-5.36E-06;7.12E-06;1.17E-07;3.84E-05;-2.81E-05;-3.27E-05;-1
2024/05/03/13:39:16.773370;243802;1714768756;773109172;world;-8.06E-06;7.78E-06;1.39E-07;9.53E-05;-2.04E-05;6.74E-07;-1
2024/05/03/13:39:16.783637;243803;1714768756;783380930;world;-4.95E-07;3.88E-06;-1.86E-06;8.02E-06;-1.49E-05;5.44E-06;-1
2024/05/03/13:39:16.803543;243804;1714768756;803208943;world;6.41E-06;1.07E-05;-1.68E-06;1.69E-05;-2.75E-05;-2.79E-05;-1
2024/05/03/13:39:16.833537;243805;1714768756;833216765;world;-1.63E-05;-1.49E-06;-6.62E-06;7.06E-05;-4.56E-05;6.72E-07;-1
2024/05/03/13:39:16.843877;243806;1714768756;843415768;world;-2.95E-05;-5.10E-06;-1.05E-05;5.94E-05;-1.29E-05;5.03E-05;-1
2024/05/03/13:39:16.853542;243807;1714768756;853043789;world;8.56E-06;1.06E-05;-2.44E-06;2.58E-05;-5.26E-05;-1.23E-06;-1
2024/05/03/13:39:16.863621;243808;1714768756;863354250;world;1.21E-05;1.15E-05;5.44E-06;9.23E-05;-5.25E-05;-1.65E-05;-1
2024/05/03/13:39:16.883658;243809;1714768756;883314119;world;-6.47E-06;-2.17E-06;-7.61E-06;-1.33E-05;-2.17E-05;8.31E-06;-1
2024/05/03/13:39:16.893312;243810;1714768756;892985648;world;-2.29E-06;1.31E-05;1.86E-06;4.05E-05;-6.14E-05;4.49E-06;-1
2024/05/03/13:39:16.913503;243811;1714768756;913209782;world;-1.29E-05;-4.30E-06;-2.34E-06;7.33E-05;-3.84E-05;2.07E-05;-1
2024/05/03/13:39:16.943469;243812;1714768756;942964952;world;9.76E-07;-3.93E-06;1.74E-06;6.67E-05;-4.92E-05;-1.94E-05;-1
2024/05/03/13:39:16.943534;243813;1714768756;943001880;world;-2.90E-06;8.25E-06;2.31E-06;5.55E-05;-5.22E-05;-6.00E-06;-1
2024/05/03/13:39:16.964047;243814;1714768756;963304939;world;-3.35E-05;-4.99E-06;3.65E-06;8.36E-05;6.66E-06;1.59E-05;-1
2024/05/03/13:39:16.973525;243815;1714768756;973221807;world;-1.91E-05;-6.64E-06;-1.12E-05;3.91E-05;-3.44E-05;-2.13E-05;-1
2024/05/03/13:39:16.993687;243816;1714768756;993280040;world;8.07E-06;1.09E-05;-7.23E-06;9.25E-05;-3.82E-05;-2.98E-05;-1
2024/05/03/13:39:17.013378;243817;1714768757;13046901;world;2.80E-06;9.24E-06;2.39E-07;1.18E-05;-3.28E-05;-3.08E-05;-1
2024/05/03/13:39:17.033587;243818;1714768757;33348667;world;-5.51E-06;-3.90E-07;-7.06E-06;6.33E-05;-2.92E-05;-4.09E-06;-1
2024/05/03/13:39:17.033606;243819;1714768757;33383542;world;-1.22E-05;1.46E-05;-7.23E-06;4.52E-05;-4.11E-06;-6.00E-06;-1
2024/05/03/13:39:17.053594;243820;1714768757;53086634;world;1.30E-06;-2.20E-06;-1.20E-05;1.75E-05;-6.31E-05;-2.60E-05;-1
2024/05/03/13:39:17.073496;243821;1714768757;73204450;world;-9.32E-06;8.53E-06;2.40E-06;7.87E-05;-3.93E-05;-2.19E-06;-1
2024/05/03/13:39:17.083511;243822;1714768757;83184013;world;-7.11E-06;5.75E-06;2.26E-06;9.87E-05;-7.51E-05;2.16E-05;-1
2024/05/03/13:39:17.103402;243823;1714768757;102931529;world;-1.06E-05;6.62E-06;-1.75E-05;5.04E-05;2.10E-05;-2.18E-06;-1
2024/05/03/13:39:17.123340;243824;1714768757;123026441;world;-6.97E-07;9.18E-06;-5.01E-07;3.40E-05;-2.29E-05;6.40E-06;-1
2024/05/03/13:39:17.133376;243825;1714768757;133040819;world;-1.57E-05;8.03E-06;-1.17E-06;7.27E-05;-6.52E-05;5.44E-06;-1
2024/05/03/13:39:17.153532;243826;1714768757;153257610;world;-5.22E-06;9.22E-06;3.14E-06;7.25E-05;-3.10E-05;-1.46E-05;-1
2024/05/03/13:39:17.163786;243827;1714768757;163386773;world;-1.44E-05;7.61E-06;-5.77E-06;6.42E-05;1.28E-05;1.59E-05;-1
2024/05/03/13:39:17.183786;243828;1714768757;183371538;world;6.69E-06;2.23E-05;-9.28E-06;8.86E-06;-5.48E-06;-1.36E-05;-1
2024/05/03/13:39:17.193362;243829;1714768757;192919260;world;-7.28E-06;5.80E-06;-4.49E-06;1.78E-05;-4.16E-05;-2.03E-05;-1
2024/05/03/13:39:17.213448;243830;1714768757;213174418;world;-8.08E-06;4.28E-06;3.42E-06;8.46E-05;-2.85E-05;1.63E-06;-1
2024/05/03/13:39:17.233432;243831;1714768757;233027056;world;-1.03E-05;6.61E-06;-4.96E-06;5.96E-05;-8.70E-05;1.12E-05;-1
2024/05/03/13:39:17.243756;243832;1714768757;243213459;world;-1.25E-05;7.65E-06;-3.98E-06;5.59E-05;-2.77E-05;-2.32E-05;-1
2024/05/03/13:39:17.263918;243833;1714768757;263568254;world;-1.40E-05;5.11E-06;-9.01E-06;3.08E-05;-1.09E-05;-4.09E-06;-1
2024/05/03/13:39:17.273442;243834;1714768757;273146162;world;1.19E-05;9.95E-06;-7.64E-06;0.000105212;-4.49E-05;-1.65E-05;-1
2024/05/03/13:39:17.293751;243835;1714768757;293353643;world;-1.72E-05;1.54E-05;-7.66E-06;5.54E-05;-3.10E-05;-2.60E-05;-1
2024/05/03/13:39:17.303620;243836;1714768757;303264239;world;-3.33E-06;8.27E-06;-1.01E-05;-8.12E-06;-1.13E-05;-1.84E-05;-1
2024/05/03/13:39:17.323711;243837;1714768757;323311462;world;3.30E-06;1.09E-05;8.03E-06;9.90E-05;-7.61E-05;-2.32E-05;-1
2024/05/03/13:39:17.343667;243838;1714768757;343274027;world;-1.82E-05;9.47E-06;-2.73E-06;3.25E-05;4.73E-06;3.12E-05;-1
2024/05/03/13:39:17.353539;243839;1714768757;353105999;world;-2.02E-05;4.61E-06;-5.51E-06;-1.92E-06;-9.95E-06;6.76E-07;-1
2024/05/03/13:39:17.373526;243840;1714768757;373179178;world;1.67E-05;2.75E-05;-3.54E-06;1.99E-05;-4.72E-05;-4.03E-05;-1
2024/05/03/13:39:17.384015;243841;1714768757;383350370;world;8.52E-06;1.91E-05;9.70E-06;6.01E-05;-6.72E-05;-2.32E-05;-1
2024/05/03/13:39:17.403360;243842;1714768757;402913311;world;-2.20E-05;6.20E-06;-2.05E-06;7.26E-05;-4.96E-05;-2.32E-05;-1
2024/05/03/13:39:17.423370;243843;1714768757;422976825;world;-1.50E-05;1.55E-05;3.39E-06;8.86E-05;-9.55E-05;-1.65E-05;-1
2024/05/03/13:39:17.433548;243844;1714768757;433251247;world;6.76E-06;3.31E-05;1.26E-06;5.60E-05;3.12E-05;-1.65E-05;-1
2024/05/03/13:39:17.443297;243845;1714768757;442912983;world;-2.19E-05;-1.99E-06;-4.98E-06;3.25E-05;-1.74E-05;2.45E-05;-1
2024/05/03/13:39:17.463688;243846;1714768757;463352826;world;-5.65E-06;1.23E-05;6.16E-06;4.14E-05;-5.23E-06;1.63E-06;-1
2024/05/03/13:39:17.473416;243847;1714768757;473047109;world;-1.76E-06;2.54E-05;-3.10E-06;9.59E-06;-2.21E-05;-1.36E-05;-1
2024/05/03/13:39:17.493643;243848;1714768757;493345730;world;-2.36E-05;7.41E-06;-6.82E-06;5.11E-05;-1.63E-05;-2.79E-05;-1
2024/05/03/13:39:17.513872;243849;1714768757;513482828;world;7.51E-06;2.37E-05;-1.22E-06;6.65E-06;-5.11E-05;-6.95E-06;-1
2024/05/03/13:39:17.524368;243850;1714768757;524030671;world;-5.78E-06;1.11E-05;-1.18E-05;-5.40E-05;-1.38E-05;-4.22E-05;-1
2024/05/03/13:39:17.553697;243851;1714768757;553278460;world;-8.17E-06;5.91E-06;-4.04E-06;7.62E-05;-7.89E-05;-2.41E-05;-1
2024/05/03/13:39:17.563656;243852;1714768757;563339945;world;-2.35E-06;1.26E-05;2.54E-06;9.49E-05;-9.80E-06;2.58E-06;-1
2024/05/03/13:39:17.573101;243853;1714768757;572846852;world;4.33E-06;1.88E-05;-2.36E-06;-5.97E-06;-4.92E-05;-2.41E-05;-1
2024/05/03/13:39:17.583387;243854;1714768757;583043458;world;-1.68E-05;6.72E-06;-9.36E-08;6.10E-05;-2.34E-05;-4.09E-06;-1
2024/05/03/13:39:17.603356;243855;1714768757;603132199;world;-5.31E-06;1.63E-05;-7.87E-06;6.44E-05;-6.33E-05;-9.82E-06;-1
2024/05/03/13:39:17.623529;243856;1714768757;623043348;world;-8.56E-06;1.26E-05;-1.55E-05;3.19E-05;-1.62E-05;-2.19E-06;-1
2024/05/03/13:39:17.633699;243857;1714768757;633196757;world;-2.79E-06;1.33E-05;-8.08E-06;2.07E-05;-4.62E-05;-2.98E-05;-1
2024/05/03/13:39:17.653795;243858;1714768757;653414808;world;-1.02E-06;1.73E-05;1.12E-08;4.01E-05;-2.20E-05;3.54E-06;-1
2024/05/03/13:39:17.673467;243859;1714768757;673101910;world;-1.12E-05;-3.71E-07;-6.38E-06;5.79E-05;-1.88E-05;-1.23E-06;-1
2024/05/03/13:39:17.683290;243860;1714768757;682984695;world;-1.30E-05;1.14E-05;-1.18E-05;2.15E-06;-3.16E-05;3.88E-05;-1
2024/05/03/13:39:17.693228;243861;1714768757;692916790;world;5.30E-06;2.35E-05;-4.22E-06;3.94E-05;4.48E-06;-4.13E-05;-1
2024/05/03/13:39:17.713586;243862;1714768757;713297314;world;-6.28E-06;9.68E-06;8.50E-06;7.70E-05;-6.82E-05;-5.56E-05;-1
2024/05/03/13:39:17.733543;243863;1714768757;733096857;world;-6.78E-06;1.34E-05;-6.42E-06;2.43E-05;-2.93E-05;-8.86E-06;-1
2024/05/03/13:39:17.753362;243864;1714768757;753065111;world;-1.06E-05;1.37E-05;-1.50E-05;-1.48E-05;2.72E-06;-3.14E-06;-1
2024/05/03/13:39:17.753383;243865;1714768757;753100577;world;2.18E-06;1.38E-05;-1.28E-05;2.00E-05;-4.06E-05;-2.13E-05;-1
2024/05/03/13:39:17.773475;243866;1714768757;773242586;world;-1.23E-05;1.19E-05;3.22E-06;8.04E-05;-6.08E-05;-3.46E-05;-1
2024/05/03/13:39:17.793814;243867;1714768757;793427707;world;1.86E-05;2.36E-05;-3.91E-06;4.80E-05;1.00E-06;-2.70E-05;-1
2024/05/03/13:39:17.803564;243868;1714768757;803278411;world;3.96E-06;1.30E-05;-1.28E-05;1.35E-05;-6.14E-06;2.83E-05;-1
2024/05/03/13:39:17.833862;243869;1714768757;833438277;world;-9.04E-06;2.33E-05;-4.58E-06;8.17E-05;-5.40E-05;-3.56E-05;-1
2024/05/03/13:39:17.833893;243870;1714768757;833475957;world;-6.21E-06;8.56E-07;-1.71E-06;5.93E-05;-1.88E-05;-1.17E-05;-1
2024/05/03/13:39:17.853581;243871;1714768757;853209906;world;-2.28E-06;1.57E-05;8.60E-07;4.50E-05;-8.74E-05;-2.22E-05;-1
2024/05/03/13:39:17.873333;243872;1714768757;873048782;world;-6.18E-06;1.66E-05;-2.13E-05;2.67E-05;4.31E-05;3.54E-06;-1
2024/05/03/13:39:17.883262;243873;1714768757;882981408;world;-3.36E-05;2.88E-06;-1.58E-05;3.47E-05;1.10E-05;8.31E-06;-1
2024/05/03/13:39:17.893143;243874;1714768757;892850247;world;-2.54E-05;9.56E-06;-9.53E-07;4.29E-05;1.17E-05;1.31E-05;-1
2024/05/03/13:39:17.913452;243875;1714768757;913169075;world;-2.21E-05;5.56E-06;-1.02E-06;6.09E-05;1.76E-05;1.50E-05;-1
2024/05/03/13:39:17.933485;243876;1714768757;933238960;world;-2.15E-05;-6.40E-06;-1.13E-05;8.43E-05;-4.46E-05;2.26E-05;-1
2024/05/03/13:39:17.973835;243877;1714768757;973381506;world;-1.28E-05;1.10E-05;-9.52E-06;7.31E-05;-3.95E-07;1.21E-05;-1
2024/05/03/13:39:17.973866;243879;1714768757;973426239;world;-2.51E-05;-6.64E-06;-7.22E-06;5.46E-05;-1.33E-05;2.36E-05;-1
2024/05/03/13:39:17.993221;243880;1714768757;992925522;world;-1.12E-05;1.59E-05;-1.06E-05;5.26E-05;-6.32E-05;-1.24E-06;-1
2024/05/03/13:39:18.013470;243881;1714768758;13153381;world;-2.66E-05;4.02E-06;-1.22E-05;3.90E-05;-4.53E-05;2.07E-05;-1
2024/05/03/13:39:18.023237;243882;1714768758;22961978;world;-5.74E-06;1.17E-05;-1.11E-05;9.71E-05;-8.32E-05;-2.60E-05;-1
2024/05/03/13:39:18.033572;243883;1714768758;33288719;world;-2.05E-05;1.52E-05;-4.26E-06;4.76E-05;1.21E-05;-2.78E-07;-1
2024/05/03/13:39:18.054402;243884;1714768758;54045814;world;9.76E-07;8.04E-06;-1.40E-05;4.59E-05;-3.26E-05;-2.79E-05;-1
2024/05/03/13:39:18.073669;243885;1714768758;73382805;world;-3.08E-05;1.13E-05;-5.57E-06;7.30E-05;-4.14E-05;2.93E-05;-1
2024/05/03/13:39:18.083551;243886;1714768758;82901962;world;-3.12E-05;5.54E-06;-9.93E-06;1.43E-05;-3.54E-05;2.45E-05;-1
2024/05/03/13:39:18.103449;243887;1714768758;103177452;world;-1.51E-05;3.00E-06;-8.64E-06;2.73E-05;-4.71E-05;-4.09E-06;-1
2024/05/03/13:39:18.113206;243888;1714768758;112902352;world;1.47E-05;2.43E-05;-8.67E-06;2.33E-05;-1.40E-06;-1.08E-05;-1
2024/05/03/13:39:18.143496;243889;1714768758;143161983;world;-6.29E-06;1.15E-05;-3.93E-06;2.63E-05;-2.55E-05;-1.08E-05;-1
2024/05/03/13:39:18.183515;243890;1714768758;183216143;world;-5.73E-06;3.65E-06;5.23E-07;5.17E-05;-2.20E-05;2.58E-06;-1
2024/05/03/13:39:18.183543;243892;1714768758;183259624;world;-3.32E-06;8.38E-06;-6.64E-06;5.70E-05;-1.88E-05;-1.65E-05;-1
2024/05/03/13:39:18.193314;243893;1714768758;193005033;world;-3.03E-05;3.54E-06;-7.79E-06;6.43E-05;-2.25E-05;1.50E-05;-1
2024/05/03/13:39:18.213507;243894;1714768758;213110736;world;1.44E-05;1.10E-05;1.28E-05;7.38E-05;-3.58E-05;-1.17E-05;-1
2024/05/03/13:39:18.223515;243895;1714768758;223175203;world;-1.52E-05;9.88E-06;-1.06E-05;8.12E-05;-0.000114476;-2.32E-05;-1
2024/05/03/13:39:18.243381;243896;1714768758;243051263;world;-3.44E-06;1.02E-05;-2.76E-05;7.89E-08;-2.41E-05;-2.98E-05;-1
2024/05/03/13:39:18.284051;243897;1714768758;283623604;world;-5.63E-06;2.58E-05;-4.20E-06;4.51E-05;-7.06E-05;-6.96E-06;-1
2024/05/03/13:39:18.284087;243899;1714768758;283669990;world;3.80E-06;-7.58E-07;-1.23E-05;-3.60E-05;1.78E-05;0.001717288;-0.999998569
2024/05/03/13:39:18.303241;243900;1714768758;302936455;world;3.44E-05;3.59E-05;-1.86E-05;-0.000119597;-4.07E-05;0.003125866;-0.999995112
2024/05/03/13:39:18.323363;243901;1714768758;323053528;world;2.94E-05;1.56E-05;5.62E-07;-7.67E-05;-0.00011237;0.00501699;-0.999987483
2024/05/03/13:39:18.344485;243902;1714768758;344076013;world;5.55E-05;1.56E-05;1.86E-05;-0.000164315;-0.000122597;0.00610036;-0.999981403
2024/05/03/13:39:18.353479;243903;1714768758;353143415;world;3.16E-05;1.63E-05;2.71E-05;-2.99E-06;-0.000161268;0.008305177;-0.999965549
2024/05/03/13:39:18.393630;243904;1714768758;393275179;world;5.70E-06;-2.42E-05;-2.69E-07;-0.000108529;-0.000333698;0.01082089;-0.999941468
2024/05/03/13:39:18.393657;243906;1714768758;393320794;world;-2.81E-06;-1.51E-05;4.09E-05;0.000104027;-7.11E-05;0.016183816;-0.999869108
2024/05/03/13:39:18.413278;243907;1714768758;412984344;world;3.66E-05;-7.12E-06;9.32E-06;4.10E-05;-0.000155721;0.018913766;-0.999821067
2024/05/03/13:39:18.433398;243908;1714768758;433134280;world;4.28E-05;1.11E-05;-1.33E-06;-9.57E-06;-0.000129045;0.021536794;-0.999768078
2024/05/03/13:39:18.453686;243909;1714768758;453176659;world;3.53E-06;-2.62E-05;-9.38E-06;-0.000118965;-8.42E-05;0.024172071;-0.999707878
2024/05/03/13:39:18.473640;243910;1714768758;473372011;world;3.68E-05;-1.43E-05;6.59E-06;-0.000115346;-9.73E-05;0.026787147;-0.99964118
2024/05/03/13:39:18.483248;243911;1714768758;482967853;world;8.53E-06;-6.18E-06;1.12E-05;-9.69E-05;-4.23E-05;0.028155148;-0.99960357
2024/05/03/13:39:18.493298;243912;1714768758;492992840;world;-9.55E-05;-7.77E-05;-7.77E-06;8.74E-05;-9.68E-05;0.030890033;-0.999522805
2024/05/03/13:39:18.503488;243913;1714768758;503241626;world;-8.33E-05;-7.20E-05;-1.34E-05;6.27E-05;-0.000121733;0.033340666;-0.999444067
2024/05/03/13:39:18.523367;243914;1714768758;523036591;world;-4.06E-05;-3.04E-05;1.29E-05;-0.000204692;-0.0001839;0.035634831;-0.999364913
2024/05/03/13:39:18.553429;243915;1714768758;553095861;world;-7.48E-05;-6.66E-05;-1.64E-05;-1.11E-05;-0.000161322;0.038137443;-0.999272525
2024/05/03/13:39:18.553458;243916;1714768758;553130656;world;-2.71E-05;-3.09E-05;-2.04E-05;-5.20E-05;-0.000107628;0.040475957;-0.999180496
2024/05/03/13:39:18.583707;243917;1714768758;582948633;world;1.64E-05;1.29E-05;-2.27E-05;-0.000302011;-0.000160715;0.04282476;-0.999082565
2024/05/03/13:39:18.583717;243918;1714768758;582984289;world;8.95E-06;-6.15E-08;-2.18E-05;-0.000412792;-0.000178252;0.045107577;-0.998982131
2024/05/03/13:39:18.603424;243919;1714768758;603128242;world;-1.33E-05;1.11E-05;-1.97E-05;-0.000414945;-0.00019636;0.047274884;-0.998881876
2024/05/03/13:39:18.623664;243920;1714768758;623351745;world;3.55E-05;-1.42E-06;5.62E-06;-0.000556394;-0.000190612;0.049463876;-0.99877578
2024/05/03/13:39:18.633654;243921;1714768758;633073658;world;6.34E-05;-1.17E-05;2.29E-06;-0.000707449;-0.000147517;0.050409675;-0.998728454
2024/05/03/13:39:18.653725;243922;1714768758;653220398;world;5.17E-05;-4.54E-05;5.07E-06;-0.000739292;-0.000154554;0.052492589;-0.998621106
2024/05/03/13:39:18.673409;243923;1714768758;673026257;world;-9.91E-07;-6.32E-05;6.89E-06;-0.000660002;-9.51E-05;0.054512404;-0.998512924
2024/05/03/13:39:18.693299;243924;1714768758;692937913;world;3.07E-06;-9.54E-05;1.99E-05;-0.000694887;-0.00012899;0.056493953;-0.998402774
2024/05/03/13:39:18.703608;243925;1714768758;703300139;world;-4.07E-05;-8.53E-05;3.19E-05;-0.000603037;-0.000155834;0.058388643;-0.998293817
2024/05/03/13:39:18.713425;243926;1714768758;713079321;world;-4.48E-05;-9.24E-05;1.41E-05;-0.000688181;-0.000238105;0.060232729;-0.998184144
2024/05/03/13:39:18.723472;243927;1714768758;723143604;world;-2.65E-05;-6.33E-05;7.22E-06;-0.000794406;-0.000203985;0.06115701;-0.998127878
2024/05/03/13:39:18.753402;243928;1714768758;753087297;world;-5.49E-05;-5.88E-05;8.44E-06;-0.000754904;-0.000210927;0.062881738;-0.998020649
2024/05/03/13:39:18.753426;243929;1714768758;753122462;world;-3.16E-05;-5.51E-05;-1.24E-05;-0.000683246;-0.000184379;0.064525366;-0.997915804
2024/05/03/13:39:18.803640;243930;1714768758;803315454;world;-5.71E-05;-3.11E-05;-3.41E-05;-0.000656649;-0.00025002;0.066104174;-0.99781251
2024/05/03/13:39:18.803671;243932;1714768758;803359215;world;-7.66E-05;-6.66E-05;-6.91E-05;-0.000457411;-0.000239339;0.069211699;-0.997601926
2024/05/03/13:39:18.823344;243933;1714768758;823005149;world;-0.000115406;-5.75E-05;-6.42E-05;-0.000317682;-0.000171014;0.070727155;-0.997495711
2024/05/03/13:39:18.834082;243934;1714768758;833132862;world;-8.89E-05;-5.94E-05;-5.89E-05;-0.000352538;-0.00023021;0.072244383;-0.997386873
2024/05/03/13:39:18.853224;243935;1714768758;852970496;world;-8.84E-05;-6.91E-05;-5.36E-05;-0.000384609;-0.000182844;0.0729663;-0.997334361
2024/05/03/13:39:18.893219;243936;1714768758;892915074;world;-6.64E-05;-5.98E-05;-3.69E-05;-0.000466152;-0.000151169;0.074424297;-0.997226536
2024/05/03/13:39:18.893247;243938;1714768758;892959837;world;-9.21E-05;-5.83E-05;-9.18E-07;-0.000621193;-0.000125176;0.07725805;-0.997010946
2024/05/03/13:39:18.913336;243939;1714768758;913003829;world;-0.000115424;-4.75E-05;-2.17E-06;-0.000549196;-0.00011879;0.078646176;-0.996902406
2024/05/03/13:39:18.923279;243940;1714768758;922972574;world;-0.000156015;-5.99E-05;-2.83E-05;-0.000488137;-0.000177097;0.0800047;-0.996794403
2024/05/03/13:39:18.963719;243941;1714768758;963379927;world;-0.000140771;-5.08E-05;-2.91E-05;-0.000581388;-0.00017544;0.081351653;-0.996685326
2024/05/03/13:39:18.963747;243942;1714768758;963422907;world;-0.000142045;-3.54E-05;-2.44E-05;-0.000538958;-0.000164555;0.082683243;-0.996575773
2024/05/03/13:39:19.003691;243943;1714768759;3391368;world;-0.000167124;-4.45E-05;-2.26E-05;-0.000412962;-0.000200205;0.084028013;-0.996463358
2024/05/03/13:39:19.003725;243945;1714768759;3435541;world;-0.000167836;-4.05E-05;-2.64E-05;-0.000499966;-0.000222451;0.085973129;-0.9962973
2024/05/03/13:39:19.023628;243946;1714768759;23332324;world;-0.000177778;-4.36E-05;-1.57E-05;-0.000384564;-0.000231526;0.087271899;-0.996184409
2024/05/03/13:39:19.033552;243947;1714768759;33254844;world;-0.000144336;-4.56E-05;-2.98E-06;-0.000558456;-0.000332128;0.088567756;-0.996070027
2024/05/03/13:39:19.063525;243948;1714768759;63135609;world;-0.000130285;-4.91E-05;-9.80E-06;-0.000594405;-0.000316554;0.089882366;-0.995952129
2024/05/03/13:39:19.113337;243949;1714768759;113028724;world;-0.000118777;-6.82E-05;-6.77E-05;-0.00077677;-0.000538027;0.091222666;-0.995830119
2024/05/03/13:39:19.113365;243952;1714768759;113079960;world;-0.000165142;-6.69E-05;-2.03E-05;-0.000687182;-0.000464535;0.094576389;-0.995517313
2024/05/03/13:39:19.133231;243953;1714768759;132924307;world;-0.000164509;-8.04E-05;-2.24E-05;-0.000698134;-0.000445192;0.095882677;-0.995392323
2024/05/03/13:39:19.153571;243954;1714768759;153152712;world;-0.000179794;-0.00010181;-2.25E-05;-0.000701919;-0.000406887;0.097171687;-0.995267272
2024/05/03/13:39:19.163561;243955;1714768759;163258737;world;-0.000186428;-9.75E-05;-3.13E-06;-0.000751429;-0.000374077;0.098490924;-0.995137632
2024/05/03/13:39:19.183326;243956;1714768759;183031080;world;-0.000190441;-8.40E-05;1.46E-05;-0.000649278;-0.000368377;0.099785298;-0.995008707
2024/05/03/13:39:19.203588;243957;1714768759;203198105;world;-0.000222266;-8.96E-05;2.09E-05;-0.000564486;-0.000248039;0.1012749;-0.994858265
2024/05/03/13:39:19.213532;243958;1714768759;213204430;world;-0.000230875;-7.69E-05;2.66E-05;-0.00053318;-0.000248482;0.10193143;-0.994791269
2024/05/03/13:39:19.223579;243959;1714768759;223322192;world;-0.000223462;-7.23E-05;4.43E-05;-0.000539992;-0.000263;0.103895076;-0.994588137
2024/05/03/13:39:19.243541;243960;1714768759;243137449;world;-0.000204671;-6.60E-05;4.70E-05;-0.000532342;-0.000195228;0.104537137;-0.994520783
2024/05/03/13:39:19.263514;243961;1714768759;263230933;world;-0.000209779;-4.58E-05;5.14E-05;-0.00046505;-0.000194872;0.105790898;-0.994388282
2024/05/03/13:39:19.273787;243962;1714768759;273417003;world;-0.000158232;-4.88E-05;4.17E-05;-0.000659885;-0.000110097;0.107079528;-0.994250298
2024/05/03/13:39:19.293625;243963;1714768759;293263021;world;-0.000175405;-6.60E-05;5.52E-05;-0.000623771;-8.14E-05;0.108491264;-0.994097233
2024/05/03/13:39:19.313338;243964;1714768759;313039912;world;-0.000163086;-5.56E-05;6.57E-05;-0.000611525;-7.27E-05;0.109678134;-0.993966937
2024/05/03/13:39:19.323394;243965;1714768759;323085370;world;-0.000197776;-8.37E-05;6.47E-05;-0.000663449;-0.000158831;0.111033604;-0.993816435
2024/05/03/13:39:19.333536;243966;1714768759;333076406;world;-0.00018812;-7.41E-05;5.48E-05;-0.000726063;-0.000165789;0.112262793;-0.993678272
2024/05/03/13:39:19.353605;243967;1714768759;352930309;world;-0.000202373;-9.61E-05;4.68E-05;-0.000673174;-0.000207356;0.113578051;-0.993528783
2024/05/03/13:39:19.373600;243968;1714768759;373312787;world;-0.000245947;-9.39E-05;4.65E-05;-0.000642625;-0.000218654;0.114950903;-0.99337101
2024/05/03/13:39:19.393530;243969;1714768759;393150455;world;-0.000260558;-9.35E-05;5.07E-05;-0.00070551;-0.000242918;0.116273314;-0.993217051
2024/05/03/13:39:19.403691;243970;1714768759;403393295;world;-0.000267819;-9.25E-05;4.78E-05;-0.000632629;-0.000264341;0.116874784;-0.993146479
2024/05/03/13:39:19.413803;243971;1714768759;413348255;world;-0.000304908;-0.000106001;4.84E-05;-0.000683367;-0.000269775;0.118155204;-0.992994845
2024/05/03/13:39:19.423640;243972;1714768759;423331645;world;-0.00030493;-8.55E-05;4.57E-05;-0.000633694;-0.000391609;0.119371161;-0.992849469
2024/05/03/13:39:19.443583;243973;1714768759;443269866;world;-0.000328135;-0.000102609;4.88E-05;-0.00057194;-0.000356086;0.120740138;-0.992683947
2024/05/03/13:39:19.473171;243974;1714768759;472869729;world;-0.000333358;-9.33E-05;4.27E-05;-0.000537135;-0.000290894;0.121415086;-0.992601693
2024/05/03/13:39:19.473201;243975;1714768759;472904343;world;-0.000306297;-8.29E-05;6.89E-05;-0.000647133;-0.000251152;0.122679628;-0.992446125
2024/05/03/13:39:19.493710;243976;1714768759;493371669;world;-0.000274867;-9.23E-05;5.63E-05;-0.000604822;-0.000180833;0.124040514;-0.992277026
2024/05/03/13:39:19.503205;243977;1714768759;502931163;world;-0.000254348;-8.91E-05;5.30E-05;-0.000708082;-0.000324252;0.125351116;-0.99211216
2024/05/03/13:39:19.523445;243978;1714768759;523061360;world;-0.000261568;-0.000109902;4.87E-05;-0.000712069;-0.000394075;0.126699314;-0.991940916
2024/05/03/13:39:19.543911;243979;1714768759;543655422;world;-0.000221182;-0.000106908;7.45E-05;-0.000923045;-0.000352404;0.128029242;-0.99176991
2024/05/03/13:39:19.553356;243980;1714768759;553097533;world;-0.000233047;-0.00010605;8.95E-05;-0.00087721;-0.000403602;0.129314557;-0.991603196
2024/05/03/13:39:19.573798;243981;1714768759;573031598;world;-0.000267994;-0.000118189;8.26E-05;-0.001047569;-0.000513506;0.130750075;-0.991414726
2024/05/03/13:39:19.604158;243982;1714768759;603724168;world;-0.000302974;-0.000111867;8.03E-05;-0.000992129;-0.000469911;0.132047087;-0.991242886
2024/05/03/13:39:19.604183;243983;1714768759;603748574;world;-0.000288974;-0.000109999;9.34E-05;-0.001063475;-0.000499759;0.132709801;-0.991154313
2024/05/03/13:39:19.623386;243984;1714768759;623141247;world;-0.000273667;-0.000115359;9.71E-05;-0.001044317;-0.000530549;0.133934721;-0.990989506
2024/05/03/13:39:19.633455;243985;1714768759;633163842;world;-0.000287913;-9.29E-05;0.000105817;-0.001040714;-0.000588293;0.135327697;-0.990800202
2024/05/03/13:39:19.653816;243986;1714768759;653174368;world;-0.000254627;-7.79E-05;0.000114057;-0.001073354;-0.000614019;0.137315542;-0.990526557
2024/05/03/13:39:19.683476;243987;1714768759;683230621;world;-0.000257351;-8.03E-05;0.000110002;-0.001111666;-0.000614155;0.137967333;-0.990436018
2024/05/03/13:39:19.683485;243988;1714768759;683268762;world;-0.00028326;-7.55E-05;0.00010752;-0.001220747;-0.000635649;0.139380261;-0.990238011
2024/05/03/13:39:19.724091;243989;1714768759;723097924;world;-0.000278026;-6.51E-05;0.000102062;-0.001192322;-0.00065305;0.140742853;-0.990045249
2024/05/03/13:39:19.724119;243990;1714768759;723133090;world;-0.000237934;-4.97E-05;7.82E-05;-0.001295486;-0.000670466;0.14211373;-0.989849329
2024/05/03/13:39:19.734062;243991;1714768759;733155735;world;-0.000163276;-2.67E-05;0.000213101;-0.00078353;-0.000237949;0.143138364;-0.989702344
2024/05/03/13:39:19.743805;243992;1714768759;743046625;world;-0.00014399;-3.71E-05;0.000132142;-0.001171634;-0.000530411;0.143736064;-0.989615202
2024/05/03/13:39:19.763638;243993;1714768759;763334125;world;-0.000138439;-3.78E-05;0.000133308;-0.001272055;-0.000492568;0.145138338;-0.98941052
2024/05/03/13:39:19.783478;243994;1714768759;783180355;world;-0.000180084;-3.95E-05;0.000188918;-0.001162085;-0.000707935;0.14659059;-0.989196301
2024/05/03/13:39:19.814128;243995;1714768759;813842818;world;-0.000134025;-3.43E-05;0.000130775;-0.001452625;-0.000509834;0.147758111;-0.989022374
2024/05/03/13:39:19.814150;243996;1714768759;813877803;world;-0.00017719;-4.43E-05;0.000145663;-0.001297064;-0.000559294;0.14916341;-0.988811612
2024/05/03/13:39:19.823888;243997;1714768759;823559132;world;-0.000201486;-7.19E-05;0.000116083;-0.001276557;-0.000651779;0.150449648;-0.988616645
2024/05/03/13:39:19.833667;243998;1714768759;833095231;world;-0.0002019;-6.19E-05;0.000113322;-0.001278951;-0.000621108;0.151774138;-0.988414168
2024/05/03/13:39:19.863366;243999;1714768759;863060210;world;-0.000202585;-6.55E-05;0.000113605;-0.001234451;-0.000687901;0.152425557;-0.988314033
2024/05/03/13:39:19.883284;244000;1714768759;883024353;world;-0.000173461;-6.90E-05;6.98E-05;-0.00123954;-0.000671752;0.15437533;-0.988011301
2024/05/03/13:39:19.883311;244001;1714768759;883057706;world;-0.000181269;-5.82E-05;7.21E-05;-0.00112791;-0.000635353;0.155015007;-0.987911344
2024/05/03/13:39:19.903328;244002;1714768759;902932703;world;-0.000286188;-4.55E-05;9.00E-05;-0.001051762;-0.000645619;0.156649455;-0.987653553
2024/05/03/13:39:19.913533;244003;1714768759;913068413;world;-0.000282589;-4.21E-05;0.000103021;-0.001091436;-0.000536298;0.158030018;-0.987433612
2024/05/03/13:39:19.923636;244004;1714768759;923361512;world;-0.000287302;-3.67E-05;0.000115965;-0.001095939;-0.000514128;0.159334064;-0.987223983
2024/05/03/13:39:19.943181;244005;1714768759;942894879;world;-0.000300813;-2.01E-05;0.000115179;-0.001081286;-0.000474387;0.160649106;-0.987010956
2024/05/03/13:39:19.963832;244006;1714768759;963270754;world;-0.000307512;-5.64E-05;0.000132946;-0.001044021;-0.000488418;0.161965862;-0.986795664
2024/05/03/13:39:19.983560;244007;1714768759;983275129;world;-0.000319831;-6.69E-05;0.00012475;-0.00100153;-0.000427295;0.162589699;-0.986693203
2024/05/03/13:39:19.993543;244008;1714768759;993214888;world;-0.000315279;-7.58E-05;0.000132085;-0.001063526;-0.000416585;0.163905025;-0.986475527
2024/05/03/13:39:20.013575;244009;1714768760;13381705;world;-0.000296406;-6.03E-05;0.00017502;-0.001164391;-0.000531768;0.165253162;-0.986250401
2024/05/03/13:39:20.023736;244010;1714768760;23443453;world;-0.000314135;-3.30E-05;0.000183851;-0.001007996;-0.000497352;0.166691035;-0.986008584
2024/05/03/13:39:20.043598;244011;1714768760;43326719;world;-0.000236616;-3.80E-05;0.000136015;-0.0012139;-0.000370525;0.167827621;-0.985815525
2024/05/03/13:39:20.053583;244012;1714768760;52946427;world;-0.000297174;-5.57E-05;0.000154188;-0.001208473;-0.000587035;0.169472903;-0.985533953
2024/05/03/13:39:20.073367;244013;1714768760;73063640;world;-0.000319649;-5.71E-05;0.000177711;-0.00120192;-0.000650154;0.170839414;-0.985297978
2024/05/03/13:39:20.083331;244014;1714768760;82974587;world;-0.000243418;-4.02E-05;0.000174236;-0.001194204;-0.000623727;0.172121853;-0.985074759
2024/05/03/13:39:20.154115;244015;1714768760;153242006;world;-0.000242796;-6.10E-05;0.000145174;-0.001376367;-0.000584942;0.173401162;-0.984850168
2024/05/03/13:39:20.154145;244018;1714768760;153292159;world;-0.000168066;-8.51E-05;0.000130589;-0.001600006;-0.000360206;0.17647399;-0.984304011
2024/05/03/13:39:20.163395;244019;1714768760;163051024;world;-0.000177752;-8.54E-05;0.000140948;-0.0015272;-0.000346249;0.177912846;-0.984045029
2024/05/03/13:39:20.194156;244020;1714768760;193420070;world;-0.000193689;-7.89E-05;0.000144185;-0.00158951;-0.000408551;0.179231286;-0.983805656
2024/05/03/13:39:20.213653;244021;1714768760;213339851;world;-0.000208743;-6.67E-05;0.000153107;-0.001595614;-0.000451815;0.180484653;-0.983576477
2024/05/03/13:39:20.213678;244022;1714768760;213370589;world;-0.000218216;-6.51E-05;0.000154355;-0.001562081;-0.000461398;0.181737736;-0.983345747
2024/05/03/13:39:20.233115;244023;1714768760;232861151;world;-0.000210308;-7.24E-05;0.000160551;-0.001542347;-0.000412339;0.182379991;-0.983226836
2024/05/03/13:39:20.243597;244024;1714768760;243285289;world;-0.000237077;-7.90E-05;0.000180658;-0.001559303;-0.000430537;0.183699176;-0.982981265
2024/05/03/13:39:20.263743;244025;1714768760;263414080;world;-0.000237036;-8.89E-05;0.000186442;-0.001484054;-0.000379662;0.184999198;-0.982737482
2024/05/03/13:39:20.273314;244026;1714768760;272950820;world;-0.000268206;-9.21E-05;0.000194035;-0.001485931;-0.000446644;0.18628782;-0.982494056
2024/05/03/13:39:20.293339;244027;1714768760;293079935;world;-0.000264935;-9.18E-05;0.000193264;-0.00145421;-0.000380982;0.187577814;-0.982248664
2024/05/03/13:39:20.323339;244028;1714768760;323027708;world;-0.000241026;-7.86E-05;0.000215012;-0.001481107;-0.000403186;0.18890591;-0.981993973
2024/05/03/13:39:20.323368;244029;1714768760;323062442;world;-0.000254456;-8.67E-05;0.000217717;-0.001529138;-0.000364628;0.190203652;-0.981743455
2024/05/03/13:39:20.353464;244030;1714768760;353050361;world;-0.000252597;-7.26E-05;0.000236895;-0.001570233;-0.000418992;0.191617325;-0.981468439
2024/05/03/13:39:20.353487;244031;1714768760;353088722;world;-0.000264319;-6.11E-05;0.000234969;-0.001568343;-0.000429997;0.192241579;-0.981346309
2024/05/03/13:39:20.363540;244032;1714768760;363267886;world;-0.000227015;-0.000104709;0.000245699;-0.001634387;-0.000295216;0.193579465;-0.981083214
2024/05/03/13:39:20.393135;244033;1714768760;392859405;world;-0.000207573;-0.000101753;0.000231891;-0.001629981;-0.000271502;0.19498831;-0.980804265
2024/05/03/13:39:20.403720;244034;1714768760;403308380;world;-0.000201784;-7.18E-05;0.000237185;-0.001580363;-0.000372407;0.196264163;-0.980549753
2024/05/03/13:39:20.423447;244035;1714768760;423229455;world;-0.000186116;-8.40E-05;0.00023208;-0.001584593;-0.000390801;0.197574139;-0.980286658
2024/05/03/13:39:20.433379;244036;1714768760;433072144;world;-0.000195952;-5.48E-05;0.000229987;-0.001405714;-0.000465029;0.198779196;-0.980043173
2024/05/03/13:39:20.443605;244037;1714768760;443183462;world;-0.000204116;-5.11E-05;0.000222435;-0.001365805;-0.000418695;0.20006597;-0.979781389
2024/05/03/13:39:20.464076;244038;1714768760;463546475;world;-0.000250598;-3.71E-05;0.000213666;-0.001361878;-0.00044179;0.201359943;-0.979516327
2024/05/03/13:39:20.473427;244039;1714768760;473106669;world;-0.000244122;-5.28E-05;0.000212072;-0.001374583;-0.000457075;0.202068925;-0.979370296
2024/05/03/13:39:20.493896;244040;1714768760;493515518;world;-0.000216242;-3.14E-05;0.000216907;-0.001414815;-0.000528006;0.203393251;-0.979095936
2024/05/03/13:39:20.523671;244041;1714768760;523193936;world;-0.000229429;-2.83E-05;0.000207178;-0.001468574;-0.000533484;0.204691917;-0.978825271
2024/05/03/13:39:20.523697;244042;1714768760;523228550;world;-0.000235669;-3.66E-05;0.000216074;-0.001475911;-0.00053283;0.206022829;-0.978545904
2024/05/03/13:39:20.543946;244043;1714768760;543594699;world;-0.000277845;-4.80E-05;0.000191722;-0.001615009;-0.000589328;0.20736368;-0.978262424
2024/05/03/13:39:20.553522;244044;1714768760;553224813;world;-0.000282193;-4.34E-05;0.000186656;-0.001581075;-0.000689635;0.20878917;-0.977959156
2024/05/03/13:39:20.573486;244045;1714768760;573093956;world;-0.000298046;-6.23E-05;0.000189357;-0.001600881;-0.000720584;0.210129216;-0.97767204
2024/05/03/13:39:20.593438;244046;1714768760;593087919;world;-0.000298554;-5.95E-05;0.000199947;-0.001609899;-0.000736455;0.210745543;-0.97753942
2024/05/03/13:39:20.603762;244047;1714768760;603299506;world;-0.000229552;-5.01E-05;0.000258614;-0.002001611;-0.000426145;0.212101892;-0.97724539
2024/05/03/13:39:20.623795;244048;1714768760;623413595;world;-0.000216905;-5.38E-05;0.000246429;-0.002033922;-0.000417644;0.213315099;-0.976981223
2024/05/03/13:39:20.634487;244049;1714768760;634186817;world;-0.000222802;-4.74E-05;0.000233072;-0.002103987;-0.000514631;0.214635298;-0.976691842
2024/05/03/13:39:20.653568;244050;1714768760;653279871;world;-0.000220507;-4.02E-05;0.000251925;-0.002087982;-0.000544336;0.215970874;-0.976397514
2024/05/03/13:39:20.663584;244051;1714768760;663271189;world;-0.00021394;-4.39E-05;0.000253327;-0.002012109;-0.000503393;0.217264041;-0.976110637
2024/05/03/13:39:20.673169;244052;1714768760;672866821;world;-0.00021242;-4.54E-05;0.00025324;-0.00203527;-0.000514882;0.218569875;-0.975819051
2024/05/03/13:39:20.703303;244053;1714768760;702998556;world;-0.000221219;-2.60E-05;0.000241836;-0.001947305;-0.000543147;0.219916373;-0.975516617
2024/05/03/13:39:20.743226;244054;1714768760;742889305;world;-0.000214297;-2.40E-05;0.000248904;-0.001985938;-0.000477431;0.220533013;-0.97537744
2024/05/03/13:39:20.743246;244056;1714768760;742933577;world;-0.000223789;-1.24E-05;0.000255209;-0.002013589;-0.000635548;0.223179743;-0.974775076
2024/05/03/13:39:20.753225;244057;1714768760;752914774;world;-0.000219185;-2.12E-05;0.00024347;-0.001952828;-0.000599346;0.224540472;-0.974462628
2024/05/03/13:39:20.773270;244058;1714768760;773017252;world;-0.000175923;-1.33E-05;0.000243397;-0.001934369;-0.000546203;0.225871876;-0.974154949
2024/05/03/13:39:20.783902;244059;1714768760;783310851;world;-0.000189442;-3.80E-05;0.00025612;-0.001926257;-0.000535139;0.227151856;-0.973857284
2024/05/03/13:39:20.803415;244060;1714768760;803079667;world;-0.00015926;-7.01E-05;0.000243117;-0.001917108;-0.000529518;0.228456587;-0.973552108
2024/05/03/13:39:20.823473;244061;1714768760;823190986;world;-0.000164755;-8.87E-05;0.000249933;-0.001856889;-0.000472238;0.229727343;-0.973253131
2024/05/03/13:39:20.833737;244062;1714768760;833260407;world;-0.000146128;-9.14E-05;0.000259173;-0.001931716;-0.000528438;0.230991349;-0.972953796
2024/05/03/13:39:20.853787;244063;1714768760;853078299;world;-0.00016186;-9.46E-05;0.00024453;-0.001976084;-0.000516997;0.231636137;-0.972800434
2024/05/03/13:39:20.873467;244064;1714768760;873185806;world;-0.00014676;-5.51E-05;0.000237081;-0.001817897;-0.000668651;0.233641759;-0.972320795
2024/05/03/13:39:20.883615;244065;1714768760;883347210;world;-0.000135005;-4.88E-05;0.000223369;-0.001918095;-0.000591302;0.234261841;-0.972171485
2024/05/03/13:39:20.903396;244066;1714768760;902957157;world;-0.000149064;-6.12E-05;0.000211425;-0.001890473;-0.000688833;0.235452324;-0.971883893
2024/05/03/13:39:20.924202;244067;1714768760;923177243;world;-0.000131251;-6.90E-05;0.000209728;-0.00187161;-0.000736647;0.23665899;-0.971590698
2024/05/03/13:39:20.933357;244068;1714768760;933075578;world;-9.32E-05;-5.88E-05;0.000218201;-0.001920467;-0.000769109;0.237957865;-0.971273303
2024/05/03/13:39:20.944141;244069;1714768760;943172551;world;-0.00013499;-5.86E-05;0.000231932;-0.001947036;-0.000869338;0.239388913;-0.970921457
2024/05/03/13:39:20.963512;244070;1714768760;963195450;world;-0.000190841;-1.44E-05;0.000184371;-0.001710426;-0.001081572;0.240788192;-0.970575571
2024/05/03/13:39:20.974181;244071;1714768760;973228865;world;-0.000215374;-2.21E-05;0.00020486;-0.001685348;-0.001032225;0.241523027;-0.970393121
2024/05/03/13:39:20.993677;244072;1714768760;993129675;world;-0.000159746;-6.77E-05;0.000234592;-0.002013856;-0.00115187;0.242856398;-0.970059514
2024/05/03/13:39:21.014470;244073;1714768761;13155960;world;-0.00016791;3.86E-06;0.000263974;-0.0017343;-0.001139357;0.244791344;-0.969573557
2024/05/03/13:39:21.033382;244074;1714768761;33092228;world;-0.000128031;2.72E-05;0.0002469;-0.001729957;-0.001138439;0.245327592;-0.969438016
2024/05/03/13:39:21.043712;244075;1714768761;43436753;world;-0.000122415;1.14E-05;0.000259628;-0.001606104;-0.001151989;0.246570021;-0.969122946
2024/05/03/13:39:21.053742;244076;1714768761;53398014;world;-0.000108026;4.62E-05;0.000262596;-0.001457487;-0.001091589;0.247922763;-0.968778133
2024/05/03/13:39:21.073399;244077;1714768761;73060213;world;-8.98E-05;3.48E-05;0.000261277;-0.001576286;-0.001042738;0.249206647;-0.96844852
2024/05/03/13:39:21.083370;244078;1714768761;83091493;world;-0.000132538;4.36E-05;0.000258001;-0.001503664;-0.001198607;0.249883831;-0.968273878
2024/05/03/13:39:21.113503;244079;1714768761;113158777;world;-0.000102835;1.74E-05;0.000254286;-0.00152385;-0.001209287;0.251170844;-0.967940867
2024/05/03/13:39:21.133554;244080;1714768761;133228352;world;-5.78E-05;-4.50E-05;0.000232372;-0.001971456;-0.001194102;0.252377927;-0.967625976
2024/05/03/13:39:21.133559;244081;1714768761;133261874;world;4.35E-05;-9.88E-05;0.000178706;-0.0020959;-0.001110317;0.253990442;-0.967203915
2024/05/03/13:39:21.153574;244082;1714768761;153308558;world;-6.55E-05;-9.46E-05;0.000205636;-0.001932503;-0.001224097;0.255449653;-0.966819704
2024/05/03/13:39:21.163398;244083;1714768761;163077711;world;-8.23E-05;-6.95E-05;0.000219147;-0.001821341;-0.001331441;0.256184667;-0.966625273
2024/05/03/13:39:21.183611;244084;1714768761;183267587;world;-7.83E-05;-8.20E-05;0.000227559;-0.001779243;-0.00136532;0.257479697;-0.966281116
2024/05/03/13:39:21.193380;244085;1714768761;193078141;world;-0.000104951;-9.50E-05;0.000228625;-0.001846782;-0.001400934;0.258773327;-0.96593529
2024/05/03/13:39:21.213489;244086;1714768761;213175859;world;-0.000119742;-0.000105271;0.00024977;-0.001852742;-0.001368788;0.260019392;-0.965600729
2024/05/03/13:39:21.234247;244087;1714768761;233265693;world;-0.000107894;-9.90E-05;0.0002524;-0.001902945;-0.001391471;0.261361808;-0.965238094
2024/05/03/13:39:21.243540;244088;1714768761;243207985;world;-8.00E-05;-0.000108095;0.000246607;-0.001874067;-0.001375844;0.262702763;-0.964874029
2024/05/03/13:39:21.253898;244089;1714768761;253523025;world;-6.64E-05;-0.000108736;0.000246453;-0.001962003;-0.001310443;0.263306141;-0.964709461
2024/05/03/13:39:21.273365;244090;1714768761;273054613;world;-7.07E-05;-0.000108466;0.000259115;-0.001901545;-0.001362534;0.264618903;-0.964350224
2024/05/03/13:39:21.293397;244091;1714768761;293167640;world;-5.11E-05;-0.000128223;0.000255388;-0.001961014;-0.001319788;0.265934557;-0.963988185
2024/05/03/13:39:21.313356;244092;1714768761;313061919;world;-5.00E-05;-0.000120534;0.00024093;-0.00192724;-0.001426883;0.267247349;-0.963625014
2024/05/03/13:39:21.333614;244093;1714768761;333245271;world;-3.15E-05;-0.000109147;0.000231638;-0.001941555;-0.001408693;0.268524468;-0.963269889
2024/05/03/13:39:21.333638;244094;1714768761;333278563;world;-5.92E-05;-0.000105631;0.00024866;-0.002117856;-0.001365375;0.269790888;-0.962915599
2024/05/03/13:39:21.353160;244095;1714768761;352859404;world;9.50E-06;-0.000115041;0.000213297;-0.002123771;-0.001380398;0.271120429;-0.962542176
2024/05/03/13:39:21.363429;244096;1714768761;363139438;world;3.87E-05;-0.00012067;0.000210295;-0.002183596;-0.001280121;0.27171582;-0.96237421
2024/05/03/13:39:21.383645;244097;1714768761;383328222;world;5.38E-05;-0.000136543;0.000188651;-0.001968136;-0.001281496;0.273102432;-0.961982071
2024/05/03/13:39:21.403517;244098;1714768761;403156222;world;6.72E-05;-0.000156315;0.00019335;-0.00198878;-0.001288418;0.274443477;-0.961600304
2024/05/03/13:39:21.413287;244099;1714768761;413023725;world;0.000135543;-0.00010292;0.000182133;-0.001964054;-0.001312429;0.275713325;-0.961237013
2024/05/03/13:39:21.433287;244100;1714768761;432889505;world;0.000261072;-3.73E-05;0.00017805;-0.00177068;-0.001225913;0.276519924;-0.961005807
2024/05/03/13:39:21.453561;244101;1714768761;453114931;world;0.000183344;-0.000133939;0.000113118;-0.002080024;-0.001165131;0.277812511;-0.960632384
2024/05/03/13:39:21.463649;244102;1714768761;463332651;world;9.93E-05;-0.000171218;7.46E-05;-0.002119459;-0.001392251;0.279241771;-0.960217476
2024/05/03/13:39:21.474159;244103;1714768761;473194816;world;0.000102513;-0.000170358;8.01E-05;-0.002099777;-0.00144525;0.279879212;-0.960031927
2024/05/03/13:39:21.493703;244104;1714768761;493076342;world;1.85E-05;-0.000193814;0.000126411;-0.002058431;-0.001285668;0.281397432;-0.95958823
2024/05/03/13:39:21.523376;244105;1714768761;522995521;world;-2.11E-05;-0.000190005;0.000141841;-0.002085224;-0.001338898;0.282714128;-0.959200978
2024/05/03/13:39:21.523397;244106;1714768761;523044382;world;-3.38E-05;-0.000196956;0.000177516;-0.0019507;-0.001358866;0.284056902;-0.958804548
2024/05/03/13:39:21.544443;244107;1714768761;543701580;world;-2.02E-05;-0.000177659;0.000187958;-0.001983536;-0.001336967;0.285314769;-0.958430886
2024/05/03/13:39:21.553538;244108;1714768761;553260953;world;-1.04E-05;-0.00013016;0.000187972;-0.002036898;-0.001404375;0.286660999;-0.958028972
2024/05/03/13:39:21.573316;244109;1714768761;573024439;world;-3.77E-05;-0.000101888;0.000203741;-0.001956973;-0.001404784;0.288015634;-0.957622647
2024/05/03/13:39:21.583638;244110;1714768761;583306068;world;-7.19E-05;-9.06E-05;0.000206862;-0.001879684;-0.00148103;0.28921923;-0.957259893
2024/05/03/13:39:21.603278;244111;1714768761;603028798;world;-6.41E-05;-8.81E-05;0.000201399;-0.001781012;-0.001448735;0.2905536;-0.956855953
2024/05/03/13:39:21.623375;244112;1714768761;623114565;world;-1.13E-05;-5.27E-05;0.000192542;-0.001930239;-0.001410352;0.291827083;-0.956468105
2024/05/03/13:39:21.643569;244113;1714768761;643258988;world;3.59E-06;-1.95E-05;0.000208281;-0.001984302;-0.001409681;0.292480111;-0.956268489
2024/05/03/13:39:21.643594;244114;1714768761;643291569;world;-1.89E-05;-2.64E-05;0.000221008;-0.001953183;-0.001378942;0.293709129;-0.955891907
2024/05/03/13:39:21.663140;244115;1714768761;662847709;world;-3.93E-05;-7.05E-05;0.000215312;-0.001966578;-0.001408165;0.294946909;-0.955510557
2024/05/03/13:39:21.684109;244116;1714768761;683537820;world;2.59E-05;-0.000122862;0.000234899;-0.002246179;-0.001148469;0.296239913;-0.955110252
2024/05/03/13:39:21.693506;244117;1714768761;693203992;world;2.96E-05;-0.000113305;0.000266674;-0.002264706;-0.001226305;0.297611445;-0.954683602
2024/05/03/13:39:21.723933;244118;1714768761;723354762;world;6.31E-06;-8.54E-05;0.000278414;-0.002276463;-0.001241202;0.298201382;-0.954499483
2024/05/03/13:39:21.723957;244119;1714768761;723389156;world;5.90E-05;-8.06E-05;0.000286215;-0.002406964;-0.001182247;0.299427956;-0.954115152
2024/05/03/13:39:21.743640;244120;1714768761;743301419;world;7.39E-05;-7.59E-05;0.000252429;-0.002381371;-0.001335907;0.300703734;-0.953713775
2024/05/03/13:39:21.763542;244121;1714768761;763233578;world;0.0001068;-7.25E-05;0.000257093;-0.002392403;-0.001287269;0.301851243;-0.95335114
2024/05/03/13:39:21.773659;244122;1714768761;773221830;world;2.76E-05;-0.00010707;0.000245812;-0.002216935;-0.001454891;0.303182542;-0.952928901
2024/05/03/13:39:21.794104;244123;1714768761;793718420;world;5.89E-05;-0.000127045;0.000220099;-0.002140776;-0.001550652;0.304425716;-0.952532411
2024/05/03/13:39:21.803747;244124;1714768761;803397766;world;6.27E-05;-0.000102507;0.000200964;-0.002083657;-0.001557111;0.305597335;-0.952157319
2024/05/03/13:39:21.823367;244125;1714768761;823061798;world;0.000101773;-0.000114258;0.000175047;-0.002016187;-0.001480465;0.306920916;-0.951731801
2024/05/03/13:39:21.833455;244126;1714768761;833136335;world;7.26E-05;-0.000105403;0.000184314;-0.002031855;-0.001507005;0.308189541;-0.951321661
2024/05/03/13:39:21.853181;244127;1714768761;852916797;world;6.37E-05;-0.000117987;0.000161182;-0.001940913;-0.001454751;0.30940491;-0.950927317
2024/05/03/13:39:21.873477;244128;1714768761;873113710;world;6.13E-05;-0.000136381;0.0001545;-0.002009189;-0.001429094;0.309977919;-0.950740635
2024/05/03/13:39:21.883191;244129;1714768761;882869448;world;2.28E-05;-0.000160156;0.000161856;-0.001977587;-0.001547966;0.311769217;-0.950154603
2024/05/03/13:39:21.903414;244130;1714768761;903126042;world;6.35E-05;-0.000169313;0.000188175;-0.00224239;-0.001577146;0.312450439;-0.949930131
2024/05/03/13:39:21.913548;244131;1714768761;913236912;world;6.48E-05;-0.000149451;0.000204893;-0.002189715;-0.001536171;0.313792646;-0.949487805
2024/05/03/13:39:21.933378;244132;1714768761;933082725;world;9.82E-05;-0.00011847;0.00021509;-0.002175895;-0.001483149;0.315166771;-0.949032664
2024/05/03/13:39:21.943706;244133;1714768761;943438075;world;9.57E-05;-0.000101106;0.000195556;-0.002378132;-0.001492559;0.316500396;-0.948588312
2024/05/03/13:39:21.963484;244134;1714768761;963146187;world;0.0001057;-9.10E-05;0.000214512;-0.002352444;-0.001488107;0.31716609;-0.948365986
2024/05/03/13:39:21.973437;244135;1714768761;973141702;world;0.000174472;-6.41E-05;0.000237608;-0.002562605;-0.001476868;0.319102466;-0.94771558
2024/05/03/13:39:21.993247;244136;1714768761;992938857;world;0.000165382;-7.46E-05;0.000226813;-0.00259575;-0.001571474;0.320373148;-0.947286546
2024/05/03/13:39:22.013579;244137;1714768762;13257152;world;0.000156092;-7.91E-05;0.000191506;-0.00269616;-0.001694216;0.32164681;-0.946854353
2024/05/03/13:39:22.033847;244138;1714768762;33570667;world;0.000137201;-6.16E-05;0.000188672;-0.002755055;-0.001752711;0.322253615;-0.946647704
2024/05/03/13:39:22.033883;244139;1714768762;33606514;world;0.000183603;-6.88E-05;0.000195186;-0.002750603;-0.001735048;0.323524356;-0.946214318
2024/05/03/13:39:22.053498;244140;1714768762;53265671;world;0.000162972;-6.06E-05;0.000169951;-0.002702364;-0.001809872;0.324726403;-0.945802391
2024/05/03/13:39:22.073506;244141;1714768762;73107227;world;0.000167867;-7.69E-05;0.000150976;-0.002751232;-0.001813604;0.325936466;-0.945385933
2024/05/03/13:39:22.083485;244142;1714768762;83181583;world;0.000179147;-6.93E-05;0.000163161;-0.002769596;-0.001678593;0.326511353;-0.945187807
2024/05/03/13:39:22.103396;244143;1714768762;103095790;world;0.000205811;-4.00E-05;0.000158683;-0.002709481;-0.00166882;0.327648699;-0.944794357
2024/05/03/13:39:22.113446;244144;1714768762;113196061;world;0.000196485;-1.75E-06;0.000139982;-0.002694588;-0.001707716;0.32879287;-0.944396675
2024/05/03/13:39:22.133546;244145;1714768762;133242382;world;0.000217663;-1.53E-05;0.000133641;-0.002631216;-0.001627298;0.330010146;-0.943972409
2024/05/03/13:39:22.153389;244146;1714768762;153091341;world;0.000171421;-2.41E-05;0.000167962;-0.0025979;-0.001708483;0.331245124;-0.943539619
2024/05/03/13:39:22.163705;244147;1714768762;163073219;world;0.000166826;2.46E-05;0.00014228;-0.002412634;-0.001582543;0.332603455;-0.943062425
2024/05/03/13:39:22.183477;244148;1714768762;183157762;world;0.00010732;-2.19E-05;0.000133157;-0.00264194;-0.001774685;0.333765358;-0.942650795
2024/05/03/13:39:22.193255;244149;1714768762;192967021;world;0.000127051;-1.10E-05;0.000136302;-0.002621661;-0.001768879;0.334955394;-0.942228675
2024/05/03/13:39:22.213298;244150;1714768762;212992304;world;0.000138655;-1.12E-05;0.000158245;-0.0026256;-0.001783329;0.335593343;-0.9420017
2024/05/03/13:39:22.233443;244151;1714768762;233129967;world;0.000143653;1.95E-05;0.000168767;-0.002538735;-0.001755417;0.336755604;-0.94158709
2024/05/03/13:39:22.253312;244152;1714768762;252943518;world;0.00017966;7.88E-05;0.000192206;-0.002498284;-0.001734173;0.338766217;-0.940865695
2024/05/03/13:39:22.263089;244153;1714768762;262882546;world;0.000205385;0.000124926;0.000154363;-0.002388979;-0.001585911;0.340246111;-0.940332055
2024/05/03/13:39:22.273252;244154;1714768762;272947239;world;0.000240313;0.000140856;0.000117742;-0.002002826;-0.001623889;0.340996057;-0.940061212
2024/05/03/13:39:22.293496;244155;1714768762;293177735;world;0.000226466;0.000152045;0.000108939;-0.00198328;-0.001639432;0.342146993;-0.939642966
2024/05/03/13:39:22.303266;244156;1714768762;303003824;world;0.000213834;0.000118916;9.86E-05;-0.001900789;-0.001658062;0.343349397;-0.939204335
2024/05/03/13:39:22.323198;244157;1714768762;322909265;world;0.000198465;0.000145992;9.03E-05;-0.001895018;-0.001748846;0.344515502;-0.938777089
2024/05/03/13:39:22.343174;244158;1714768762;342881289;world;0.000153391;0.000170227;9.41E-05;-0.001922332;-0.001819472;0.345654219;-0.938358307
2024/05/03/13:39:22.353611;244159;1714768762;353247334;world;0.000265593;0.00018521;0.00016403;-0.002155795;-0.001865148;0.34713921;-0.937809348
2024/05/03/13:39:22.373334;244160;1714768762;372960075;world;0.000268025;0.000203667;0.000170977;-0.00217931;-0.001879188;0.348389179;-0.937345564
2024/05/03/13:39:22.383289;244161;1714768762;382954128;world;0.000245316;0.000198329;0.000165026;-0.0021168;-0.001890079;0.349022061;-0.937110245
2024/05/03/13:39:22.393231;244162;1714768762;392921680;world;0.000247402;0.000200452;0.000163759;-0.002172125;-0.001846566;0.350288868;-0.936637402
2024/05/03/13:39:22.413530;244163;1714768762;413232726;world;0.000248402;0.000177804;0.000165995;-0.002288253;-0.001888596;0.351598084;-0.936146438
2024/05/03/13:39:22.443420;244164;1714768762;443119585;world;0.000258695;0.000175616;0.000182511;-0.002363065;-0.001923487;0.352929711;-0.935644865
2024/05/03/13:39:22.463866;244165;1714768762;463526109;world;0.000305325;0.000178928;0.000209543;-0.002526441;-0.001956274;0.354205221;-0.935162306
2024/05/03/13:39:22.463871;244166;1714768762;463560313;world;0.000331784;0.000194341;0.000186316;-0.002594005;-0.002017052;0.355398327;-0.934709251
2024/05/03/13:39:22.483541;244167;1714768762;483233682;world;0.000333391;0.000171533;0.000183108;-0.002618222;-0.002033492;0.356683373;-0.93421948
2024/05/03/13:39:22.493160;244168;1714768762;492907784;world;0.000341268;0.000129038;0.000178212;-0.002439872;-0.002021034;0.35797143;-0.933727205
2024/05/03/13:39:22.503681;244169;1714768762;503335658;world;0.000331959;0.000128102;0.000190229;-0.002389869;-0.002057415;0.358591259;-0.933489382
2024/05/03/13:39:22.523433;244170;1714768762;523076502;world;0.000374641;0.000106968;0.000196194;-0.002455198;-0.002039924;0.35985136;-0.9330042
2024/05/03/13:39:22.543590;244171;1714768762;543270495;world;0.0004576;0.000119526;0.000189928;-0.002523685;-0.002031635;0.361110926;-0.932517231
2024/05/03/13:39:22.563254;244172;1714768762;562946232;world;0.000477107;0.00011722;0.000210358;-0.002595822;-0.001931721;0.362293124;-0.932058573
2024/05/03/13:39:22.573452;244173;1714768762;573096596;world;0.000361333;0.000115845;0.000232024;-0.002551609;-0.001997902;0.363460958;-0.931603849
2024/05/03/13:39:22.583586;244174;1714768762;583243743;world;0.000458062;0.000107778;0.000260153;-0.002964309;-0.001714881;0.364630401;-0.931146026
2024/05/03/13:39:22.603485;244175;1714768762;603130538;world;0.000472905;0.000106705;0.000275118;-0.002954716;-0.001704224;0.365251899;-0.930902481
2024/05/03/13:39:22.613230;244176;1714768762;612945076;world;0.000391226;0.000137087;0.00029306;-0.002875072;-0.001869221;0.366432875;-0.930438161
2024/05/03/13:39:22.633451;244177;1714768762;633150985;world;0.000391167;0.000157911;0.000297988;-0.002923699;-0.001864262;0.367594898;-0.929979563
2024/05/03/13:39:22.653465;244178;1714768762;653123551;world;0.000403248;0.000186281;0.000245862;-0.002737526;-0.002180662;0.36900568;-0.92942059
2024/05/03/13:39:22.673429;244179;1714768762;673117336;world;0.000440665;0.000207039;0.000252494;-0.002703575;-0.002172104;0.370336592;-0.928891182
2024/05/03/13:39:22.683339;244180;1714768762;683023404;world;0.000450512;0.000189733;0.000257932;-0.002700857;-0.002217606;0.371555418;-0.928404272
2024/05/03/13:39:22.703252;244181;1714768762;702904781;world;0.00048315;0.000172941;0.00022947;-0.002716482;-0.002196713;0.372775018;-0.927915156
2024/05/03/13:39:22.713380;244182;1714768762;713043040;world;0.000514498;0.00012758;0.000159888;-0.002430934;-0.002175047;0.374105841;-0.927380264
2024/05/03/13:39:22.723517;244183;1714768762;723192351;world;0.000518313;0.000106027;0.000149711;-0.002489983;-0.002120167;0.375295848;-0.926899374
2024/05/03/13:39:22.743329;244184;1714768762;743007073;world;0.000525098;0.000106385;0.000149891;-0.002512582;-0.002076987;0.375859559;-0.926670909
2024/05/03/13:39:22.773467;244185;1714768762;773097281;world;0.000517083;4.71E-05;0.00011595;-0.002440174;-0.002127435;0.377679557;-0.925930798
2024/05/03/13:39:22.783300;244186;1714768762;783001527;world;0.000509955;7.90E-05;7.81E-05;-0.002577023;-0.002117898;0.378825217;-0.925462246
2024/05/03/13:39:22.793596;244187;1714768762;793257648;world;0.000550136;7.05E-05;8.50E-05;-0.002577846;-0.002121824;0.379472941;-0.925196826
2024/05/03/13:39:22.803442;244188;1714768762;803098915;world;0.000534877;0.000108244;9.26E-05;-0.002649456;-0.002134699;0.380711257;-0.924687743
2024/05/03/13:39:22.823340;244189;1714768762;823037116;world;0.000546418;0.000123963;7.57E-05;-0.002603933;-0.002103825;0.381938487;-0.9241817
2024/05/03/13:39:22.833385;244190;1714768762;833107180;world;0.000544345;0.000152146;6.66E-05;-0.002554757;-0.002119255;0.383203864;-0.923657835
2024/05/03/13:39:22.853593;244191;1714768762;853136150;world;0.000593133;0.000167403;0.000100722;-0.002677094;-0.00215492;0.38453874;-0.923102498
2024/05/03/13:39:22.873707;244192;1714768762;873366996;world;0.000566816;0.00014209;0.000123909;-0.002661058;-0.002122714;0.385709196;-0.922614157
2024/05/03/13:39:22.883245;244193;1714768762;882895111;world;0.000564463;0.000138624;0.000131368;-0.002702664;-0.002126609;0.386317998;-0.922359228
2024/05/03/13:39:22.903476;244194;1714768762;903206258;world;0.000573529;0.000154458;0.000142729;-0.002658788;-0.002277047;0.387565315;-0.921835601
2024/05/03/13:39:22.913285;244195;1714768762;912946386;world;0.000563643;0.000175457;0.000145361;-0.002672794;-0.002343035;0.388788819;-0.921320021
2024/05/03/13:39:22.933335;244196;1714768762;932984293;world;0.00055951;0.000149081;0.000158208;-0.002932276;-0.002221401;0.390137345;-0.920749307
2024/05/03/13:39:22.953708;244197;1714768762;953293271;world;0.000541441;0.000129065;0.000174705;-0.003018287;-0.00234945;0.391377002;-0.920222461
2024/05/03/13:39:22.983961;244198;1714768762;983555964;world;0.000540929;0.000144929;0.000137684;-0.003040671;-0.002320543;0.392610431;-0.919696927
