time;.header.seq;.header.stamp.secs;.header.stamp.nsecs;.header.frame_id;.pose.position.x;.pose.position.y;.pose.position.z;.pose.orientation.x;.pose.orientation.y;.pose.orientation.z;.pose.orientation.w
2024/05/03/13:37:52.763899;238425;1714768672;762884647;world;-7.89E-06;1.12E-05;7.26E-07;-8.53E-05;-0.000133358;5.40E-05;1
2024/05/03/13:37:52.773313;238426;1714768672;772955520;world;4.05E-06;1.34E-05;1.56E-05;2.21E-05;-0.000131454;-5.12E-06;1
2024/05/03/13:37:52.793620;238427;1714768672;793214067;world;-2.69E-05;3.55E-06;-1.56E-05;-1.65E-05;-6.31E-05;1.49E-05;1
2024/05/03/13:37:52.803880;238428;1714768672;803135912;world;5.10E-06;9.85E-06;6.97E-06;-7.22E-06;-0.000133042;1.11E-05;1
2024/05/03/13:37:52.823728;238429;1714768672;823249470;world;-7.74E-06;1.24E-05;-2.56E-05;4.38E-05;-4.77E-05;1.01E-05;1
2024/05/03/13:37:52.843586;238430;1714768672;843157447;world;-2.33E-05;-5.25E-06;-1.59E-05;-3.27E-05;-5.94E-05;6.32E-06;1
2024/05/03/13:37:52.863294;238431;1714768672;862960708;world;-3.57E-05;2.59E-06;-1.46E-05;-4.64E-06;-6.30E-05;2.54E-05;1
2024/05/03/13:37:52.873281;238432;1714768672;872932535;world;-2.13E-05;-1.18E-05;-2.60E-05;1.15E-05;-7.47E-05;1.56E-06;1
2024/05/03/13:37:52.883229;238433;1714768672;882960447;world;-8.06E-06;6.41E-06;-1.09E-05;-1.55E-05;-7.55E-05;5.37E-06;1
2024/05/03/13:37:52.904340;238434;1714768672;903069086;world;5.66E-06;1.25E-06;-3.92E-06;5.89E-05;-6.09E-05;5.38E-06;1
2024/05/03/13:37:52.913318;238435;1714768672;912960372;world;-1.59E-05;3.00E-06;-8.83E-06;-5.62E-06;-0.00011467;1.59E-05;1
2024/05/03/13:37:52.943618;238436;1714768672;942927146;world;-2.33E-05;3.00E-06;-1.31E-05;2.28E-06;-7.23E-05;1.20E-05;1
2024/05/03/13:37:52.943650;238437;1714768672;942964195;world;-3.38E-06;7.57E-06;-1.73E-05;3.12E-05;-7.83E-05;1.97E-05;1
2024/05/03/13:37:52.963699;238438;1714768672;963324473;world;1.52E-05;3.44E-06;1.67E-05;-2.82E-05;-0.000170786;1.30E-05;1
2024/05/03/13:37:52.973430;238439;1714768672;973132646;world;6.44E-06;-1.18E-05;-9.57E-06;-2.68E-07;-7.85E-05;1.20E-05;1
2024/05/03/13:37:52.993304;238440;1714768672;992980019;world;2.95E-05;-5.27E-06;-4.74E-06;7.28E-05;-6.10E-05;-3.45E-07;1
2024/05/03/13:37:53.013599;238441;1714768673;13281518;world;5.52E-06;7.40E-06;9.71E-06;-0.000101351;-0.000166472;5.97E-05;1
2024/05/03/13:37:53.023685;238442;1714768673;22939972;world;1.39E-05;-2.89E-06;-7.61E-06;6.96E-05;-2.26E-05;-2.04E-05;1
2024/05/03/13:37:53.043525;238443;1714768673;43200013;world;-1.55E-05;-1.12E-05;-1.42E-05;-3.85E-05;-5.81E-05;-9.89E-06;1
2024/05/03/13:37:53.083400;238444;1714768673;83100094;world;-2.50E-05;-2.11E-06;-1.66E-05;1.09E-05;-7.80E-05;-1.27E-05;1
2024/05/03/13:37:53.093631;238445;1714768673;93300086;world;-4.03E-06;1.21E-05;9.93E-06;-3.48E-05;-0.000142808;3.78E-05;1
2024/05/03/13:37:53.093656;238446;1714768673;93336333;world;-1.15E-05;1.89E-06;2.00E-05;-6.26E-05;-0.000189457;1.78E-05;1
2024/05/03/13:37:53.103606;238447;1714768673;103275558;world;-6.43E-06;1.03E-05;1.23E-05;-3.81E-05;-0.000169514;6.26E-05;1
2024/05/03/13:37:53.124040;238448;1714768673;123331381;world;-1.15E-05;-5.53E-07;1.18E-05;-4.12E-05;-0.000153882;-2.26E-06;1
2024/05/03/13:37:53.133372;238449;1714768673;133031960;world;3.65E-07;-6.05E-06;2.41E-05;-5.88E-05;-0.00017746;1.20E-05;1
2024/05/03/13:37:53.153340;238450;1714768673;153054155;world;-5.47E-06;1.87E-06;1.34E-06;3.65E-05;-5.74E-05;2.06E-05;1
2024/05/03/13:37:53.163942;238451;1714768673;163722321;world;-1.57E-05;-9.87E-06;-6.36E-06;1.20E-06;-5.84E-05;-5.12E-06;1
2024/05/03/13:37:53.183298;238452;1714768673;182959434;world;-1.18E-05;-1.63E-05;-7.47E-06;1.50E-05;-6.50E-05;-1.47E-05;1
2024/05/03/13:37:53.193838;238453;1714768673;192943283;world;4.57E-06;-7.67E-06;5.03E-06;6.39E-06;-0.000126219;1.59E-05;1
2024/05/03/13:37:53.213482;238454;1714768673;213083624;world;9.42E-06;-5.01E-06;5.16E-06;-2.64E-06;-7.59E-05;3.11E-05;1
2024/05/03/13:37:53.224039;238455;1714768673;223340059;world;8.18E-06;-3.31E-07;1.34E-05;-3.01E-05;-0.000138611;6.64E-05;1
2024/05/03/13:37:53.253833;238456;1714768673;253283360;world;-2.76E-05;-2.22E-05;-1.27E-05;-4.42E-05;-7.50E-05;-1.75E-05;1
2024/05/03/13:37:53.273314;238457;1714768673;272984412;world;-1.42E-06;9.22E-08;-6.38E-06;3.54E-06;-6.96E-05;2.73E-05;1
2024/05/03/13:37:53.283307;238458;1714768673;283048477;world;1.12E-05;-9.79E-06;-9.40E-06;-3.08E-05;-1.85E-05;3.21E-05;1
2024/05/03/13:37:53.293601;238459;1714768673;293292561;world;5.04E-06;-1.26E-05;-2.91E-06;1.24E-05;-6.84E-05;1.20E-05;1
2024/05/03/13:37:53.303438;238460;1714768673;303151487;world;-5.67E-06;-3.37E-06;-1.77E-05;-2.19E-05;-5.85E-05;4.73E-05;1
2024/05/03/13:37:53.323661;238461;1714768673;323131669;world;-1.32E-05;-5.97E-06;-1.28E-05;-5.42E-05;-0.000108045;1.59E-05;1
2024/05/03/13:37:53.343552;238462;1714768673;343147035;world;1.58E-05;5.12E-06;1.46E-05;-4.31E-05;-0.000162058;3.78E-05;1
2024/05/03/13:37:53.353501;238463;1714768673;353219674;world;1.42E-05;1.47E-06;1.35E-05;-2.27E-05;-0.00015747;1.78E-05;1
2024/05/03/13:37:53.393530;238464;1714768673;393037657;world;-1.66E-05;-9.08E-06;-2.29E-05;-7.30E-06;-8.23E-05;-2.71E-05;1
2024/05/03/13:37:53.393558;238465;1714768673;393080006;world;2.77E-05;3.40E-06;2.75E-06;9.40E-06;-0.00014033;2.83E-05;1
2024/05/03/13:37:53.403515;238466;1714768673;403138263;world;1.96E-05;1.09E-05;1.11E-05;-7.20E-05;-0.000144562;8.93E-05;1
2024/05/03/13:37:53.423658;238467;1714768673;423270327;world;8.69E-06;-5.04E-06;-1.93E-05;4.90E-05;-7.13E-05;-1.08E-05;1
2024/05/03/13:37:53.433385;238468;1714768673;433000078;world;-1.29E-05;-6.98E-06;1.11E-05;-0.000117388;-0.000193076;2.44E-05;1
2024/05/03/13:37:53.453634;238469;1714768673;453342070;world;-2.72E-06;-1.77E-05;-1.52E-05;-1.66E-05;-8.72E-05;3.68E-05;1
2024/05/03/13:37:53.473418;238470;1714768673;473054405;world;1.37E-05;2.37E-06;9.47E-06;-4.89E-05;-0.000192069;3.87E-05;1
2024/05/03/13:37:53.483677;238471;1714768673;483212358;world;5.12E-06;-7.56E-06;-2.41E-05;3.97E-06;-6.21E-05;1.87E-05;1
2024/05/03/13:37:53.493681;238472;1714768673;493316980;world;3.80E-06;-8.24E-06;-1.24E-05;1.72E-05;-8.67E-05;2.73E-05;1
2024/05/03/13:37:53.514699;238473;1714768673;514221514;world;8.19E-06;-9.23E-06;-1.72E-05;1.83E-05;-0.000103402;1.20E-05;1
2024/05/03/13:37:53.523408;238474;1714768673;523054681;world;1.02E-05;-1.90E-05;-9.28E-06;-2.96E-05;-3.52E-05;2.83E-05;1
2024/05/03/13:37:53.543548;238475;1714768673;543166458;world;2.39E-05;-4.86E-06;1.06E-05;-1.42E-05;-0.000177828;2.25E-05;1
2024/05/03/13:37:53.553427;238476;1714768673;553058746;world;2.21E-05;-3.06E-06;-3.93E-06;-7.96E-05;-0.00014768;4.35E-05;1
2024/05/03/13:37:53.573732;238477;1714768673;573415850;world;1.14E-06;-8.43E-06;-2.13E-05;-4.31E-05;-7.59E-05;2.16E-05;1
2024/05/03/13:37:53.593544;238478;1714768673;593217899;world;-2.06E-06;-6.33E-06;-5.05E-05;8.08E-05;1.82E-05;1.49E-05;1
2024/05/03/13:37:53.603476;238479;1714768673;603172049;world;1.02E-05;-9.68E-06;-1.93E-05;-4.45E-05;-2.69E-05;-1.30E-06;1
2024/05/03/13:37:53.623654;238480;1714768673;623295711;world;2.15E-05;-1.23E-05;-2.65E-05;6.30E-05;-8.88E-05;-2.13E-05;1
2024/05/03/13:37:53.633324;238481;1714768673;632930592;world;2.78E-05;6.08E-07;1.25E-06;1.09E-05;-0.000161553;4.92E-05;1
2024/05/03/13:37:53.663321;238482;1714768673;663000329;world;-7.12E-06;-5.77E-06;-2.46E-05;-2.92E-05;-7.03E-05;9.19E-06;1
2024/05/03/13:37:53.663357;238483;1714768673;663048338;world;6.71E-06;-6.08E-06;-2.77E-05;2.15E-06;-6.12E-05;9.19E-06;1
2024/05/03/13:37:53.683576;238484;1714768673;683220476;world;2.52E-05;1.01E-05;-5.73E-06;-1.64E-05;-0.000120012;1.11E-05;1
2024/05/03/13:37:53.693600;238485;1714768673;693323333;world;2.41E-06;-5.04E-06;-1.65E-05;-1.03E-06;-7.86E-05;2.06E-05;1
2024/05/03/13:37:53.713817;238486;1714768673;713563562;world;3.57E-06;-1.24E-05;-1.62E-05;5.12E-06;-7.97E-05;-3.21E-06;1
2024/05/03/13:37:53.733366;238487;1714768673;733044876;world;-3.01E-06;-6.18E-06;-2.18E-05;9.06E-06;-4.80E-05;6.33E-06;1
2024/05/03/13:37:53.743203;238488;1714768673;742955079;world;6.06E-06;-1.06E-05;-1.83E-05;2.04E-05;-7.15E-05;1.59E-05;1
2024/05/03/13:37:53.763696;238489;1714768673;763435569;world;7.34E-06;-5.78E-06;-1.48E-05;5.82E-07;-2.78E-05;3.21E-05;1
2024/05/03/13:37:53.773449;238490;1714768673;773170516;world;8.49E-06;1.08E-06;1.66E-05;-0.000100506;-0.000137008;4.35E-05;1
2024/05/03/13:37:53.793466;238491;1714768673;792893207;world;1.29E-05;6.60E-06;1.46E-06;-1.57E-05;-0.00019798;6.07E-05;1
2024/05/03/13:37:53.803421;238492;1714768673;803144916;world;-8.57E-07;-9.20E-06;-1.41E-05;3.44E-05;-8.47E-05;2.51E-06;1
2024/05/03/13:37:53.823894;238493;1714768673;823346434;world;2.03E-05;-5.52E-07;-1.57E-05;6.76E-05;-0.000104944;4.07E-05;1
2024/05/03/13:37:53.833660;238494;1714768673;833452561;world;1.63E-05;-1.25E-05;-1.46E-05;-4.78E-05;-6.68E-06;5.37E-06;1
2024/05/03/13:37:53.863589;238495;1714768673;863325135;world;8.04E-06;-4.53E-06;-6.78E-06;2.82E-05;-5.67E-05;-3.09E-05;1
2024/05/03/13:37:53.873236;238496;1714768673;872965445;world;-9.67E-06;-1.33E-05;-2.30E-05;-2.07E-05;-8.06E-05;-6.07E-06;1
2024/05/03/13:37:53.893288;238497;1714768673;892953140;world;1.48E-05;5.52E-06;7.98E-06;-5.31E-05;-0.000179976;2.54E-05;1
2024/05/03/13:37:53.903653;238498;1714768673;903399752;world;1.06E-05;-3.74E-06;9.20E-06;-3.17E-05;-0.000123017;-1.31E-06;1
2024/05/03/13:37:53.913533;238499;1714768673;913228245;world;8.02E-06;-1.23E-05;-1.06E-05;5.47E-05;-6.69E-05;-9.88E-06;1
2024/05/03/13:37:53.933606;238500;1714768673;933208533;world;3.39E-06;-1.75E-06;-7.59E-06;1.94E-05;-8.08E-05;3.68E-05;1
2024/05/03/13:37:53.943924;238501;1714768673;943247168;world;2.48E-06;3.51E-07;-2.55E-05;2.71E-05;-6.14E-05;-2.04E-05;1
2024/05/03/13:37:53.963467;238502;1714768673;963168545;world;2.55E-05;1.00E-06;1.18E-05;6.87E-06;-0.00014945;1.87E-05;1
2024/05/03/13:37:54.014892;238503;1714768674;13193205;world;-5.94E-06;1.62E-06;-1.89E-05;6.42E-06;-3.46E-05;1.40E-05;1
2024/05/03/13:37:54.014913;238505;1714768674;13807678;world;1.33E-05;9.54E-06;4.98E-06;-3.11E-05;-0.000146983;3.68E-05;1
2024/05/03/13:37:54.023568;238506;1714768674;23252606;world;-1.83E-07;4.05E-06;3.69E-06;-8.24E-05;-0.000149085;4.35E-05;1
2024/05/03/13:37:54.043911;238507;1714768674;43037935;world;-6.34E-06;6.66E-06;5.36E-06;-7.55E-05;-0.000163543;6.35E-05;1
2024/05/03/13:37:54.053307;238508;1714768674;52953346;world;-6.06E-06;-3.25E-06;8.15E-06;-8.20E-05;-0.000195786;1.97E-05;1
2024/05/03/13:37:54.073359;238509;1714768674;73019017;world;-8.12E-07;-4.41E-06;-1.87E-05;-1.46E-05;-7.10E-05;1.59E-05;1
2024/05/03/13:37:54.103739;238510;1714768674;103424829;world;4.47E-06;4.35E-06;-1.98E-05;7.12E-05;-5.20E-05;5.38E-06;1
2024/05/03/13:37:54.103848;238511;1714768674;103470925;world;1.57E-06;5.99E-06;5.91E-06;8.94E-06;-0.000162155;4.42E-06;1
2024/05/03/13:37:54.113266;238512;1714768674;112973850;world;-1.02E-06;-9.27E-06;-3.14E-05;-1.70E-05;-5.82E-05;7.28E-06;1
2024/05/03/13:37:54.133766;238513;1714768674;133424748;world;5.56E-06;-6.31E-06;-2.87E-05;1.87E-05;-6.19E-05;-2.13E-05;1
2024/05/03/13:37:54.153406;238514;1714768674;153008914;world;7.79E-07;-1.42E-05;-2.02E-05;3.07E-05;-7.62E-05;1.56E-06;1
2024/05/03/13:37:54.173537;238515;1714768674;173153241;world;-8.96E-06;-1.27E-06;-1.84E-05;2.79E-05;-0.000122711;-2.25E-06;1
2024/05/03/13:37:54.203964;238516;1714768674;203378758;world;8.80E-06;-7.51E-06;-1.70E-05;1.94E-05;-6.82E-05;2.44E-05;1
2024/05/03/13:37:54.203995;238517;1714768674;203414545;world;1.30E-05;-4.30E-06;-1.38E-05;6.17E-05;-5.94E-05;-3.47E-05;1
2024/05/03/13:37:54.213213;238518;1714768674;212890530;world;7.46E-06;3.95E-07;-2.09E-05;7.21E-05;-6.18E-05;4.42E-06;1
2024/05/03/13:37:54.223567;238519;1714768674;223229350;world;-4.46E-06;2.66E-06;3.26E-06;-3.96E-05;-0.000193719;3.97E-05;1
2024/05/03/13:37:54.244148;238520;1714768674;243254885;world;8.48E-06;-3.20E-06;-2.03E-05;4.40E-05;-5.24E-05;6.06E-07;1
2024/05/03/13:37:54.273395;238521;1714768674;273087933;world;-1.24E-06;-7.18E-06;-2.14E-05;3.04E-06;-6.52E-05;2.35E-05;1
2024/05/03/13:37:54.273415;238522;1714768674;273122317;world;-3.21E-06;-7.66E-06;-2.28E-05;4.20E-05;-4.96E-05;-3.85E-05;1
2024/05/03/13:37:54.293215;238523;1714768674;292941698;world;1.75E-05;1.00E-05;8.16E-06;2.94E-05;-0.000131566;1.56E-06;1
2024/05/03/13:37:54.303643;238524;1714768674;303295256;world;1.02E-05;-7.18E-06;-2.77E-05;2.87E-05;-5.77E-05;1.20E-05;1
2024/05/03/13:37:54.323291;238525;1714768674;322890803;world;-1.12E-05;5.18E-06;-1.16E-05;-4.80E-05;-0.00016014;4.83E-05;1
2024/05/03/13:37:54.333369;238526;1714768674;333078480;world;-6.22E-06;-1.24E-05;-2.29E-05;2.51E-06;-6.84E-05;-2.61E-05;1
2024/05/03/13:37:54.353364;238527;1714768674;353052126;world;2.75E-06;7.49E-06;-3.10E-06;-2.88E-05;-0.000142078;3.30E-05;1
2024/05/03/13:37:54.384150;238528;1714768674;383847046;world;-8.94E-08;-9.72E-06;4.38E-06;-5.80E-05;-0.000185274;-7.99E-06;1
2024/05/03/13:37:54.413612;238529;1714768674;413294246;world;-1.79E-05;-8.03E-06;-4.03E-05;-1.71E-05;-2.42E-05;-1.47E-05;1
2024/05/03/13:37:54.413629;238530;1714768674;413329241;world;9.58E-06;1.54E-06;-3.85E-05;9.91E-05;8.96E-06;-0.000168197;1
2024/05/03/13:37:54.423181;238531;1714768674;422969180;world;-7.88E-06;-2.88E-05;-3.26E-05;8.18E-05;-2.56E-05;-0.001812328;0.999998331
2024/05/03/13:37:54.433514;238532;1714768674;433146349;world;6.33E-07;-3.45E-05;-1.59E-05;0.000126841;-0.000142012;-0.002498002;0.999996901
2024/05/03/13:37:54.443640;238533;1714768674;443325301;world;-6.80E-05;-3.46E-05;-7.80E-06;-1.64E-05;-9.71E-05;-0.004104955;0.999991655
2024/05/03/13:37:54.463511;238534;1714768674;462917432;world;-4.17E-05;-3.92E-05;-2.89E-06;7.77E-05;-5.38E-05;-0.006120989;0.999981284
2024/05/03/13:37:54.483403;238535;1714768674;483096532;world;-1.75E-05;-4.23E-05;-3.46E-05;5.03E-05;-5.49E-05;-0.008144638;0.99996686
2024/05/03/13:37:54.513318;238536;1714768674;513015881;world;-3.27E-05;-4.81E-05;-1.88E-05;0.000113742;-1.72E-05;-0.009287095;0.999956846
2024/05/03/13:37:54.513346;238537;1714768674;513050836;world;-7.48E-05;-2.61E-05;-8.42E-06;-1.62E-05;9.81E-05;-0.011754117;0.999930978
2024/05/03/13:37:54.523672;238538;1714768674;523369567;world;-3.47E-05;3.41E-05;-1.26E-05;-3.28E-05;9.89E-05;-0.014217244;0.999898911
2024/05/03/13:37:54.543323;238539;1714768674;543001011;world;2.57E-05;7.50E-05;-1.54E-05;9.73E-05;8.01E-05;-0.016690793;0.999860764
2024/05/03/13:37:54.553483;238540;1714768674;552943404;world;0.000127889;0.000106718;1.79E-05;0.000355471;5.83E-05;-0.019157559;0.999816477
2024/05/03/13:37:54.583817;238541;1714768674;583309853;world;8.65E-05;7.70E-05;3.83E-05;0.000245824;8.40E-05;-0.021730034;0.999763906
2024/05/03/13:37:54.583847;238542;1714768674;583345779;world;2.03E-05;1.30E-06;5.41E-05;0.000274859;2.73E-05;-0.024367185;0.999703109
2024/05/03/13:37:54.603820;238543;1714768674;603499956;world;-7.03E-06;-2.51E-05;5.85E-05;0.000188597;4.95E-05;-0.025605621;0.999672174
2024/05/03/13:37:54.613574;238544;1714768674;613297757;world;-5.28E-05;-4.35E-05;3.79E-05;0.000112279;3.26E-05;-0.028166259;0.999603331
2024/05/03/13:37:54.633471;238545;1714768674;633266218;world;1.73E-05;-7.07E-05;5.99E-05;0.000253319;3.65E-05;-0.030599941;0.999531746
2024/05/03/13:37:54.653310;238546;1714768674;652978351;world;3.98E-05;-4.00E-05;5.53E-05;0.000258018;7.19E-05;-0.032984834;0.999455869
2024/05/03/13:37:54.663671;238547;1714768674;663326066;world;7.81E-05;-1.13E-05;4.40E-05;0.000328658;0.000103811;-0.035501067;0.999369562
2024/05/03/13:37:54.683968;238548;1714768674;683296821;world;9.75E-05;5.85E-05;1.54E-05;0.000212856;4.09E-06;-0.037957955;0.99927932
2024/05/03/13:37:54.713232;238549;1714768674;712921781;world;0.000115164;5.86E-05;1.87E-05;0.000191077;6.89E-05;-0.040098283;0.999195755
2024/05/03/13:37:54.713256;238550;1714768674;712955353;world;6.08E-05;4.08E-05;1.86E-05;0.000101656;8.89E-05;-0.04230893;0.999104559
2024/05/03/13:37:54.723669;238551;1714768674;723383940;world;3.79E-05;4.00E-05;1.74E-05;0.000149946;0.000150738;-0.043452296;0.999055564
2024/05/03/13:37:54.743190;238552;1714768674;742879010;world;2.62E-06;2.08E-05;2.07E-05;0.00020947;0.000182925;-0.045624536;0.998958707
2024/05/03/13:37:54.763634;238553;1714768674;763280164;world;5.39E-05;7.27E-06;4.49E-05;0.000238236;0.00026835;-0.04764986;0.998864055
2024/05/03/13:37:54.784455;238554;1714768674;784007947;world;6.47E-05;2.20E-05;5.33E-05;0.000246721;0.00031514;-0.049581651;0.998770058
2024/05/03/13:37:54.784482;238555;1714768674;784041620;world;3.55E-05;2.87E-05;3.33E-05;0.000328556;0.000290079;-0.05156276;0.998669744
2024/05/03/13:37:54.823431;238556;1714768674;823112408;world;5.57E-05;2.66E-05;3.58E-05;0.000343927;0.000324218;-0.053554151;0.998564899
2024/05/03/13:37:54.823454;238557;1714768674;823147714;world;5.94E-05;4.61E-05;4.22E-05;0.00040136;0.000292128;-0.055381536;0.99846518
2024/05/03/13:37:54.833315;238558;1714768674;833034683;world;7.17E-05;6.33E-05;2.69E-05;0.000452338;0.000330724;-0.057144023;0.998365819
2024/05/03/13:37:54.853343;238559;1714768674;853025874;world;6.73E-05;5.25E-05;2.30E-06;0.000380892;0.000434497;-0.059055794;0.998254597
2024/05/03/13:37:54.863358;238560;1714768674;863026685;world;6.65E-05;5.56E-05;4.86E-06;0.000389384;0.000363222;-0.059932549;0.998202324
2024/05/03/13:37:54.893527;238561;1714768674;893229506;world;5.10E-05;3.65E-05;4.49E-05;0.00021061;0.000333388;-0.061634492;0.998098791
2024/05/03/13:37:54.913548;238562;1714768674;913202990;world;9.78E-05;7.88E-05;3.46E-05;0.000270638;0.000370548;-0.063266881;0.997996628
2024/05/03/13:37:54.923635;238563;1714768674;923296223;world;7.30E-05;5.88E-05;3.59E-05;9.95E-05;0.000403402;-0.064973243;0.997886956
2024/05/03/13:37:54.933362;238564;1714768674;933048610;world;2.40E-05;3.05E-05;2.35E-05;5.05E-05;0.000365393;-0.066694677;0.997773349
2024/05/03/13:37:54.943510;238565;1714768674;943158374;world;5.20E-05;5.69E-05;6.53E-05;0.00016094;0.00037527;-0.068234257;0.99766928
2024/05/03/13:37:54.963614;238566;1714768674;963214439;world;2.36E-05;6.66E-05;5.38E-05;0.000162953;0.000369927;-0.069815479;0.997559905
2024/05/03/13:37:54.973632;238567;1714768674;973278226;world;4.09E-05;7.54E-05;4.57E-05;0.000148243;0.000429256;-0.071272872;0.997456729
2024/05/03/13:37:54.993546;238568;1714768674;993272553;world;-5.63E-06;5.26E-05;7.73E-05;0.000130343;0.000296133;-0.072066158;0.997399807
2024/05/03/13:37:55.023408;238569;1714768675;23074623;world;4.91E-05;8.33E-05;9.79E-05;0.000257086;0.000289568;-0.073507167;0.997294605
2024/05/03/13:37:55.023433;238570;1714768675;23109929;world;4.64E-05;0.000100505;0.000114126;0.000259643;0.000218271;-0.07561747;0.997136831
2024/05/03/13:37:55.043410;238571;1714768675;43129823;world;6.52E-05;0.000110969;0.000107227;0.000339764;0.000299497;-0.076308846;0.9970842
2024/05/03/13:37:55.053434;238572;1714768675;52881881;world;4.73E-05;0.000113845;9.21E-05;0.000279545;0.000292763;-0.077665672;0.996979356
2024/05/03/13:37:55.073495;238573;1714768675;73121987;world;6.85E-05;0.000137027;8.31E-05;0.000333884;0.000303798;-0.078909248;0.996881723
2024/05/03/13:37:55.093288;238574;1714768675;92997425;world;7.54E-05;0.000132389;9.17E-05;0.000292888;0.000369865;-0.080304809;0.996770263
2024/05/03/13:37:55.124061;238575;1714768675;123466675;world;8.26E-05;0.000115249;0.00010713;0.000304906;0.000352627;-0.081664108;0.996659875
2024/05/03/13:37:55.133653;238576;1714768675;133139446;world;4.24E-05;9.32E-05;9.96E-05;0.00026176;0.000374391;-0.083008952;0.996548712
2024/05/03/13:37:55.133691;238577;1714768675;133177086;world;3.53E-05;0.000100216;0.000109366;0.000264618;0.000404212;-0.084422097;0.99642998
2024/05/03/13:37:55.153643;238578;1714768675;153261903;world;1.58E-05;8.64E-05;0.000111676;0.000130376;0.000428634;-0.085070126;0.996374905
2024/05/03/13:37:55.163584;238579;1714768675;163265530;world;2.41E-05;0.000100672;0.00011803;0.000150797;0.000413547;-0.086335741;0.996266067
2024/05/03/13:37:55.193527;238580;1714768675;193101504;world;3.06E-06;5.77E-05;0.0001115;0.000206326;0.000440027;-0.087806456;0.99613744
2024/05/03/13:37:55.193535;238581;1714768675;193140266;world;-3.96E-06;6.16E-05;9.79E-05;0.000169702;0.000344107;-0.089114472;0.99602133
2024/05/03/13:37:55.213467;238582;1714768675;213190527;world;1.06E-05;0.00010548;9.10E-05;0.000194639;0.000338742;-0.090508826;0.995895624
2024/05/03/13:37:55.233509;238583;1714768675;233232784;world;5.63E-05;0.000101633;8.04E-05;0.000189783;0.000387451;-0.091794737;0.995777845
2024/05/03/13:37:55.243573;238584;1714768675;243317764;world;9.10E-05;0.000110129;6.44E-05;0.000357859;0.000400675;-0.09306249;0.995660126
2024/05/03/13:37:55.264006;238585;1714768675;263666110;world;8.43E-05;0.000100538;6.18E-05;0.000202259;0.000471326;-0.09441451;0.99553287
2024/05/03/13:37:55.273884;238586;1714768675;273305899;world;9.26E-05;0.000115234;6.33E-05;0.000197788;0.000485095;-0.095055349;0.995471835
2024/05/03/13:37:55.293335;238587;1714768675;293081359;world;9.02E-05;0.000117017;4.53E-05;0.00021842;0.000502062;-0.096354969;0.995346963
2024/05/03/13:37:55.333581;238588;1714768675;333159353;world;7.55E-05;0.000104476;4.01E-05;0.000304341;0.000515183;-0.097686678;0.995217085
2024/05/03/13:37:55.343585;238589;1714768675;343275198;world;7.47E-05;9.64E-05;4.67E-05;0.000221711;0.000458263;-0.099025764;0.995084822
2024/05/03/13:37:55.343613;238590;1714768675;343306756;world;9.51E-05;9.31E-05;4.70E-05;0.000286651;0.000464412;-0.100290678;0.994958103
2024/05/03/13:37:55.353502;238591;1714768675;353149676;world;8.96E-05;9.71E-05;3.01E-05;0.000372675;0.000458719;-0.100946374;0.994891763
2024/05/03/13:37:55.364233;238592;1714768675;363935277;world;7.99E-05;9.04E-05;3.49E-05;0.00036909;0.000471907;-0.102182604;0.99476552
2024/05/03/13:37:55.383944;238593;1714768675;383439410;world;5.60E-05;6.81E-05;3.62E-05;0.000335333;0.000506158;-0.103561863;0.994622827
2024/05/03/13:37:55.403714;238594;1714768675;403335466;world;-4.58E-05;4.73E-05;4.19E-05;0.000147032;0.000542718;-0.105054677;0.994466364
2024/05/03/13:37:55.433237;238595;1714768675;432961560;world;-1.62E-05;2.99E-05;3.39E-05;0.000165251;0.000532645;-0.106308386;0.994333029
2024/05/03/13:37:55.433261;238596;1714768675;432995583;world;-1.57E-05;5.53E-05;5.14E-05;0.000280032;0.000559858;-0.107649207;0.994188786
2024/05/03/13:37:55.443633;238597;1714768675;443310218;world;-3.49E-05;5.34E-05;4.85E-05;0.000192201;0.000609406;-0.108823836;0.994060814
2024/05/03/13:37:55.463437;238598;1714768675;463108721;world;-1.47E-05;7.35E-05;2.77E-05;0.000276326;0.000659124;-0.110011674;0.993930101
2024/05/03/13:37:55.473383;238599;1714768675;473103832;world;-3.19E-05;7.17E-05;8.61E-06;0.000288628;0.000693947;-0.110660978;0.99385792
2024/05/03/13:37:55.503330;238600;1714768675;503030395;world;-4.46E-06;6.18E-05;1.05E-05;0.000276427;0.000669561;-0.111984037;0.993709803
2024/05/03/13:37:55.503350;238601;1714768675;503071792;world;2.66E-05;6.89E-05;1.24E-05;0.000334982;0.000572553;-0.113289826;0.993561864
2024/05/03/13:37:55.543571;238602;1714768675;543329487;world;9.94E-05;0.00010631;2.70E-05;0.000620393;0.000644095;-0.114706412;0.993399024
2024/05/03/13:37:55.543604;238603;1714768675;543365644;world;7.68E-05;0.000109522;3.90E-05;0.000582268;0.000559243;-0.116004147;0.993248463
2024/05/03/13:37:55.553350;238604;1714768675;553074813;world;6.79E-05;0.000138361;6.85E-06;0.000555996;0.000627355;-0.117341585;0.993091226
2024/05/03/13:37:55.573549;238605;1714768675;573249617;world;7.55E-05;0.000154348;1.78E-05;0.000620108;0.000612338;-0.118693002;0.992930651
2024/05/03/13:37:55.583600;238606;1714768675;583350305;world;7.59E-05;0.000149246;3.78E-05;0.000598055;0.000659427;-0.120053634;0.992766976
2024/05/03/13:37:55.603700;238607;1714768675;603331869;world;9.51E-05;0.000138082;4.79E-05;0.000644873;0.000632747;-0.121418759;0.992600977
2024/05/03/13:37:55.643297;238608;1714768675;642885045;world;0.000140924;0.000132704;5.70E-05;0.000797873;0.000568872;-0.122626588;0.992452443
2024/05/03/13:37:55.643323;238610;1714768675;642927474;world;0.000126526;0.000135163;5.42E-05;0.000718851;0.000534289;-0.124614835;0.992204845
2024/05/03/13:37:55.663550;238611;1714768675;663206835;world;0.000137385;0.000125404;3.84E-05;0.000700072;0.000576541;-0.125870392;0.992046356
2024/05/03/13:37:55.683275;238612;1714768675;682947270;world;0.000137769;0.000110656;5.15E-05;0.000690573;0.000532975;-0.127184376;0.991878748
2024/05/03/13:37:55.703751;238613;1714768675;703163591;world;9.02E-05;8.09E-05;4.99E-05;0.000676622;0.000601246;-0.1286221;0.991693318
2024/05/03/13:37:55.713216;238614;1714768675;712959861;world;7.48E-05;7.74E-05;3.91E-05;0.000757981;0.000567263;-0.129967794;0.991517842
2024/05/03/13:37:55.743367;238615;1714768675;743103065;world;8.35E-05;6.92E-05;3.68E-05;0.000861454;0.000598797;-0.130667552;0.991425753
2024/05/03/13:37:55.743404;238616;1714768675;743137429;world;0.000103299;7.83E-05;5.30E-05;0.000753104;0.000594924;-0.132100731;0.991235852
2024/05/03/13:37:55.763352;238617;1714768675;763087145;world;0.00011567;8.90E-05;5.36E-05;0.000807057;0.000606064;-0.133448645;0.99105525
2024/05/03/13:37:55.773580;238618;1714768675;773338713;world;0.00016164;9.87E-05;5.11E-05;0.000971799;0.000624393;-0.134800136;0.990872204
2024/05/03/13:37:55.793527;238619;1714768675;793261888;world;0.000130925;8.81E-05;3.41E-05;0.000864984;0.000659972;-0.136242047;0.990675032
2024/05/03/13:37:55.813187;238620;1714768675;812895475;world;0.000127047;8.98E-05;2.25E-05;0.000805442;0.000621439;-0.137611777;0.990485728
2024/05/03/13:37:55.833994;238621;1714768675;833590677;world;0.000131492;9.20E-05;2.28E-05;0.000697881;0.00065679;-0.138862297;0.990311265
2024/05/03/13:37:55.834013;238622;1714768675;833639959;world;0.000121541;8.31E-05;4.50E-06;0.000627594;0.000667541;-0.140119255;0.990134299
2024/05/03/13:37:55.853405;238623;1714768675;853092300;world;0.000122819;8.17E-05;-2.00E-05;0.000764303;0.000747957;-0.140760496;0.990043163
2024/05/03/13:37:55.863424;238624;1714768675;862831514;world;0.000133287;8.34E-05;-3.87E-05;0.000684699;0.000803097;-0.141999111;0.989866316
2024/05/03/13:37:55.883239;238625;1714768675;883023479;world;0.000219218;0.000125656;3.22E-05;0.000613467;0.000541161;-0.143656418;0.989627361
2024/05/03/13:37:55.893523;238626;1714768675;893242135;world;0.000196036;9.00E-05;1.83E-05;0.000500165;0.000574585;-0.144453868;0.989511311
2024/05/03/13:37:55.913913;238627;1714768675;913632941;world;0.000193059;0.000117838;-1.27E-05;0.000574381;0.000641542;-0.145796597;0.989314198
2024/05/03/13:37:55.943278;238628;1714768675;942941495;world;0.00012397;1.61E-05;-6.16E-06;0.000608398;0.000663615;-0.147454128;0.989068568
2024/05/03/13:37:55.953320;238629;1714768675;952963034;world;0.000108562;3.68E-06;-1.88E-05;0.000746601;0.00073751;-0.14882274;0.988863349
2024/05/03/13:37:55.963428;238630;1714768675;963081552;world;0.000130374;4.18E-05;-2.97E-06;0.000813135;0.000710991;-0.149387628;0.988778174
2024/05/03/13:37:55.973568;238631;1714768675;973265334;world;0.000150435;6.65E-05;-4.14E-07;0.000786543;0.000708164;-0.151179925;0.988505721
2024/05/03/13:37:55.993256;238632;1714768675;992934774;world;0.000146803;6.64E-05;-1.10E-06;0.000751188;0.000665774;-0.151800185;0.988410711
2024/05/03/13:37:56.013487;238633;1714768676;13200933;world;0.000123724;6.39E-05;1.77E-05;0.000711635;0.00067137;-0.153098032;0.988210559
2024/05/03/13:37:56.053340;238634;1714768676;53035944;world;6.76E-05;5.67E-05;2.20E-05;0.00055765;0.000808495;-0.154611439;0.987974882
2024/05/03/13:37:56.053367;238636;1714768676;53078974;world;4.21E-05;0.000103781;3.86E-05;0.000382675;0.00091874;-0.157182127;0.987569153
2024/05/03/13:37:56.073507;238637;1714768676;73083302;world;0.000151552;8.98E-05;-4.72E-06;0.000755636;0.000796498;-0.15820688;0.98740536
2024/05/03/13:37:56.083291;238638;1714768676;82990689;world;0.00013997;0.000101306;-1.32E-05;0.000825745;0.000777268;-0.15953353;0.987191916
2024/05/03/13:37:56.103532;238639;1714768676;103211591;world;0.000117462;9.93E-05;-2.03E-05;0.000628453;0.00082388;-0.16091451;0.986967862
2024/05/03/13:37:56.123411;238640;1714768676;123078201;world;0.000140861;9.19E-05;-1.86E-05;0.000740805;0.000873269;-0.161563039;0.986861765
2024/05/03/13:37:56.163317;238641;1714768676;163036924;world;0.000168268;0.000102716;-7.45E-06;0.000755865;0.000895546;-0.162840068;0.986651778
2024/05/03/13:37:56.163325;238642;1714768676;163075656;world;0.000180699;8.88E-05;6.83E-06;0.00071027;0.000853458;-0.164782733;0.986329257
2024/05/03/13:37:56.173653;238643;1714768676;173344855;world;0.000173114;6.73E-05;5.55E-06;0.000781072;0.000801032;-0.166100442;0.986108243
2024/05/03/13:37:56.183823;238644;1714768676;183448097;world;0.000163369;5.58E-05;-9.42E-06;0.000719256;0.000882131;-0.166727677;0.986002326
2024/05/03/13:37:56.193443;238645;1714768676;193117880;world;7.09E-05;-1.03E-05;1.01E-05;0.000839632;0.00086654;-0.168380573;0.98572135
2024/05/03/13:37:56.224530;238646;1714768676;223259633;world;4.23E-05;-2.96E-05;8.76E-05;0.000781708;0.000793668;-0.169817656;0.985474944
2024/05/03/13:37:56.253389;238647;1714768676;253023042;world;4.13E-05;-3.31E-05;4.17E-05;0.000829025;0.000915337;-0.171126783;0.985248327
2024/05/03/13:37:56.253468;238648;1714768676;253057035;world;5.89E-05;-1.39E-06;-1.29E-05;0.00086121;0.000955631;-0.171679333;0.985152125
2024/05/03/13:37:56.263885;238649;1714768676;263523783;world;8.55E-05;3.85E-05;1.02E-05;0.000870412;0.000801237;-0.172843114;0.984948695
2024/05/03/13:37:56.273534;238650;1714768676;273233643;world;8.25E-05;4.40E-05;1.43E-05;0.000839138;0.000808851;-0.174239725;0.984702647
2024/05/03/13:37:56.293331;238651;1714768676;293061331;world;7.71E-05;7.67E-05;2.02E-05;0.000773044;0.000773575;-0.175635919;0.984454632
2024/05/03/13:37:56.303247;238652;1714768676;302961686;world;7.65E-05;8.73E-05;2.79E-06;0.000803935;0.00075854;-0.176956668;0.984218001
2024/05/03/13:37:56.323620;238653;1714768676;323327295;world;9.09E-05;8.68E-05;2.15E-06;0.001045213;0.000544681;-0.178334221;0.983969331
2024/05/03/13:37:56.373726;238654;1714768676;373260509;world;0.000193432;9.51E-05;-2.80E-05;0.001532583;0.000319048;-0.17932938;0.983787894
2024/05/03/13:37:56.373752;238656;1714768676;373304862;world;0.000145294;9.04E-05;3.69E-05;0.000775806;0.000632153;-0.181594193;0.983373106
2024/05/03/13:37:56.383421;238657;1714768676;383151276;world;0.00010043;9.31E-05;4.92E-05;0.000674637;0.000640778;-0.182927653;0.983125985
2024/05/03/13:37:56.403242;238658;1714768676;402946346;world;8.40E-05;6.69E-05;3.28E-05;0.000895798;0.000537749;-0.184907332;0.982755482
2024/05/03/13:37:56.423350;238659;1714768676;422985115;world;7.49E-05;6.03E-05;2.71E-05;0.000847895;0.000523559;-0.185533375;0.982637465
2024/05/03/13:37:56.433243;238660;1714768676;433002287;world;6.04E-05;5.46E-05;8.90E-06;0.000778049;0.000594613;-0.186781541;0.982401073
2024/05/03/13:37:56.443602;238661;1714768676;443299661;world;2.98E-05;4.01E-05;-1.31E-05;0.0007689;0.000626225;-0.188083649;0.982152522
2024/05/03/13:37:56.463455;238662;1714768676;463145242;world;2.28E-05;4.92E-05;1.74E-05;0.000754467;0.000661718;-0.189445361;0.981890738
2024/05/03/13:37:56.483373;238663;1714768676;483000291;world;-3.41E-05;4.69E-05;1.45E-05;0.000724363;0.000832512;-0.190827444;0.981623054
2024/05/03/13:37:56.493301;238664;1714768676;493032100;world;-3.68E-05;4.92E-05;1.25E-05;0.000644333;0.000906282;-0.191477135;0.981496453
2024/05/03/13:37:56.503849;238665;1714768676;503495824;world;-6.70E-05;6.18E-05;3.50E-05;0.000521523;0.001010799;-0.192822978;0.981232882
2024/05/03/13:37:56.523597;238666;1714768676;523327029;world;-5.24E-05;5.47E-05;6.48E-05;0.000478876;0.001221973;-0.194155455;0.980969906
2024/05/03/13:37:56.563750;238667;1714768676;563428417;world;-2.20E-05;5.61E-05;8.28E-05;0.000552675;0.001161055;-0.195522994;0.980698287
2024/05/03/13:37:56.573341;238668;1714768676;573026167;world;-8.35E-05;-4.65E-06;4.00E-05;0.000825999;0.001197877;-0.197169006;0.980368435
2024/05/03/13:37:56.573370;238669;1714768676;573088122;world;-3.25E-05;1.64E-05;-3.62E-05;0.001023603;0.001036879;-0.198308513;0.98013854
2024/05/03/13:37:56.593740;238670;1714768676;593471746;world;0.000121232;2.23E-05;-1.82E-05;0.001202796;0.000863301;-0.199271962;0.979943097
2024/05/03/13:37:56.603419;238671;1714768676;603137322;world;0.000128791;2.07E-05;1.35E-05;0.001107563;0.00084675;-0.199913025;0.979812741
2024/05/03/13:37:56.633405;238672;1714768676;633126159;world;9.30E-05;1.49E-05;3.70E-05;0.001067732;0.00084496;-0.201286376;0.979531527
2024/05/03/13:37:56.633412;238673;1714768676;633160342;world;0.000102017;1.14E-05;1.76E-05;0.001139104;0.000860738;-0.202552006;0.979270458
2024/05/03/13:37:56.683517;238674;1714768676;683236472;world;4.98E-05;2.81E-06;2.12E-05;0.001186804;0.000876956;-0.204609022;0.978842735
2024/05/03/13:37:56.683551;238676;1714768676;683280103;world;6.81E-05;5.61E-06;1.54E-05;0.00132583;0.000856249;-0.206422359;0.978461742
2024/05/03/13:37:56.693448;238677;1714768676;693176731;world;7.53E-05;4.82E-06;7.01E-06;0.001262841;0.000828594;-0.207751885;0.978180408
2024/05/03/13:37:56.713635;238678;1714768676;713356895;world;7.35E-05;2.11E-05;2.97E-05;0.001217779;0.000955476;-0.209146455;0.977883101
2024/05/03/13:37:56.733336;238679;1714768676;733052279;world;7.29E-05;2.50E-05;2.97E-05;0.00122772;0.00102761;-0.210454762;0.977602303
2024/05/03/13:37:56.773366;238680;1714768676;773064750;world;8.19E-05;4.22E-05;4.97E-05;0.001152767;0.001092171;-0.211785063;0.977314949
2024/05/03/13:37:56.773393;238682;1714768676;773118089;world;7.69E-05;6.02E-05;1.65E-05;0.001263105;0.001039964;-0.213793114;0.97687757
2024/05/03/13:37:56.793146;238683;1714768676;792878633;world;7.32E-05;5.06E-05;1.62E-05;0.001325294;0.001041792;-0.215180084;0.976572931
2024/05/03/13:37:56.803242;238684;1714768676;802981896;world;4.57E-05;7.01E-05;6.00E-05;0.001131508;0.001245854;-0.216540813;0.976272166
2024/05/03/13:37:56.823232;238685;1714768676;822942951;world;6.49E-05;6.96E-05;7.23E-05;0.001198103;0.001300261;-0.217831105;0.975984931
2024/05/03/13:37:56.834754;238686;1714768676;833806799;world;6.89E-05;7.44E-05;6.06E-05;0.001262371;0.00129246;-0.218433261;0.975850284
2024/05/03/13:37:56.873615;238687;1714768676;873310804;world;2.76E-05;8.02E-05;9.19E-05;0.001226661;0.00129403;-0.219730437;0.975559056
2024/05/03/13:37:56.873638;238688;1714768676;873345879;world;2.26E-05;6.61E-05;0.000103439;0.001183061;0.001320432;-0.221145317;0.975239336
2024/05/03/13:37:56.883828;238689;1714768676;883307247;world;3.90E-05;7.93E-05;7.80E-05;0.001192732;0.001147553;-0.222247988;0.974988818
2024/05/03/13:37:56.903523;238690;1714768676;903171625;world;2.38E-05;5.93E-05;6.95E-05;0.001166235;0.001179102;-0.223487228;0.974705517
2024/05/03/13:37:56.924602;238691;1714768676;923947328;world;7.94E-06;5.17E-05;3.62E-05;0.001094221;0.001209514;-0.224885076;0.97438395
2024/05/03/13:37:56.943975;238692;1714768676;942984204;world;3.60E-05;3.63E-05;-2.37E-05;0.001357441;0.001225332;-0.226091146;0.974104464
2024/05/03/13:37:56.973562;238693;1714768676;973258072;world;-4.72E-05;-1.03E-05;-7.93E-05;0.001520325;0.001243902;-0.227546722;0.973765254
2024/05/03/13:37:56.973593;238694;1714768676;973293238;world;-2.58E-05;-2.74E-05;-6.13E-05;0.001491801;0.001124976;-0.228923455;0.973442674
2024/05/03/13:37:56.983788;238695;1714768676;983406408;world;-8.98E-05;-1.18E-06;-6.90E-05;0.001525745;0.001158489;-0.230248064;0.973130167
2024/05/03/13:37:56.993170;238696;1714768676;992865822;world;-2.39E-05;4.10E-05;-7.04E-05;0.001470625;0.001180059;-0.231439501;0.972847462
2024/05/03/13:37:57.013945;238697;1714768677;13290744;world;-2.21E-05;6.91E-05;-2.83E-05;0.001226338;0.001176783;-0.23263149;0.972563505
2024/05/03/13:37:57.023615;238698;1714768677;23286024;world;-2.60E-05;3.22E-05;2.30E-05;0.001100179;0.00108824;-0.233271271;0.9724105
2024/05/03/13:37:57.043307;238699;1714768677;42910105;world;-2.49E-05;4.16E-05;-6.81E-06;0.001186443;0.001105549;-0.234515652;0.972110987
2024/05/03/13:37:57.083651;238700;1714768677;83304687;world;-8.81E-05;7.77E-06;2.66E-06;0.001299272;0.00112017;-0.235932902;0.971767843
2024/05/03/13:37:57.083654;238702;1714768677;83350172;world;-7.70E-05;3.03E-06;3.46E-06;0.001372081;0.001151609;-0.238582611;0.971120536
2024/05/03/13:37:57.103654;238703;1714768677;103358998;world;-7.89E-05;1.60E-05;1.95E-05;0.001358103;0.001081234;-0.239895567;0.970797181
2024/05/03/13:37:57.123455;238704;1714768677;123117377;world;-7.49E-05;2.73E-05;2.44E-05;0.001442141;0.001032495;-0.241198793;0.970474184
2024/05/03/13:37:57.143664;238705;1714768677;143351153;world;-8.85E-05;9.70E-06;-2.37E-06;0.001498273;0.001155329;-0.242579654;0.970129728
2024/05/03/13:37:57.163435;238706;1714768677;163115184;world;-0.000104453;6.13E-06;2.24E-05;0.001478424;0.001146042;-0.243907899;0.969796658
2024/05/03/13:37:57.183619;238707;1714768677;183309695;world;-7.86E-05;8.99E-06;2.15E-05;0.001513653;0.001145478;-0.244566366;0.969630718
2024/05/03/13:37:57.183651;238708;1714768677;183343137;world;-6.12E-05;1.86E-05;1.69E-05;0.001608938;0.00114467;-0.245787695;0.969321728
2024/05/03/13:37:57.193552;238709;1714768677;193161649;world;-3.89E-05;4.01E-05;2.44E-06;0.001544775;0.001237128;-0.24693951;0.96902889
2024/05/03/13:37:57.214216;238710;1714768677;213611986;world;1.14E-06;7.14E-05;5.74E-06;0.001565482;0.001094976;-0.248140469;0.968722165
2024/05/03/13:37:57.223191;238711;1714768677;222885905;world;3.31E-05;5.71E-05;2.86E-06;0.001539874;0.001009534;-0.249339312;0.968414426
2024/05/03/13:37:57.244138;238712;1714768677;243844718;world;5.39E-05;7.22E-05;3.59E-05;0.001478816;0.000920233;-0.250529408;0.968107522
2024/05/03/13:37:57.273277;238713;1714768677;272979348;world;4.60E-05;7.21E-05;4.62E-05;0.001484224;0.000889272;-0.251763612;0.967787206
2024/05/03/13:37:57.273308;238714;1714768677;273017669;world;5.07E-05;8.09E-05;3.48E-05;0.00144147;0.000911468;-0.252402306;0.967620969
2024/05/03/13:37:57.293512;238715;1714768677;293205228;world;4.85E-05;8.01E-05;1.10E-05;0.001590107;0.000876543;-0.253671736;0.967288673
2024/05/03/13:37:57.303599;238716;1714768677;303225025;world;3.74E-06;9.66E-05;2.22E-05;0.001419755;0.00096586;-0.254940987;0.966955066
2024/05/03/13:37:57.323494;238717;1714768677;323239802;world;-5.79E-06;9.66E-05;3.90E-05;0.001441479;0.000966847;-0.2562069;0.966620386
2024/05/03/13:37:57.343208;238718;1714768677;342923513;world;-7.91E-06;0.000100233;3.28E-05;0.001362126;0.000929973;-0.257515639;0.966272771
2024/05/03/13:37:57.353481;238719;1714768677;353221348;world;-1.78E-05;9.54E-05;4.82E-05;0.001357705;0.000966341;-0.258840561;0.965918601
2024/05/03/13:37:57.383694;238720;1714768677;383174338;world;-2.06E-05;9.44E-05;6.05E-05;0.001365399;0.000961939;-0.259494513;0.965743124
2024/05/03/13:37:57.383724;238721;1714768677;383209173;world;-2.75E-05;0.000100402;7.13E-05;0.001354905;0.000979489;-0.260786504;0.965395153
2024/05/03/13:37:57.393721;238722;1714768677;393417029;world;-6.56E-05;0.000126677;5.44E-05;0.001306389;0.000967022;-0.262106478;0.965037644
2024/05/03/13:37:57.413600;238723;1714768677;413242153;world;-8.49E-05;0.000133941;5.75E-05;0.00130546;0.000923634;-0.263445228;0.964673102
2024/05/03/13:37:57.433652;238724;1714768677;433283150;world;-9.69E-05;0.000140319;9.70E-05;0.001218808;0.001040866;-0.264681637;0.964334488
2024/05/03/13:37:57.453331;238725;1714768677;453019910;world;-7.86E-05;0.000139259;8.79E-05;0.001215047;0.001001473;-0.265952379;0.963984907
2024/05/03/13:37:57.493578;238726;1714768677;493291926;world;-8.35E-05;0.000145698;7.38E-05;0.001254838;0.001053167;-0.2672925;0.963614047
2024/05/03/13:37:57.493609;238728;1714768677;493346307;world;3.36E-05;0.00012208;3.67E-05;0.001367348;0.000930013;-0.269008577;0.963136435
2024/05/03/13:37:57.513770;238729;1714768677;513251324;world;4.12E-05;0.000155071;7.16E-05;0.001434901;0.000733528;-0.27081731;0.962629437
2024/05/03/13:37:57.523372;238730;1714768677;523069370;world;8.15E-06;0.000147048;9.78E-05;0.001450582;0.00069342;-0.271480024;0.962442815
2024/05/03/13:37:57.553328;238731;1714768677;553029354;world;-4.27E-05;0.000192072;9.47E-05;0.001281773;0.000746187;-0.272829175;0.962061405
2024/05/03/13:37:57.553352;238732;1714768677;553060332;world;-3.53E-05;0.000148222;0.00011017;0.00134156;0.000653588;-0.27420494;0.961670101
2024/05/03/13:37:57.603208;238733;1714768677;602900925;world;-5.66E-05;0.00015646;9.92E-05;0.001242635;0.000988235;-0.275545031;0.961286843
2024/05/03/13:37:57.603233;238735;1714768677;602944817;world;-6.60E-05;0.000164606;8.28E-05;0.001242607;0.001001935;-0.277411938;0.960749805
2024/05/03/13:37:57.613407;238736;1714768677;613085099;world;-7.21E-05;0.000175962;6.91E-05;0.001250914;0.001050586;-0.278677076;0.960383475
2024/05/03/13:37:57.633260;238737;1714768677;632985782;world;-8.04E-05;0.000182565;9.01E-05;0.001274221;0.001093679;-0.279963762;0.960009158
2024/05/03/13:37:57.653559;238738;1714768677;653243421;world;-9.82E-05;0.000182662;0.00012194;0.001647771;0.00085425;-0.281962156;0.959423721
2024/05/03/13:37:57.703614;238739;1714768677;703146451;world;-5.84E-05;0.000174848;0.000120619;0.00181637;0.000805679;-0.282656342;0.959219217
2024/05/03/13:37:57.703637;238740;1714768677;703182088;world;-8.97E-05;0.000182547;0.000135781;0.001855534;0.000860126;-0.283882886;0.958856761
2024/05/03/13:37:57.713508;238741;1714768677;713147983;world;-6.49E-05;0.000175914;0.000127128;0.001952561;0.00084758;-0.285076797;0.958502293
2024/05/03/13:37:57.713535;238742;1714768677;713181776;world;-8.58E-05;0.000195369;9.62E-05;0.001810764;0.001167838;-0.286294788;0.958139181
2024/05/03/13:37:57.723158;238743;1714768677;722915831;world;-4.15E-05;0.000191437;0.000133384;0.001937947;0.000929202;-0.287527621;0.95776993
2024/05/03/13:37:57.743241;238744;1714768677;742993715;world;-5.07E-05;0.000206044;0.000137307;0.001871972;0.000988034;-0.288241982;0.957555234
2024/05/03/13:37:57.753695;238745;1714768677;753352217;world;-4.52E-05;0.000193115;0.00013239;0.00189753;0.001111165;-0.289532244;0.957165837
2024/05/03/13:37:57.813296;238746;1714768677;812992060;world;-6.60E-05;0.000215746;0.000151369;0.001838847;0.001114076;-0.29085204;0.956765711
2024/05/03/13:37:57.813340;238748;1714768677;813034769;world;-0.000141438;0.000247091;7.74E-05;0.001707811;0.001411629;-0.293337941;0.956006289
2024/05/03/13:37:57.823473;238749;1714768677;823168217;world;-0.000123259;0.000241665;8.70E-05;0.001720687;0.00137679;-0.294635922;0.955607116
2024/05/03/13:37:57.843217;238750;1714768677;842912211;world;-0.000117913;0.000243125;9.83E-05;0.001556135;0.00138808;-0.295945287;0.955202699
2024/05/03/13:37:57.853585;238751;1714768677;853285876;world;-0.000115428;0.000238232;7.66E-05;0.001526692;0.001432985;-0.297209531;0.954809964
2024/05/03/13:37:57.903890;238752;1714768677;903609306;world;-0.000111191;0.000241863;6.28E-05;0.001562126;0.001419858;-0.29780674;0.954623818
2024/05/03/13:37:57.904006;238754;1714768677;903651996;world;-4.68E-05;0.000176322;3.80E-05;0.001955835;0.001026323;-0.300139219;0.953892827
2024/05/03/13:37:57.923321;238755;1714768677;923000112;world;-6.90E-05;0.000189114;3.41E-05;0.001884775;0.001030734;-0.30200547;0.953303754
2024/05/03/13:37:57.933242;238756;1714768677;932945570;world;-6.86E-05;0.000176568;4.86E-05;0.001872705;0.001065667;-0.302645504;0.953100801
2024/05/03/13:37:57.963479;238757;1714768677;963041959;world;-7.85E-05;0.000170927;2.93E-05;0.00183409;0.001037462;-0.303914994;0.9526968
2024/05/03/13:37:57.963501;238758;1714768677;963074530;world;-9.96E-05;0.000210986;7.17E-05;0.001768334;0.001200049;-0.305259705;0.952266812
2024/05/03/13:37:57.993479;238759;1714768677;993025309;world;-0.000116982;0.000206161;7.11E-05;0.0017011;0.001280026;-0.30652827;0.951859236
2024/05/03/13:37:58.003346;238760;1714768678;3039474;world;-0.000114338;0.000208477;5.90E-05;0.001606913;0.001336475;-0.307177365;0.951649964
2024/05/03/13:37:58.013432;238761;1714768678;13116007;world;-0.000110416;0.000225607;9.59E-05;0.001752142;0.001327596;-0.309168667;0.951004684
2024/05/03/13:37:58.023768;238762;1714768678;23456199;world;-0.000123657;0.000221606;0.000105397;0.001767833;0.001300482;-0.309766233;0.950810254
2024/05/03/13:37:58.043126;238763;1714768678;42910754;world;-0.000137011;0.000217931;0.000127761;0.001770681;0.001422966;-0.311092764;0.950376868
2024/05/03/13:37:58.063668;238764;1714768678;63339863;world;-0.000150543;0.00024589;0.000117731;0.001684328;0.001309961;-0.312495291;0.949916899
2024/05/03/13:37:58.103473;238765;1714768678;103161139;world;-0.000103056;0.000277741;0.000151389;0.001710633;0.001410472;-0.313860267;0.949466646
2024/05/03/13:37:58.103498;238767;1714768678;103207576;world;-0.000124436;0.000256663;0.000138437;0.001832337;0.001510595;-0.316525877;0.94858098
2024/05/03/13:37:58.113203;238768;1714768678;112920882;world;-0.00013775;0.000260724;0.000136777;0.00179464;0.001553724;-0.317121148;0.948382139
2024/05/03/13:37:58.133397;238769;1714768678;133016928;world;-0.000103895;0.000300188;0.000138055;0.001733815;0.001570135;-0.318399727;0.947953701
2024/05/03/13:37:58.153335;238770;1714768678;152928126;world;-9.66E-05;0.000303108;0.000121967;0.00199081;0.001764613;-0.319655448;0.947530091
2024/05/03/13:37:58.163607;238771;1714768678;163367384;world;-0.000151532;0.000275591;0.000116227;0.002092843;0.001814279;-0.321147859;0.947025001
2024/05/03/13:37:58.193686;238772;1714768678;193363106;world;-0.000157218;0.000249831;0.000104631;0.00202064;0.001829404;-0.322409362;0.946596444
2024/05/03/13:37:58.203559;238773;1714768678;203102230;world;-0.000180887;0.000239005;0.000105994;0.002001254;0.001813151;-0.323590785;0.946193278
2024/05/03/13:37:58.213497;238774;1714768678;213172111;world;-0.000135481;0.000270782;0.000132119;0.002011782;0.001667417;-0.324747086;0.945797384
2024/05/03/13:37:58.223776;238775;1714768678;223308362;world;-0.000108218;0.000272611;0.000128085;0.00192631;0.001723311;-0.325286537;0.945611954
2024/05/03/13:37:58.243292;238776;1714768678;242967241;world;-6.61E-05;0.000260936;0.000121684;0.001932556;0.001547904;-0.326361835;0.94524169
2024/05/03/13:37:58.263592;238777;1714768678;263299547;world;-9.38E-05;0.000236919;9.99E-05;0.001978669;0.001532914;-0.327511817;0.944843829
2024/05/03/13:37:58.273762;238778;1714768678;273404754;world;-9.71E-05;0.000220606;0.000113432;0.001994755;0.001486368;-0.328732371;0.944419861
2024/05/03/13:37:58.303946;238779;1714768678;303834262;world;-0.000120346;0.000195237;0.000126554;0.002107207;0.001360238;-0.330011576;0.943973601
2024/05/03/13:37:58.313334;238780;1714768678;312999399;world;-9.26E-05;0.000211231;0.000113712;0.00223809;0.001240041;-0.331294626;0.943523943
2024/05/03/13:37:58.323677;238781;1714768678;323397679;world;-7.63E-05;0.000202926;0.000122249;0.002271185;0.00107763;-0.332514107;0.943094969
2024/05/03/13:37:58.333299;238782;1714768678;332989269;world;-6.82E-05;0.000216577;0.000130087;0.002341538;0.001108608;-0.333825976;0.942631185
2024/05/03/13:37:58.353296;238783;1714768678;353000038;world;-2.53E-05;0.000202972;0.000109382;0.002372477;0.001059943;-0.335034698;0.94220221
2024/05/03/13:37:58.373783;238784;1714768678;373362404;world;-1.78E-05;0.000198312;0.000112895;0.002412821;0.000986664;-0.33565262;0.94198221
2024/05/03/13:37:58.393990;238785;1714768678;393656610;world;-4.97E-06;0.000209562;0.000112845;0.002353659;0.000891289;-0.336843461;0.941557288
2024/05/03/13:37:58.394018;238786;1714768678;393699680;world;9.10E-05;0.000234317;0.000143432;0.002007288;0.00076858;-0.337893188;0.941182077
2024/05/03/13:37:58.413456;238787;1714768678;413140279;world;0.000153445;0.0002793;9.14E-05;0.002117688;0.000877379;-0.33888486;0.940825045
2024/05/03/13:37:58.433754;238788;1714768678;433434921;world;0.000117803;0.000276268;0.000108431;0.002117376;0.000909453;-0.340196371;0.940351665
2024/05/03/13:37:58.443602;238789;1714768678;443049252;world;-4.11E-05;0.00021717;6.94E-05;0.002320187;0.001227235;-0.341979742;0.939703703
2024/05/03/13:37:58.473557;238790;1714768678;473241949;world;-1.93E-06;0.000229254;7.19E-05;0.002236396;0.001285027;-0.343132198;0.939283669
2024/05/03/13:37:58.473580;238791;1714768678;473302582;world;-2.18E-05;0.00023382;8.46E-05;0.002263136;0.001356659;-0.3444058;0.938817263
2024/05/03/13:37:58.503408;238792;1714768678;503111013;world;9.39E-07;0.000223828;8.67E-05;0.002405837;0.001320388;-0.345762461;0.938318133
2024/05/03/13:37:58.503445;238793;1714768678;503145397;world;-3.18E-05;0.000206148;6.45E-05;0.00240136;0.001379185;-0.346489966;0.938049614
2024/05/03/13:37:58.523224;238794;1714768678;522923008;world;-5.66E-05;0.000197414;9.22E-05;0.002344552;0.001455637;-0.34834224;0.937363327
2024/05/03/13:37:58.543511;238795;1714768678;543226941;world;-2.82E-05;0.000204338;9.87E-05;0.00243387;0.001375164;-0.348938167;0.937141657
2024/05/03/13:37:58.553724;238796;1714768678;553475093;world;-1.17E-05;0.000188736;8.69E-05;0.002425801;0.001350913;-0.350185424;0.936676323
2024/05/03/13:37:58.573466;238797;1714768678;573206121;world;-7.28E-05;0.000210527;6.78E-05;0.002487055;0.001431468;-0.351417035;0.936214685
2024/05/03/13:37:58.613441;238798;1714768678;612912355;world;-4.58E-05;0.000204321;6.28E-05;0.002555978;0.001343072;-0.352616429;0.935763538
2024/05/03/13:37:58.613465;238800;1714768678;612956197;world;-2.78E-05;0.000229444;0.000119153;0.002509748;0.001341918;-0.354547828;0.93503356
2024/05/03/13:37:58.633864;238801;1714768678;633536325;world;-7.57E-05;0.000231188;0.0001321;0.002444286;0.001338361;-0.355774611;0.93456763
2024/05/03/13:37:58.643436;238802;1714768678;643133556;world;-8.13E-05;0.000258528;0.00011704;0.002452695;0.001290243;-0.357034385;0.934087157
2024/05/03/13:37:58.663192;238803;1714768678;662895744;world;-8.33E-05;0.000266172;0.000143361;0.002458797;0.001223441;-0.358221412;0.933632612
2024/05/03/13:37:58.683517;238804;1714768678;682997623;world;-0.00012613;0.000246422;0.000143044;0.002430212;0.001251917;-0.359552264;0.933120966
2024/05/03/13:37:58.713172;238805;1714768678;712850879;world;-6.64E-05;0.000227433;0.000166756;0.002538179;0.001160787;-0.360879242;0.932608366
2024/05/03/13:37:58.713196;238806;1714768678;712887207;world;-6.56E-05;0.000225917;0.000156356;0.002651623;0.000964503;-0.362195492;0.932097912
2024/05/03/13:37:58.723650;238807;1714768678;723386208;world;-5.29E-05;0.000223525;0.000161282;0.002706423;0.000919664;-0.362767637;0.931875288
2024/05/03/13:37:58.743571;238808;1714768678;743245224;world;-2.97E-05;0.000204463;0.000146603;0.002831925;0.00079492;-0.363897264;0.931434512
2024/05/03/13:37:58.753509;238809;1714768678;753231949;world;-0.000103423;0.000187201;9.71E-05;0.002678336;0.001158613;-0.365198463;0.930925131
2024/05/03/13:37:58.783711;238810;1714768678;783387699;world;-0.000120951;0.000195839;9.61E-05;0.00261205;0.001162337;-0.366473079;0.930424333
2024/05/03/13:37:58.813185;238811;1714768678;812878150;world;-8.20E-05;0.000182718;0.000129429;0.002607959;0.001278343;-0.367845654;0.929882348
2024/05/03/13:37:58.813204;238812;1714768678;812903868;world;-7.64E-05;0.000174005;0.000135084;0.002539821;0.001428866;-0.369146645;0.929366589
2024/05/03/13:37:58.823688;238813;1714768678;823385483;world;-6.91E-05;0.000177311;0.000146784;0.00241706;0.001600663;-0.37026456;0.928921819
2024/05/03/13:37:58.833300;238814;1714768678;833043579;world;-2.42E-05;0.000187222;0.000137901;0.002449294;0.001489903;-0.371330589;0.928496361
2024/05/03/13:37:58.853403;238815;1714768678;853106856;world;-4.77E-07;0.00018269;0.00013845;0.002430506;0.001425567;-0.372488499;0.928032577
2024/05/03/13:37:58.873447;238816;1714768678;873128656;world;6.71E-06;0.000181919;0.000151146;0.002407964;0.001394384;-0.373056561;0.92780441
2024/05/03/13:37:58.883593;238817;1714768678;883287000;world;3.89E-06;0.000168169;0.000147316;0.002387624;0.001229831;-0.374941945;0.927044392
2024/05/03/13:37:58.933436;238818;1714768678;933094723;world;4.97E-06;0.000168888;0.000134973;0.002412701;0.001148049;-0.375527769;0.926807284
2024/05/03/13:37:58.943682;238819;1714768678;943305945;world;4.39E-05;0.000167068;8.06E-05;0.002524107;0.0010549;-0.376763582;0.926305413
2024/05/03/13:37:58.943706;238821;1714768678;943342253;world;3.58E-05;0.000146588;9.20E-05;0.002482203;0.001041026;-0.379165173;0.925325096
2024/05/03/13:37:58.963841;238822;1714768678;963017099;world;1.95E-05;0.000164444;7.32E-05;0.002443791;0.001100733;-0.38038376;0.924824834
2024/05/03/13:37:58.983549;238823;1714768678;983258218;world;3.36E-05;0.000147955;8.78E-05;0.002652812;0.001088333;-0.381761402;0.924256444
2024/05/03/13:37:59.003529;238824;1714768679;3326434;world;5.58E-05;0.000154883;9.22E-05;0.002602896;0.001118477;-0.382325649;0.92402333
2024/05/03/13:37:59.013235;238825;1714768679;12962768;world;0.000110734;0.000175104;0.000132373;0.002625922;0.000991395;-0.384141624;0.923269928
2024/05/03/13:37:59.023113;238826;1714768679;22866229;world;0.000105202;0.000176838;0.000159735;0.002512194;0.000977424;-0.384736151;0.923022747
2024/05/03/13:37:59.043598;238827;1714768679;43294975;world;0.000141704;0.000177741;0.000152159;0.002546519;0.001068062;-0.385910124;0.92253226
2024/05/03/13:37:59.053387;238828;1714768679;53028552;world;0.000161309;0.000197895;0.000162274;0.002601808;0.001029811;-0.38709566;0.922035396
2024/05/03/13:37:59.073448;238829;1714768679;73132433;world;0.00021618;0.000171654;0.000186379;0.002847734;0.0008829;-0.38840276;0.921484888
2024/05/03/13:37:59.093251;238830;1714768679;92915571;world;0.000178982;0.000189241;0.000181372;0.002906124;0.000950533;-0.38961339;0.92097348
2024/05/03/13:37:59.103291;238831;1714768679;103001222;world;0.000184769;0.00020181;0.000157772;0.002935245;0.001045056;-0.390871733;0.920439959
2024/05/03/13:37:59.123641;238832;1714768679;123319060;world;0.000146428;0.000187997;0.00013045;0.00308261;0.001266335;-0.391506582;0.920169353
2024/05/03/13:37:59.143186;238833;1714768679;142884882;world;0.000130979;0.0001704;0.0001872;0.002778005;0.001228177;-0.393467456;0.919333577
2024/05/03/13:37:59.153609;238834;1714768679;153280938;world;0.000118915;0.000161998;0.000198866;0.002727689;0.001214755;-0.394118845;0.919054687
2024/05/03/13:37:59.173624;238835;1714768679;173372702;world;0.000124292;0.000146622;0.000164502;0.002767027;0.00128336;-0.395920306;0.918279886
2024/05/03/13:37:59.193263;238836;1714768679;192930197;world;9.32E-05;0.000142857;0.000178836;0.002733448;0.001346489;-0.396541208;0.918011904
2024/05/03/13:37:59.213313;238837;1714768679;212984567;world;7.60E-05;0.0001317;0.000146626;0.002814227;0.001435757;-0.397828639;0.917454362
2024/05/03/13:37:59.213343;238838;1714768679;213018110;world;7.43E-05;0.000139173;0.000138148;0.002829442;0.001365801;-0.398352444;0.91722703
2024/05/03/13:37:59.233548;238839;1714768679;233238639;world;7.22E-05;0.000120373;0.000124531;0.002685439;0.001285666;-0.400320739;0.916370213
2024/05/03/13:37:59.243672;238840;1714768679;243255157;world;4.38E-05;0.000129694;0.000141231;0.002710459;0.00135479;-0.400935978;0.916101038
2024/05/03/13:37:59.263374;238841;1714768679;263023660;world;2.49E-05;0.000158057;0.000139173;0.002624695;0.001445418;-0.402886301;0.915245175
2024/05/03/13:37:59.273414;238842;1714768679;273092459;world;5.17E-06;0.000167517;0.000137012;0.002719808;0.001540767;-0.403478861;0.914983571
2024/05/03/13:37:59.293195;238843;1714768679;292898578;world;1.76E-06;0.000181379;0.000104115;0.00271822;0.001561321;-0.404612958;0.914482653
2024/05/03/13:37:59.303331;238844;1714768679;302993486;world;4.24E-06;0.000196228;0.000123636;0.002674615;0.001582242;-0.4058851;0.913918853
2024/05/03/13:37:59.323455;238845;1714768679;323139617;world;1.78E-05;0.000194585;0.000139593;0.002614154;0.001656971;-0.407083452;0.913385689
2024/05/03/13:37:59.333434;238846;1714768679;333146571;world;2.19E-06;0.000221297;0.000126171;0.002432607;0.001765942;-0.408349246;0.912820816
2024/05/03/13:37:59.353384;238847;1714768679;353109176;world;1.00E-05;0.000239119;0.000119023;0.002381198;0.001802274;-0.409053594;0.912505567
2024/05/03/13:37:59.363422;238848;1714768679;363142475;world;1.77E-05;0.000263464;0.000104722;0.002234919;0.001609011;-0.41024527;0.911971033
2024/05/03/13:37:59.393235;238849;1714768679;392955081;world;3.33E-05;0.00024296;8.04E-05;0.002246033;0.001588913;-0.41132158;0.911486208
2024/05/03/13:37:59.393268;238850;1714768679;392989795;world;4.62E-05;0.00024621;8.47E-05;0.002262888;0.001641946;-0.412546098;0.910932422
2024/05/03/13:37:59.423483;238851;1714768679;423167000;world;6.74E-05;0.000238242;8.26E-05;0.002440373;0.001598882;-0.413772881;0.910375416
2024/05/03/13:37:59.433334;238852;1714768679;432948298;world;0.000118811;0.00024097;0.000127881;0.002434495;0.001754112;-0.415104508;0.90976882
2024/05/03/13:37:59.443490;238853;1714768679;443113522;world;8.44E-05;0.000242237;0.000153738;0.002471867;0.001785922;-0.41634658;0.909200847
2024/05/03/13:37:59.463265;238854;1714768679;462858026;world;9.74E-05;0.00024345;0.000145487;0.002425659;0.001836113;-0.416962266;0.908918738
2024/05/03/13:37:59.473490;238855;1714768679;473209689;world;9.84E-05;0.000240419;0.000139204;0.002443745;0.00178302;-0.418186545;0.90835613
2024/05/03/13:37:59.493430;238856;1714768679;493113541;world;0.00010198;0.000246149;0.000150087;0.002418226;0.001875115;-0.419427752;0.907783568
2024/05/03/13:37:59.513238;238857;1714768679;512914039;world;7.52E-05;0.000247242;0.000162885;0.00248061;0.001904666;-0.420742303;0.907174766
2024/05/03/13:37:59.523205;238858;1714768679;522909891;world;0.000128364;0.000224039;0.000188035;0.002660513;0.00192836;-0.422060043;0.906561911
2024/05/03/13:37:59.543685;238859;1714768679;543329982;world;0.000139082;0.000216249;0.000177596;0.002792155;0.00189159;-0.423227459;0.906017244
2024/05/03/13:37:59.553626;238860;1714768679;553182399;world;0.000159055;0.000180829;0.000154958;0.002958212;0.001872698;-0.424459547;0.905440152
2024/05/03/13:37:59.573422;238861;1714768679;573118601;world;0.000156853;0.000165215;0.000176783;0.002982749;0.001766104;-0.425622076;0.904894352
2024/05/03/13:37:59.583426;238862;1714768679;583149247;world;0.000173476;0.00017897;0.000191172;0.003121787;0.001786253;-0.426148087;0.904646337
2024/05/03/13:37:59.603687;238863;1714768679;603360380;world;0.000207515;0.000135861;0.000180445;0.003097465;0.001664496;-0.427849263;0.903843224
2024/05/03/13:37:59.623641;238864;1714768679;623315968;world;0.000246758;0.000115905;0.000173082;0.003104795;0.001699086;-0.428965241;0.903314054
2024/05/03/13:37:59.633316;238865;1714768679;633004649;world;0.000274476;0.000113167;0.000181326;0.003112105;0.001633827;-0.429492235;0.903063774
2024/05/03/13:37:59.653564;238866;1714768679;653308835;world;0.000315877;9.42E-05;0.000193364;0.003189249;0.001396056;-0.431167543;0.902265251
2024/05/03/13:37:59.663535;238867;1714768679;663229127;world;0.000318628;9.09E-05;0.000199351;0.003143925;0.001335477;-0.431691468;0.902014852
2024/05/03/13:37:59.683529;238868;1714768679;683225051;world;0.000345446;0.000106767;0.000172114;0.003092423;0.001266571;-0.43276301;0.901501536
2024/05/03/13:37:59.703564;238869;1714768679;703279591;world;0.000363618;0.000127584;0.000209886;0.002919596;0.001295545;-0.433898896;0.900955915
2024/05/03/13:37:59.723676;238870;1714768679;723341556;world;0.000400882;0.00012131;0.000183143;0.002875351;0.00132206;-0.435032129;0.90040946
2024/05/03/13:37:59.723706;238871;1714768679;723381350;world;0.000378685;0.000131652;0.000177995;0.002846982;0.001383111;-0.435669273;0.900101244
2024/05/03/13:37:59.743430;238872;1714768679;743130555;world;0.000344574;0.000138152;0.000154267;0.002880645;0.001621731;-0.436943054;0.899483085
2024/05/03/13:37:59.763524;238873;1714768679;763214040;world;0.000368455;0.000139609;0.000118207;0.002917973;0.001652586;-0.438127309;0.898906708
2024/05/03/13:37:59.783235;238874;1714768679;782942223;world;0.000326328;0.000134874;0.000132896;0.002769715;0.001735247;-0.440019727;0.89798224
2024/05/03/13:37:59.803584;238875;1714768679;803233975;world;0.000157384;0.000121841;0.000117665;0.00289529;0.001928369;-0.44106254;0.89746958
2024/05/03/13:37:59.823722;238876;1714768679;823194216;world;0.000193646;9.68E-05;8.46E-05;0.002956287;0.001864377;-0.442811638;0.896607935
2024/05/03/13:37:59.823748;238877;1714768679;823226997;world;0.000210959;0.000101263;0.000107207;0.00296425;0.001724796;-0.443325281;0.896354318
2024/05/03/13:37:59.843580;238878;1714768679;843282087;world;0.000225578;0.000107912;8.67E-05;0.002989816;0.001775427;-0.444475442;0.895784318
