time;.header.seq;.header.stamp.secs;.header.stamp.nsecs;.header.frame_id;.pose.position.x;.pose.position.y;.pose.position.z;.pose.orientation.x;.pose.orientation.y;.pose.orientation.z;.pose.orientation.w
2024/05/03/13:36:41.193882;233844;1714768601;193167384;world;-2.61E-05;2.88E-06;1.34E-05;-4.53E-05;1.56E-05;-1.71E-05;-1
2024/05/03/13:36:41.193931;233845;1714768601;193199674;world;-2.13E-05;1.58E-05;1.96E-05;-0.000107142;-3.29E-06;-5.72E-05;-1
2024/05/03/13:36:41.203721;233846;1714768601;203355285;world;-2.47E-05;6.57E-06;2.66E-05;-9.03E-06;3.56E-05;-2.10E-05;-1
2024/05/03/13:36:41.213430;233847;1714768601;213193241;world;-2.97E-05;8.23E-06;1.55E-05;-1.83E-05;-1.35E-06;-4.86E-05;-1
2024/05/03/13:36:41.233458;233848;1714768601;233097523;world;-2.82E-05;1.09E-05;7.48E-06;-1.86E-05;-1.93E-05;-2.38E-05;-1
2024/05/03/13:36:41.243821;233849;1714768601;243398948;world;-4.22E-05;1.61E-06;1.35E-05;2.31E-05;2.80E-05;-1.81E-05;-1
2024/05/03/13:36:41.263412;233850;1714768601;262962098;world;-3.29E-05;4.38E-06;2.03E-05;3.76E-06;5.46E-05;-5.24E-05;-1
2024/05/03/13:36:41.293275;233851;1714768601;292947498;world;-2.58E-05;6.48E-06;1.08E-05;-8.54E-05;1.27E-05;-2.19E-05;-1
2024/05/03/13:36:41.293307;233852;1714768601;292986320;world;-2.06E-05;1.59E-05;1.41E-06;-3.48E-05;1.45E-05;-4.10E-05;-1
2024/05/03/13:36:41.303583;233853;1714768601;303138599;world;-3.61E-05;-2.24E-06;1.70E-05;-1.85E-05;4.51E-06;-2.29E-05;-1
2024/05/03/13:36:41.324178;233854;1714768601;323953583;world;-2.97E-05;5.85E-06;2.33E-05;-1.10E-05;3.34E-05;-5.34E-05;-1
2024/05/03/13:36:41.343563;233855;1714768601;343288449;world;-3.32E-05;1.23E-05;5.95E-06;4.39E-05;8.73E-06;-2.57E-05;-1
2024/05/03/13:36:41.364147;233856;1714768601;363048384;world;-2.45E-05;6.82E-06;9.19E-06;2.18E-05;1.60E-06;-5.82E-05;-1
2024/05/03/13:36:41.373430;233857;1714768601;373123289;world;-1.15E-05;8.40E-06;1.26E-05;-4.80E-05;1.18E-05;-3.53E-05;-1
2024/05/03/13:36:41.403669;233858;1714768601;403366078;world;-2.36E-05;1.01E-05;2.87E-05;-4.24E-05;8.15E-06;-6.96E-05;-1
2024/05/03/13:36:41.403697;233859;1714768601;403423594;world;-1.38E-05;6.39E-06;2.43E-05;-3.89E-05;3.21E-05;-3.43E-05;-1
2024/05/03/13:36:41.413545;233860;1714768601;413227446;world;-2.92E-05;8.95E-06;1.44E-05;-3.54E-05;3.87E-05;-2.76E-05;-1
2024/05/03/13:36:41.433260;233861;1714768601;432977212;world;-3.76E-05;3.00E-06;2.06E-05;5.11E-05;2.43E-05;-1.43E-05;-1
2024/05/03/13:36:41.444763;233862;1714768601;444467990;world;-1.73E-05;4.21E-06;3.45E-05;-9.34E-06;2.51E-05;-2.29E-05;-1
2024/05/03/13:36:41.463490;233863;1714768601;463148828;world;-3.48E-05;5.07E-06;1.43E-05;1.27E-05;5.65E-05;1.91E-05;-1
2024/05/03/13:36:41.504409;233864;1714768601;504105659;world;-4.50E-05;4.93E-06;7.86E-06;-3.18E-05;3.48E-05;1.05E-05;-1
2024/05/03/13:36:41.504434;233865;1714768601;504130736;world;-1.37E-05;1.56E-05;1.54E-05;-6.96E-05;2.85E-05;2.10E-05;-1
2024/05/03/13:36:41.513492;233866;1714768601;513191899;world;-1.74E-05;2.48E-07;1.91E-05;3.27E-06;2.23E-05;-1.52E-05;-1
2024/05/03/13:36:41.523478;233867;1714768601;523233068;world;-9.44E-06;1.16E-05;2.72E-05;-2.80E-05;1.95E-05;-4.29E-05;-1
2024/05/03/13:36:41.543292;233868;1714768601;543001680;world;-3.11E-05;1.35E-05;6.48E-06;-5.07E-05;2.68E-05;6.70E-06;-1
2024/05/03/13:36:41.553268;233869;1714768601;553022876;world;-9.70E-06;1.40E-05;2.19E-05;8.91E-06;6.08E-05;1.24E-05;-1
2024/05/03/13:36:41.573392;233870;1714768601;573027314;world;-8.28E-06;7.56E-06;1.95E-05;-4.60E-05;1.25E-05;-4.96E-05;-1
2024/05/03/13:36:41.593790;233871;1714768601;593503132;world;-2.02E-05;3.84E-06;2.43E-05;-6.58E-05;-3.20E-05;-2.38E-05;-1
2024/05/03/13:36:41.613505;233872;1714768601;613208083;world;-2.45E-05;4.79E-06;6.99E-06;-4.21E-05;2.60E-05;-3.53E-05;-1
2024/05/03/13:36:41.623257;233873;1714768601;622990937;world;-2.12E-05;1.56E-05;1.48E-05;-1.09E-05;2.06E-05;-2.19E-05;-1
2024/05/03/13:36:41.643699;233874;1714768601;643337332;world;6.17E-06;8.86E-06;2.89E-05;-4.32E-05;3.90E-06;-3.14E-05;-1
2024/05/03/13:36:41.653648;233875;1714768601;653350881;world;-3.41E-05;1.74E-06;1.77E-05;3.39E-05;-1.41E-05;-2.67E-05;-1
2024/05/03/13:36:41.673586;233876;1714768601;673343199;world;-7.98E-06;1.59E-05;1.66E-05;-5.13E-05;1.26E-05;-5.62E-05;-1
2024/05/03/13:36:41.693276;233877;1714768601;692998492;world;-2.89E-05;1.05E-05;1.33E-05;-1.45E-05;4.09E-05;-1.24E-05;-1
2024/05/03/13:36:41.703445;233878;1714768601;703054269;world;-1.61E-06;1.61E-05;2.53E-05;-8.83E-05;-1.50E-05;-1.52E-05;-1
2024/05/03/13:36:41.713161;233879;1714768601;712917811;world;-1.32E-06;1.33E-05;2.42E-05;-4.43E-05;1.24E-05;-2.84E-06;-1
2024/05/03/13:36:41.733497;233880;1714768601;733078752;world;-2.54E-05;7.20E-06;8.37E-06;-1.91E-05;1.50E-05;-3.53E-05;-1
2024/05/03/13:36:41.743761;233881;1714768601;743362835;world;-1.70E-05;1.25E-05;4.00E-06;-2.11E-05;-1.45E-05;-4.10E-05;-1
2024/05/03/13:36:41.763314;233882;1714768601;762987521;world;-2.41E-05;1.08E-05;2.28E-05;-4.07E-05;1.07E-05;-2.57E-05;-1
2024/05/03/13:36:41.773244;233883;1714768601;772994718;world;-5.31E-06;1.93E-05;3.52E-05;-0.000129992;4.81E-05;6.69E-06;-1
2024/05/03/13:36:41.803423;233884;1714768601;803099209;world;-2.55E-05;1.04E-05;2.00E-05;-2.26E-05;3.58E-05;-1.91E-05;-1
2024/05/03/13:36:41.803452;233885;1714768601;803145364;world;-3.11E-05;4.90E-06;1.10E-05;-4.33E-05;6.24E-06;-3.34E-05;-1
2024/05/03/13:36:41.823373;233886;1714768601;822997761;world;-2.01E-05;1.53E-05;2.20E-05;-3.01E-05;-2.69E-06;-5.82E-05;-1
2024/05/03/13:36:41.843364;233887;1714768601;843017109;world;-2.57E-05;2.76E-06;3.20E-05;-4.60E-05;1.19E-05;-6.39E-05;-1
2024/05/03/13:36:41.853392;233888;1714768601;853074332;world;-2.43E-05;1.10E-05;2.07E-05;-2.70E-05;3.09E-05;-3.05E-05;-1
2024/05/03/13:36:41.873650;233889;1714768601;873366384;world;-2.60E-05;1.43E-05;5.30E-06;-6.19E-05;1.05E-05;-5.34E-05;-1
2024/05/03/13:36:41.903242;233890;1714768601;902977550;world;-1.71E-05;1.41E-05;1.16E-05;-5.92E-05;1.42E-05;-8.39E-05;-1
2024/05/03/13:36:41.913388;233891;1714768601;913012019;world;-6.13E-06;2.65E-05;3.30E-05;-8.78E-05;-1.68E-05;-9.28E-07;-1
2024/05/03/13:36:41.923847;233892;1714768601;923220171;world;-1.11E-05;1.21E-05;1.77E-05;-2.22E-05;-1.07E-05;-5.82E-05;-1
2024/05/03/13:36:41.933472;233893;1714768601;933306648;world;-2.01E-05;5.35E-06;1.07E-05;-7.55E-05;-4.02E-05;-5.34E-05;-1
2024/05/03/13:36:41.953165;233894;1714768601;952921703;world;-1.43E-05;1.73E-05;2.14E-05;-6.32E-05;1.87E-05;-4.67E-05;-1
2024/05/03/13:36:41.963271;233895;1714768601;962991269;world;-9.24E-06;1.51E-05;2.51E-05;-7.03E-05;-1.71E-05;-2.48E-05;-1
2024/05/03/13:36:41.983657;233896;1714768601;983359345;world;-3.10E-05;1.45E-05;3.02E-06;-3.50E-05;1.32E-05;-9.51E-06;-1
2024/05/03/13:36:42.003314;233897;1714768602;3041968;world;-2.01E-05;1.40E-05;2.02E-05;-3.67E-05;2.64E-05;-4.77E-05;-1
2024/05/03/13:36:42.013668;233898;1714768602;13393917;world;-3.26E-05;4.88E-06;1.16E-05;2.10E-06;5.08E-05;-1.90E-05;-1
2024/05/03/13:36:42.023385;233899;1714768602;22862154;world;-1.69E-06;1.35E-05;1.97E-05;-0.000100894;1.29E-05;-5.43E-05;-1
2024/05/03/13:36:42.043869;233900;1714768602;43218639;world;-2.16E-05;5.92E-06;2.11E-05;-5.19E-06;2.93E-05;-3.72E-05;-1
2024/05/03/13:36:42.053254;233901;1714768602;52960615;world;-3.41E-05;4.55E-06;6.92E-06;3.25E-05;1.70E-05;-9.51E-06;-1
2024/05/03/13:36:42.083677;233902;1714768602;83280518;world;-9.15E-06;6.89E-06;1.96E-05;-3.50E-05;3.03E-05;-4.10E-05;-1
2024/05/03/13:36:42.083715;233903;1714768602;83313940;world;-7.28E-06;8.00E-06;2.44E-05;-4.00E-05;3.26E-05;-1.91E-05;-1
2024/05/03/13:36:42.103749;233904;1714768602;103264220;world;-1.01E-05;1.56E-05;2.00E-05;-3.31E-05;1.18E-05;-3.62E-05;-1
2024/05/03/13:36:42.113361;233905;1714768602;113050498;world;-1.08E-05;1.69E-05;2.09E-05;-6.69E-05;2.37E-05;-3.72E-05;-1
2024/05/03/13:36:42.133815;233906;1714768602;133174496;world;-1.02E-05;1.43E-05;3.98E-06;-5.07E-05;7.94E-06;-6.96E-05;-1
2024/05/03/13:36:42.153421;233907;1714768602;153108630;world;4.76E-06;2.41E-05;2.62E-05;-0.000134685;-2.42E-05;9.81E-07;-1
2024/05/03/13:36:42.163656;233908;1714768602;163160903;world;-2.57E-06;1.68E-05;2.72E-05;-7.38E-05;2.18E-07;-4.67E-05;-1
2024/05/03/13:36:42.183496;233909;1714768602;183110071;world;-8.84E-06;1.80E-05;6.18E-06;-9.56E-05;-1.86E-06;-4.67E-05;-1
2024/05/03/13:36:42.213777;233910;1714768602;213369279;world;-1.60E-05;1.42E-05;3.89E-06;-6.71E-05;7.60E-06;-3.24E-05;-1
2024/05/03/13:36:42.223652;233911;1714768602;223287263;world;-2.84E-05;3.76E-06;2.08E-05;-4.68E-06;2.17E-05;9.77E-07;-1
2024/05/03/13:36:42.233745;233912;1714768602;233420395;world;-2.38E-05;9.94E-06;1.11E-05;-2.25E-05;1.36E-06;-5.34E-05;-1
2024/05/03/13:36:42.243370;233913;1714768602;243061344;world;3.30E-06;1.50E-05;9.43E-06;-9.72E-05;-1.67E-05;-4.58E-05;-1
2024/05/03/13:36:42.263720;233914;1714768602;263233482;world;-5.11E-06;1.45E-05;8.15E-06;-7.04E-05;-2.58E-06;-4.67E-05;-1
2024/05/03/13:36:42.283495;233915;1714768602;283065516;world;-2.41E-05;1.54E-05;1.58E-05;-3.40E-05;3.52E-06;-3.91E-05;-1
2024/05/03/13:36:42.293427;233916;1714768602;293067636;world;-2.70E-05;4.82E-06;1.56E-05;-7.99E-05;2.30E-05;-9.51E-06;-1
2024/05/03/13:36:42.313347;233917;1714768602;313112760;world;-2.10E-05;1.20E-05;1.40E-05;-2.91E-05;2.16E-05;-3.81E-05;-1
2024/05/03/13:36:42.323727;233918;1714768602;323190150;world;-1.33E-05;2.70E-06;6.43E-07;-1.16E-05;-2.16E-05;-2.48E-05;-1
2024/05/03/13:36:42.333405;233919;1714768602;333056998;world;-1.79E-05;9.89E-06;1.49E-05;-5.15E-05;1.02E-05;-3.24E-05;-1
2024/05/03/13:36:42.353767;233920;1714768602;353343003;world;-8.97E-06;7.18E-06;1.95E-05;-4.91E-05;2.84E-05;-3.53E-05;-1
2024/05/03/13:36:42.373434;233921;1714768602;373154775;world;-2.47E-05;3.52E-07;2.17E-05;-3.25E-06;4.18E-06;-3.24E-05;-1
2024/05/03/13:36:42.383375;233922;1714768602;383110340;world;-2.22E-05;1.48E-05;6.19E-06;-2.78E-05;-3.02E-06;-4.96E-05;-1
2024/05/03/13:36:42.413432;233923;1714768602;413109123;world;-3.69E-05;1.02E-05;7.73E-06;-3.17E-05;1.92E-05;-5.70E-06;-1
2024/05/03/13:36:42.413460;233924;1714768602;413149939;world;-2.73E-05;1.15E-05;2.19E-05;-2.63E-05;3.32E-06;8.61E-06;-1
2024/05/03/13:36:42.433621;233925;1714768602;433286785;world;-4.61E-06;1.66E-05;1.34E-05;-8.33E-05;-3.60E-06;-4.19E-05;-1
2024/05/03/13:36:42.443235;233926;1714768602;442958882;world;-2.75E-05;9.18E-06;4.82E-06;-4.22E-05;3.42E-05;-2.29E-05;-1
2024/05/03/13:36:42.463404;233927;1714768602;463103042;world;-2.24E-05;1.22E-05;6.60E-06;-0.000128343;-1.11E-05;-2.00E-05;-1
2024/05/03/13:36:42.493354;233928;1714768602;493004576;world;-8.02E-06;1.64E-05;3.27E-05;-4.74E-05;-5.51E-06;-2.38E-05;-1
2024/05/03/13:36:42.493384;233929;1714768602;493043027;world;-2.71E-05;3.75E-06;1.48E-05;-5.29E-06;2.45E-05;-5.62E-05;-1
2024/05/03/13:36:42.513501;233930;1714768602;513187324;world;-1.00E-05;1.59E-05;2.68E-06;-3.28E-05;-2.00E-05;-5.34E-05;-1
2024/05/03/13:36:42.523540;233931;1714768602;523284043;world;-2.50E-05;7.52E-06;8.79E-06;-4.12E-05;1.19E-05;-1.71E-05;-1
2024/05/03/13:36:42.543178;233932;1714768602;542928104;world;-2.40E-05;1.16E-05;2.74E-05;-3.36E-05;4.07E-05;-3.34E-05;-1
2024/05/03/13:36:42.553681;233933;1714768602;553300190;world;-2.65E-05;4.17E-07;1.77E-05;-7.34E-06;-4.07E-06;-4.86E-05;-1
2024/05/03/13:36:42.573972;233934;1714768602;573695006;world;-2.94E-05;6.41E-06;4.87E-06;-3.07E-05;1.34E-05;-4.96E-05;-1
2024/05/03/13:36:42.593415;233935;1714768602;593150352;world;-2.43E-05;8.58E-06;9.40E-06;7.06E-07;-1.27E-05;-6.48E-05;-1
2024/05/03/13:36:42.624279;233936;1714768602;623103256;world;-2.45E-05;1.62E-05;1.56E-05;-8.77E-05;1.37E-05;-2.19E-05;-1
2024/05/03/13:36:42.624306;233937;1714768602;623146587;world;-1.22E-05;5.78E-06;1.57E-05;-5.64E-05;2.78E-05;-1.89E-06;-1
2024/05/03/13:36:42.634184;233938;1714768602;633808422;world;-3.48E-05;9.22E-06;6.37E-06;-3.64E-05;3.05E-05;-3.34E-05;-1
2024/05/03/13:36:42.654218;233939;1714768602;653524957;world;-3.16E-05;4.14E-06;1.06E-05;-1.55E-05;1.96E-05;-4.19E-05;-1
2024/05/03/13:36:42.663524;233940;1714768602;663252146;world;-2.20E-05;1.18E-05;2.54E-05;-8.52E-06;1.54E-05;-4.58E-05;-1
2024/05/03/13:36:42.683510;233941;1714768602;683148957;world;-1.25E-06;1.52E-05;1.50E-05;-7.11E-05;-1.81E-05;-2.19E-05;-1
2024/05/03/13:36:42.693703;233942;1714768602;693326974;world;-4.05E-05;1.33E-05;-7.99E-07;-3.58E-05;2.04E-05;-1.91E-05;-1
2024/05/03/13:36:42.723837;233943;1714768602;723532202;world;-4.18E-05;1.25E-05;9.91E-06;-2.29E-05;3.92E-05;-4.86E-05;-1
2024/05/03/13:36:42.733634;233944;1714768602;733288695;world;-2.65E-05;1.17E-05;1.69E-05;-7.74E-05;4.64E-05;1.81E-05;-1
2024/05/03/13:36:42.753405;233945;1714768602;752997287;world;-2.38E-05;7.02E-06;1.57E-05;-0.000117486;7.18E-05;-2.38E-05;-1
2024/05/03/13:36:42.764413;233946;1714768602;763855358;world;-3.95E-05;2.31E-06;3.30E-06;-3.33E-05;1.66E-05;-2.95E-05;-1
2024/05/03/13:36:42.773781;233947;1714768602;772934080;world;-2.52E-05;1.04E-05;6.12E-06;-6.45E-05;-4.87E-07;-2.19E-05;-1
2024/05/03/13:36:42.803820;233948;1714768602;803178791;world;-3.76E-05;1.46E-05;1.67E-05;-3.58E-06;-2.51E-05;-1.71E-05;-1
2024/05/03/13:36:42.863568;233949;1714768602;863188526;world;-8.80E-06;2.18E-06;1.75E-05;-3.81E-05;-2.34E-05;-3.05E-05;-1
2024/05/03/13:36:42.863598;233953;1714768602;863234211;world;-3.55E-06;6.89E-06;1.57E-05;-0.000101488;-7.61E-06;-3.91E-05;-1
2024/05/03/13:36:42.883748;233954;1714768602;883310489;world;-1.46E-05;1.06E-05;9.13E-06;-7.53E-05;-1.56E-05;-3.62E-05;-1
2024/05/03/13:36:42.903404;233955;1714768602;903062755;world;-3.10E-05;4.83E-06;1.05E-05;-2.34E-06;3.02E-05;-6.65E-06;-1
2024/05/03/13:36:42.923795;233956;1714768602;923380861;world;-2.51E-05;9.10E-06;9.75E-06;-8.81E-06;-6.95E-06;-3.91E-05;-1
2024/05/03/13:36:42.933623;233957;1714768602;933312878;world;-2.99E-05;5.80E-06;5.22E-06;-7.19E-05;-3.29E-06;-2.29E-05;-1
2024/05/03/13:36:42.944286;233958;1714768602;943964586;world;-2.32E-05;1.13E-05;-1.75E-06;-6.58E-05;-7.92E-06;-4.77E-05;-1
2024/05/03/13:36:42.964365;233959;1714768602;964031761;world;-2.95E-05;1.10E-05;-4.79E-06;-3.75E-05;-2.08E-05;-2.86E-05;-1
2024/05/03/13:36:42.984391;233960;1714768602;983947317;world;-1.15E-05;6.98E-06;5.83E-06;-6.15E-05;-4.76E-05;-5.24E-05;-1
2024/05/03/13:36:43.003559;233961;1714768603;3230498;world;-1.53E-05;3.54E-08;1.54E-05;-2.21E-05;6.96E-06;-6.65E-06;-1
2024/05/03/13:36:43.023567;233962;1714768603;23267147;world;-1.54E-05;8.27E-06;1.71E-06;-4.64E-05;-2.75E-05;-4.48E-05;-1
2024/05/03/13:36:43.023598;233963;1714768603;23303585;world;-2.90E-05;4.99E-06;-1.80E-06;-2.50E-05;-3.97E-06;-3.53E-05;-1
2024/05/03/13:36:43.043881;233964;1714768603;43203300;world;-2.20E-05;1.57E-05;3.02E-06;-6.48E-05;-1.51E-05;-4.38E-05;-1
2024/05/03/13:36:43.053966;233965;1714768603;53580328;world;-1.74E-05;3.95E-06;1.10E-05;1.80E-05;2.68E-05;-3.14E-05;-1
2024/05/03/13:36:43.073516;233966;1714768603;73108843;world;-3.15E-05;6.22E-06;6.66E-06;-6.53E-05;1.40E-05;-3.05E-05;-1
2024/05/03/13:36:43.093211;233967;1714768603;92917660;world;-2.60E-05;-1.12E-06;-1.30E-05;-5.26E-05;-2.17E-05;-3.72E-05;-1
2024/05/03/13:36:43.103392;233968;1714768603;103117750;world;-1.64E-05;9.93E-06;-1.34E-06;-5.43E-05;-6.48E-05;-4.48E-05;-1
2024/05/03/13:36:43.143487;233969;1714768603;143202090;world;-6.40E-06;1.05E-05;-4.40E-06;-9.91E-05;-4.48E-05;-3.91E-05;-1
2024/05/03/13:36:43.143514;233970;1714768603;143257372;world;-1.30E-05;5.63E-06;1.05E-05;-6.25E-05;-1.52E-05;-5.05E-05;-1
2024/05/03/13:36:43.153325;233971;1714768603;153053229;world;-3.93E-05;2.67E-06;-4.60E-06;-5.41E-05;-2.13E-05;-3.62E-05;-1
2024/05/03/13:36:43.173736;233972;1714768603;173408892;world;-2.15E-05;6.95E-06;-1.35E-05;-0.000133688;5.56E-07;-2.95E-05;-1
2024/05/03/13:36:43.183725;233973;1714768603;183446007;world;-2.65E-05;1.09E-05;3.90E-06;-8.99E-05;-3.11E-06;-1.90E-05;-1
2024/05/03/13:36:43.204239;233974;1714768603;203898632;world;-2.78E-05;3.02E-06;-3.63E-06;-8.20E-05;2.65E-05;-3.34E-05;-1
2024/05/03/13:36:43.213390;233975;1714768603;213059428;world;-2.66E-05;5.56E-06;8.08E-07;-5.38E-05;-4.73E-05;-3.91E-05;-1
2024/05/03/13:36:43.243193;233976;1714768603;242930897;world;-2.62E-05;8.10E-07;-1.74E-06;-1.93E-05;-1.27E-05;-2.76E-05;-1
2024/05/03/13:36:43.253251;233977;1714768603;252976137;world;-3.21E-05;-2.50E-06;-5.64E-06;-4.12E-05;-4.10E-05;-4.19E-05;-1
2024/05/03/13:36:43.263445;233978;1714768603;263120627;world;-3.45E-05;1.09E-05;-5.09E-06;-0.000108893;-1.91E-05;-9.51E-06;-1
2024/05/03/13:36:43.273471;233979;1714768603;273087977;world;-3.80E-05;1.48E-05;-6.01E-06;-0.000106729;-1.15E-05;5.75E-06;-1
2024/05/03/13:36:43.293725;233980;1714768603;293241554;world;-2.56E-05;1.23E-05;-1.63E-05;-0.000119319;2.64E-05;-4.38E-05;-1
2024/05/03/13:36:43.313913;233981;1714768603;313613547;world;-3.22E-05;1.44E-05;-4.88E-06;-6.76E-05;-2.01E-05;-3.05E-05;-1
2024/05/03/13:36:43.353446;233982;1714768603;353159748;world;-2.85E-05;1.07E-05;6.27E-06;-8.82E-05;1.82E-05;2.00E-05;-1
2024/05/03/13:36:43.353467;233984;1714768603;353208689;world;-3.71E-05;4.97E-06;4.53E-06;-3.22E-05;5.50E-05;-8.56E-06;-1
2024/05/03/13:36:43.373758;233985;1714768603;373396230;world;-2.95E-05;7.27E-06;8.87E-07;-7.20E-05;6.27E-05;2.88E-06;-1
2024/05/03/13:36:43.383301;233986;1714768603;382861472;world;-2.79E-05;7.85E-06;1.34E-06;-7.97E-05;6.45E-05;1.24E-05;-1
2024/05/03/13:36:43.403285;233987;1714768603;402992427;world;-3.44E-05;1.22E-05;-4.32E-06;-8.72E-05;1.03E-05;-1.62E-05;-1
2024/05/03/13:36:43.413441;233988;1714768603;413121695;world;-4.92E-05;-5.46E-07;-5.16E-06;-6.56E-05;6.50E-05;6.70E-06;-1
2024/05/03/13:36:43.443112;233989;1714768603;442868323;world;-3.80E-05;1.62E-05;-6.35E-07;-7.78E-05;-5.01E-06;-1.62E-05;-1
2024/05/03/13:36:43.443136;233990;1714768603;442902997;world;-3.84E-05;3.95E-06;-9.29E-06;-5.78E-05;5.92E-06;-1.43E-05;-1
2024/05/03/13:36:43.464094;233991;1714768603;463540774;world;-3.19E-05;1.13E-05;-7.07E-06;-6.64E-05;1.74E-06;9.77E-07;-1
2024/05/03/13:36:43.483738;233992;1714768603;483435700;world;-2.99E-05;1.14E-05;-8.34E-06;-0.000104517;2.65E-06;-1.33E-05;-1
2024/05/03/13:36:43.493248;233993;1714768603;493021246;world;-3.01E-05;6.56E-06;-7.95E-06;-6.72E-05;1.84E-05;-1.52E-05;-1
2024/05/03/13:36:43.513355;233994;1714768603;513070880;world;-3.24E-05;7.47E-07;5.36E-07;-4.37E-05;5.11E-05;-9.52E-06;-1
2024/05/03/13:36:43.553564;233995;1714768603;553194705;world;-3.17E-05;1.62E-05;-1.41E-06;-0.000125752;3.33E-05;-9.34E-07;-1
2024/05/03/13:36:43.553591;233996;1714768603;553231684;world;-3.36E-05;8.31E-06;-6.64E-06;-8.69E-05;-7.16E-06;-1.81E-05;-1
2024/05/03/13:36:43.563610;233997;1714768603;562969613;world;-3.02E-05;1.49E-05;-8.85E-06;-6.93E-05;4.87E-07;-3.81E-05;-1
2024/05/03/13:36:43.573345;233998;1714768603;573062231;world;-2.26E-05;1.94E-05;-3.00E-06;-8.82E-05;3.14E-05;-4.86E-05;-1
2024/05/03/13:36:43.593458;233999;1714768603;593122195;world;-3.37E-05;1.63E-05;-2.72E-06;-0.000108911;2.60E-05;-2.76E-05;-1
2024/05/03/13:36:43.604002;234000;1714768603;603157467;world;-3.25E-05;1.64E-05;1.41E-06;-6.97E-05;1.89E-05;-1.62E-05;-1
2024/05/03/13:36:43.624248;234001;1714768603;623946932;world;-2.87E-05;1.78E-05;-4.78E-06;-8.54E-05;2.53E-07;-2.48E-05;-1
2024/05/03/13:36:43.663195;234002;1714768603;662895847;world;-3.65E-05;1.51E-05;-1.00E-06;-0.000112767;2.38E-06;-1.90E-05;-1
2024/05/03/13:36:43.663224;234003;1714768603;662930281;world;-1.44E-05;1.89E-05;-4.32E-06;-0.000106689;1.48E-05;-1.33E-05;-1
2024/05/03/13:36:43.673065;234004;1714768603;672901764;world;-3.99E-05;1.75E-05;-8.12E-06;-7.63E-05;4.72E-05;-6.66E-06;-1
2024/05/03/13:36:43.683391;234005;1714768603;683171341;world;-4.84E-05;1.17E-05;-7.83E-06;-0.000114075;5.02E-05;-8.56E-06;-1
2024/05/03/13:36:43.703659;234006;1714768603;703387515;world;-3.28E-05;2.02E-05;-1.73E-05;-0.000113526;4.01E-05;8.60E-06;-1
2024/05/03/13:36:43.723812;234007;1714768603;723117506;world;-3.55E-05;2.22E-05;-8.67E-06;-6.19E-05;7.93E-05;-1.43E-05;-1
2024/05/03/13:36:43.783675;234008;1714768603;783096293;world;-5.11E-05;1.37E-05;-6.90E-06;-6.10E-05;5.32E-05;9.74E-07;-1
2024/05/03/13:36:43.783700;234011;1714768603;783327122;world;-3.18E-05;1.77E-05;-9.93E-06;-9.09E-05;4.09E-05;-1.05E-05;-1
2024/05/03/13:36:43.793299;234012;1714768603;793012413;world;-3.72E-05;1.68E-05;-1.15E-05;-7.75E-05;3.12E-05;-5.70E-06;-1
2024/05/03/13:36:43.803299;234013;1714768603;802991070;world;-3.83E-05;1.18E-05;-5.01E-06;-5.35E-05;6.41E-05;2.29E-05;-1
2024/05/03/13:36:43.823716;234014;1714768603;823258288;world;-3.39E-05;2.25E-05;-1.45E-05;-0.000110911;3.02E-05;7.15E-05;-1
2024/05/03/13:36:43.853418;234015;1714768603;853137092;world;-3.28E-05;2.87E-05;-4.48E-06;-0.000101871;2.55E-05;0.000729582;-0.999999762
2024/05/03/13:36:43.853441;234016;1714768603;853175904;world;-3.24E-05;4.64E-05;7.41E-06;-0.000225556;-4.54E-05;0.001934084;-0.999998093
2024/05/03/13:36:43.873224;234017;1714768603;872888121;world;-3.26E-05;1.91E-05;4.95E-06;-0.000295082;-1.46E-05;0.002588297;-0.999996662
2024/05/03/13:36:43.883446;234018;1714768603;883066595;world;-3.64E-05;2.90E-05;1.79E-05;-0.000196176;-3.69E-05;0.004211444;-0.999991179
2024/05/03/13:36:43.903297;234019;1714768603;903039040;world;-4.44E-05;2.23E-05;-6.33E-06;-0.000350071;-0.00013005;0.006058726;-0.999981642
2024/05/03/13:36:43.923469;234020;1714768603;923226001;world;-3.98E-05;5.09E-05;4.95E-06;-0.00034826;-5.25E-05;0.007983163;-0.999968052
2024/05/03/13:36:43.933578;234021;1714768603;933179249;world;-3.75E-05;3.66E-05;-4.80E-06;-0.000285867;-5.25E-05;0.010042061;-0.999949574
2024/05/03/13:36:43.953718;234022;1714768603;953413266;world;-4.12E-05;6.13E-05;-1.92E-05;-0.000330509;-9.07E-05;0.012136217;-0.999926329
2024/05/03/13:36:43.963978;234023;1714768603;963721425;world;2.66E-05;0.000107893;4.32E-05;-0.000294757;0.000184336;0.01447147;-0.999895215
2024/05/03/13:36:43.973676;234024;1714768603;973423277;world;6.35E-05;0.000105493;7.47E-05;-0.000350998;0.000194748;0.017011732;-0.99985528
2024/05/03/13:36:43.993966;234025;1714768603;993047070;world;7.05E-05;9.54E-05;9.18E-05;-0.000152833;0.000164599;0.019467076;-0.999810517
2024/05/03/13:36:44.013400;234026;1714768604;13084123;world;8.55E-05;8.68E-05;5.84E-05;-0.000346889;7.81E-06;0.021791657;-0.999762475
2024/05/03/13:36:44.033446;234027;1714768604;33133437;world;4.25E-05;7.18E-05;5.55E-05;-0.000179645;5.19E-05;0.022985354;-0.999735773
2024/05/03/13:36:44.064046;234028;1714768604;63805941;world;3.94E-05;5.50E-05;3.54E-05;-0.000236472;-3.47E-05;0.0252678;-0.999680758
2024/05/03/13:36:44.064056;234029;1714768604;63826529;world;7.51E-05;6.40E-05;4.13E-05;-0.000371275;-8.55E-05;0.02748625;-0.999622107
2024/05/03/13:36:44.073383;234030;1714768604;73042342;world;5.47E-05;5.40E-05;7.96E-06;-0.000533012;-0.000163478;0.029666457;-0.9995597
2024/05/03/13:36:44.093382;234031;1714768604;93070467;world;4.35E-05;6.50E-05;4.30E-06;-0.000484819;-0.000184007;0.031908445;-0.999490738
2024/05/03/13:36:44.103451;234032;1714768604;103146235;world;8.34E-05;9.20E-05;4.09E-05;-0.000673901;2.64E-05;0.034126312;-0.999417305
2024/05/03/13:36:44.133730;234033;1714768604;133407631;world;7.30E-05;9.42E-05;3.27E-05;-0.000592788;3.87E-05;0.035171866;-0.999381185
2024/05/03/13:36:44.153259;234034;1714768604;152917401;world;5.13E-05;0.000112337;7.64E-05;-0.000555139;0.000193939;0.038602676;-0.999254525
2024/05/03/13:36:44.153287;234035;1714768604;152949059;world;1.61E-05;0.000102331;9.43E-05;-0.000557976;0.000118355;0.040654361;-0.999173105
2024/05/03/13:36:44.173211;234036;1714768604;172905020;world;8.04E-06;8.59E-05;9.85E-05;-0.000672879;0.000137225;0.042612422;-0.999091506
2024/05/03/13:36:44.183902;234037;1714768604;183263041;world;-1.46E-05;7.60E-05;7.18E-05;-0.000633622;3.21E-05;0.043552905;-0.999050915
2024/05/03/13:36:44.204000;234038;1714768604;203270319;world;-1.18E-05;5.95E-05;7.06E-05;-0.000685145;-6.43E-05;0.045472704;-0.998965383
2024/05/03/13:36:44.213292;234039;1714768604;213001024;world;-3.28E-05;4.74E-05;4.42E-05;-0.000576443;-9.51E-05;0.04739232;-0.998876274
2024/05/03/13:36:44.233338;234040;1714768604;233030111;world;-4.58E-05;4.21E-05;6.67E-05;-0.000608762;-5.98E-05;0.04920977;-0.998788297
2024/05/03/13:36:44.263313;234041;1714768604;263003211;world;-1.53E-05;4.65E-05;7.01E-05;-0.000646874;-5.30E-05;0.050081301;-0.998744965
2024/05/03/13:36:44.263343;234042;1714768604;263039568;world;8.25E-06;3.00E-05;8.55E-05;-0.000664115;-6.60E-05;0.05184808;-0.998654842
2024/05/03/13:36:44.273310;234043;1714768604;273022922;world;4.72E-06;2.35E-05;9.87E-05;-0.000584863;-2.55E-06;0.053603217;-0.998562157
2024/05/03/13:36:44.293256;234044;1714768604;292951641;world;-2.20E-05;3.25E-05;7.67E-05;-0.000551008;-9.43E-05;0.055299245;-0.998469651
2024/05/03/13:36:44.303494;234045;1714768604;303181184;world;4.39E-05;6.40E-05;9.07E-05;-0.000706389;-0.000105999;0.056882709;-0.998380661
2024/05/03/13:36:44.323511;234046;1714768604;322910265;world;3.15E-05;4.31E-05;8.24E-05;-0.000574354;-0.000139411;0.058528896;-0.998285592
2024/05/03/13:36:44.333591;234047;1714768604;333126184;world;-1.16E-05;3.24E-05;8.46E-05;-0.000501923;-0.000124816;0.060055878;-0.998194873
2024/05/03/13:36:44.373182;234048;1714768604;372876533;world;-2.34E-05;4.18E-05;9.17E-05;-0.000488618;-0.000199583;0.061538044;-0.998104692
2024/05/03/13:36:44.373223;234049;1714768604;372910847;world;-2.88E-05;3.13E-05;9.51E-05;-0.000484328;-0.00022906;0.063030496;-0.99801147
2024/05/03/13:36:44.383253;234050;1714768604;382946359;world;-8.25E-05;4.82E-05;8.23E-05;-0.000352618;-0.000199786;0.06386327;-0.99795866
2024/05/03/13:36:44.403283;234051;1714768604;402926865;world;-9.63E-05;4.07E-05;7.71E-05;-0.00032376;-0.000241744;0.065336481;-0.997863233
2024/05/03/13:36:44.413381;234052;1714768604;412981234;world;-0.00011288;3.55E-05;7.70E-05;-0.0003329;-0.000258918;0.066874258;-0.997761369
2024/05/03/13:36:44.433417;234053;1714768604;433138629;world;-0.000115179;1.28E-05;8.07E-05;-0.000300934;-0.000252339;0.068337642;-0.997662187
2024/05/03/13:36:44.473472;234054;1714768604;473162647;world;-0.000136528;-8.75E-07;5.94E-05;-0.000300322;-0.000314103;0.069758095;-0.997563839
2024/05/03/13:36:44.473481;234055;1714768604;473196741;world;-0.000146471;-1.35E-05;6.30E-05;-0.000294428;-0.000275182;0.071235448;-0.997459471
2024/05/03/13:36:44.483456;234056;1714768604;483139743;world;-0.000110872;-1.19E-07;7.51E-05;-0.000503398;-0.000305361;0.072752669;-0.997349858
2024/05/03/13:36:44.493474;234057;1714768604;493099594;world;-7.25E-05;2.12E-05;6.95E-05;-0.000617689;-0.000387645;0.073317707;-0.997308373
2024/05/03/13:36:44.503430;234058;1714768604;503164325;world;-2.73E-05;2.01E-05;8.04E-05;-0.000745633;-0.000328044;0.074717663;-0.997204483
2024/05/03/13:36:44.523248;234059;1714768604;522962237;world;-1.32E-05;9.29E-06;9.40E-05;-0.000783252;-0.000240536;0.07612215;-0.997098207
2024/05/03/13:36:44.543566;234060;1714768604;543272847;world;-5.41E-05;3.95E-06;8.25E-05;-0.000802692;-0.000322188;0.07744962;-0.996995926
2024/05/03/13:36:44.573604;234061;1714768604;573336194;world;-5.08E-05;8.52E-06;7.65E-05;-0.000822885;-0.000300318;0.078829154;-0.996887743
2024/05/03/13:36:44.573614;234062;1714768604;573370789;world;-0.000102535;1.18E-05;5.77E-05;-0.000774713;-0.000361351;0.080153443;-0.996782184
2024/05/03/13:36:44.583404;234063;1714768604;583027597;world;-7.76E-05;1.49E-06;4.37E-05;-0.000855205;-0.000444712;0.081492871;-0.996673465
2024/05/03/13:36:44.603434;234064;1714768604;603115611;world;-5.64E-05;-1.74E-05;5.36E-05;-0.000834553;-0.000498454;0.082858719;-0.996560872
2024/05/03/13:36:44.623629;234065;1714768604;623327108;world;-6.49E-05;-2.25E-05;4.22E-05;-0.000809552;-0.000486081;0.084107436;-0.996456206
2024/05/03/13:36:44.643366;234066;1714768604;643119000;world;-5.43E-05;-1.18E-05;4.26E-05;-0.000898327;-0.000503692;0.084740371;-0.996402621
2024/05/03/13:36:44.653692;234067;1714768604;653371149;world;-3.31E-05;1.73E-06;4.45E-05;-0.000995913;-0.000452463;0.086034484;-0.996291637
2024/05/03/13:36:44.663428;234068;1714768604;662990177;world;-5.76E-05;3.37E-05;5.92E-05;-0.000843077;-0.000564887;0.087378934;-0.996174693
2024/05/03/13:36:44.684733;234069;1714768604;684006198;world;-0.000123657;3.18E-05;7.40E-05;-0.000644791;-0.00063859;0.088892199;-0.996040821
2024/05/03/13:36:44.693486;234070;1714768604;693185037;world;-0.000114538;3.85E-05;7.13E-05;-0.000580374;-0.000644705;0.090278924;-0.995916188
2024/05/03/13:36:44.713414;234071;1714768604;713094893;world;-5.10E-05;7.16E-05;9.24E-05;-0.000691679;-0.000685396;0.091529801;-0.995801866
2024/05/03/13:36:44.723265;234072;1714768604;722952124;world;-5.02E-05;7.48E-05;6.44E-05;-0.000808508;-0.000775527;0.092184231;-0.995741367
2024/05/03/13:36:44.743270;234073;1714768604;742947559;world;1.42E-05;8.44E-05;7.98E-05;-0.00101094;-0.000737345;0.093459539;-0.995622337
2024/05/03/13:36:44.773569;234074;1714768604;773239779;world;4.81E-05;9.73E-05;9.79E-05;-0.001122359;-0.000660181;0.094698548;-0.995505214
2024/05/03/13:36:44.773594;234075;1714768604;773260288;world;1.24E-05;8.29E-05;0.000107775;-0.001073486;-0.000714793;0.096019074;-0.995378733
2024/05/03/13:36:44.793644;234076;1714768604;793357170;world;4.76E-05;7.35E-05;0.00024197;-0.000646983;-0.000149131;0.097329363;-0.995252013
2024/05/03/13:36:44.814082;234077;1714768604;813174995;world;7.44E-05;7.61E-05;9.46E-05;-0.001172772;-0.000546532;0.098540805;-0.995132148
2024/05/03/13:36:44.823667;234078;1714768604;823388238;world;3.19E-05;6.96E-05;8.78E-05;-0.000898808;-0.000657452;0.099897891;-0.994997144
2024/05/03/13:36:44.843705;234079;1714768604;843287473;world;3.36E-05;6.33E-05;8.25E-05;-0.000863565;-0.000621888;0.101179712;-0.994867563
2024/05/03/13:36:44.873585;234080;1714768604;873249531;world;5.23E-06;5.10E-05;8.59E-05;-0.000798007;-0.000546035;0.102519199;-0.994730592
2024/05/03/13:36:44.873609;234081;1714768604;873284956;world;1.32E-05;3.13E-05;8.16E-05;-0.000818609;-0.000562014;0.103207946;-0.994659364
2024/05/03/13:36:44.884030;234082;1714768604;883013899;world;7.56E-05;5.05E-06;0.000119788;-0.000984607;-0.000565885;0.104589954;-0.994514823
2024/05/03/13:36:44.903208;234083;1714768604;902931694;world;9.87E-05;2.01E-05;0.00010948;-0.001125652;-0.00050009;0.105833247;-0.994383216
2024/05/03/13:36:44.913172;234084;1714768604;912863137;world;8.89E-05;2.02E-05;8.81E-05;-0.001043259;-0.000512997;0.107157946;-0.994241357
2024/05/03/13:36:44.933623;234085;1714768604;933260992;world;0.000132561;-6.24E-06;7.19E-05;-0.000982041;-0.000599859;0.108469263;-0.99409914
2024/05/03/13:36:44.953152;234086;1714768604;952875947;world;0.000220187;3.88E-05;8.16E-05;-0.001063217;-0.000535223;0.109724343;-0.993961334
2024/05/03/13:36:44.993415;234087;1714768604;993036770;world;0.000226498;2.32E-05;8.43E-05;-0.001064424;-0.000579877;0.111080743;-0.993810713
2024/05/03/13:36:44.993436;234089;1714768604;993081463;world;0.000182066;3.97E-05;6.49E-05;-0.000918296;-0.000583878;0.113771051;-0.993506432
2024/05/03/13:36:45.014482;234090;1714768605;14169768;world;0.000224929;5.66E-05;0.00010046;-0.000901242;-0.000610813;0.115038686;-0.99336046
2024/05/03/13:36:45.023298;234091;1714768605;23031352;world;0.000165094;5.92E-05;0.000111917;-0.000758574;-0.000661373;0.116439678;-0.993197322
2024/05/03/13:36:45.053709;234092;1714768605;53423079;world;0.000115503;6.24E-05;0.00010944;-0.000679784;-0.000687897;0.117788367;-0.993038237
2024/05/03/13:36:45.063414;234093;1714768605;63088633;world;9.19E-05;4.26E-05;0.000119544;-0.000569285;-0.000714324;0.118477747;-0.992956281
2024/05/03/13:36:45.073517;234094;1714768605;73196059;world;7.14E-05;3.34E-05;0.000131933;-0.000472597;-0.000702458;0.119768292;-0.992801547
2024/05/03/13:36:45.093279;234095;1714768605;92962076;world;9.31E-05;3.17E-05;0.000132959;-0.000496372;-0.000822519;0.12095087;-0.992658079
2024/05/03/13:36:45.103294;234096;1714768605;103012687;world;8.62E-05;2.40E-05;0.000141684;-0.00052012;-0.000850843;0.122266643;-0.992496848
2024/05/03/13:36:45.123686;234097;1714768605;123365166;world;9.74E-05;1.93E-05;0.000135411;-0.000467996;-0.00089159;0.123531088;-0.992340207
2024/05/03/13:36:45.133571;234098;1714768605;133206057;world;0.000102211;2.49E-05;0.000150672;-0.000469885;-0.000954352;0.124770775;-0.992185056
2024/05/03/13:36:45.153219;234099;1714768605;152891463;world;9.51E-05;-1.58E-06;0.000144645;-0.000545334;-0.000852463;0.126101032;-0.992016912
2024/05/03/13:36:45.183661;234100;1714768605;183377759;world;2.32E-05;-4.44E-05;0.000138357;-0.000605963;-0.000918446;0.127040491;-0.991896927
2024/05/03/13:36:45.183687;234101;1714768605;183413436;world;8.25E-05;2.46E-05;0.000161665;-0.000450534;-0.000792483;0.12822172;-0.991745174
2024/05/03/13:36:45.193267;234102;1714768605;192965327;world;0.000125617;2.18E-05;0.000133522;-0.000662772;-0.000924294;0.129452318;-0.991585016
2024/05/03/13:36:45.214045;234103;1714768605;213211920;world;0.000159424;3.56E-05;0.000117443;-0.000719971;-0.000997941;0.130763933;-0.991412759
2024/05/03/13:36:45.233399;234104;1714768605;233094463;world;0.000168726;3.98E-05;0.000118701;-0.000762917;-0.001070867;0.132051662;-0.991241932
2024/05/03/13:36:45.253349;234105;1714768605;253047418;world;0.000184134;3.69E-05;0.000124647;-0.000806749;-0.001094085;0.133403391;-0.991060913
2024/05/03/13:36:45.264050;234106;1714768605;263010497;world;0.000110481;1.59E-06;0.000143192;-0.000723896;-0.00107573;0.134305909;-0.99093914
2024/05/03/13:36:45.293473;234107;1714768605;293132244;world;4.18E-05;-4.05E-05;0.000117773;-0.000700671;-0.001222493;0.135757402;-0.990741134
2024/05/03/13:36:45.293478;234108;1714768605;293174973;world;8.19E-05;5.12E-06;0.000120566;-0.00076402;-0.001241885;0.136890262;-0.990585148
2024/05/03/13:36:45.313211;234109;1714768605;312958194;world;0.000162736;1.64E-05;0.000121819;-0.000825159;-0.001214576;0.138852164;-0.990312099
2024/05/03/13:36:45.323568;234110;1714768605;323251704;world;0.000152033;9.74E-06;0.000124272;-0.000808818;-0.001180365;0.139525488;-0.990217507
2024/05/03/13:36:45.343411;234111;1714768605;343125542;world;7.97E-05;-2.35E-05;0.000144533;-0.000704475;-0.001238452;0.140966326;-0.990013361
2024/05/03/13:36:45.363326;234112;1714768605;362988422;world;1.01E-05;-4.06E-05;0.000149297;-0.000574156;-0.001199322;0.142433286;-0.989803553
2024/05/03/13:36:45.383425;234113;1714768605;383078361;world;2.65E-05;-4.91E-05;0.000144853;-0.000567242;-0.001133152;0.143694237;-0.989621401
2024/05/03/13:36:45.383449;234114;1714768605;383112664;world;2.32E-05;-2.31E-05;0.000174016;-0.000804513;-0.001019197;0.144448355;-0.989511549
2024/05/03/13:36:45.403408;234115;1714768605;403114152;world;0.000151735;-1.46E-05;0.000125472;-0.001329473;-0.001029385;0.145467699;-0.989361584
2024/05/03/13:36:45.413222;234116;1714768605;412902203;world;0.000171628;-3.45E-06;0.000180621;-0.000995744;-0.000974609;0.146673203;-0.989184022
2024/05/03/13:36:45.433427;234117;1714768605;433014634;world;0.000198543;2.38E-05;0.000185781;-0.001166898;-0.000918459;0.147935286;-0.98899591
2024/05/03/13:36:45.443472;234118;1714768605;443171213;world;0.000232771;2.56E-05;0.000192013;-0.001228656;-0.000901047;0.149235815;-0.988800526
2024/05/03/13:36:45.463153;234119;1714768605;462865317;world;0.000244331;2.34E-05;0.00019689;-0.001135413;-0.000892759;0.150545448;-0.988602102
2024/05/03/13:36:45.484519;234120;1714768605;484026238;world;0.00025934;2.30E-05;0.000185618;-0.001147837;-0.000985729;0.151809752;-0.988408625
2024/05/03/13:36:45.493377;234121;1714768605;493105583;world;0.000243187;1.29E-05;0.000179492;-0.001091995;-0.001062079;0.15253368;-0.988297164
2024/05/03/13:36:45.513234;234122;1714768605;512931733;world;9.76E-05;-8.29E-06;0.000207241;-0.000796469;-0.001125839;0.154883802;-0.987931788
2024/05/03/13:36:45.523202;234123;1714768605;522956575;world;0.000161573;1.22E-05;0.000209807;-0.000844851;-0.001081697;0.155460358;-0.987841189
2024/05/03/13:36:45.543947;234124;1714768605;543272044;world;8.82E-05;2.24E-05;0.0002029;-0.00076155;-0.001018872;0.157521203;-0.987514853
2024/05/03/13:36:45.563358;234125;1714768605;563065263;world;9.26E-05;-1.13E-05;0.000233534;-0.000639703;-0.001026046;0.158180296;-0.987409532
2024/05/03/13:36:45.593679;234126;1714768605;593313911;world;9.99E-05;-4.83E-06;0.000213969;-0.000895275;-0.000954077;0.159448683;-0.987205386
2024/05/03/13:36:45.593708;234127;1714768605;593348635;world;3.03E-05;-2.52E-05;0.000338553;-0.000369061;-0.000650834;0.160945967;-0.986962974
2024/05/03/13:36:45.603617;234128;1714768605;603380638;world;-2.03E-05;-9.52E-06;0.000206959;-0.000748502;-0.001051535;0.162277162;-0.986744404
2024/05/03/13:36:45.613862;234129;1714768605;613537164;world;-1.56E-05;-2.56E-05;0.000189702;-0.00083393;-0.001134943;0.162877619;-0.986645281
2024/05/03/13:36:45.633264;234130;1714768605;632986381;world;5.04E-05;-1.29E-05;0.00020257;-0.000981665;-0.001077298;0.164097935;-0.986443043
2024/05/03/13:36:45.653282;234131;1714768605;652981457;world;6.48E-05;7.63E-06;0.000183542;-0.000854968;-0.001035994;0.16554074;-0.986202061
2024/05/03/13:36:45.663616;234132;1714768605;663261539;world;0.000119869;1.06E-05;0.000170334;-0.001043838;-0.001026184;0.16692701;-0.985968232
2024/05/03/13:36:45.693370;234133;1714768605;693056110;world;0.000141151;-2.81E-06;0.000163657;-0.001109666;-0.001073177;0.168171883;-0.985756576
2024/05/03/13:36:45.703554;234134;1714768605;703300402;world;0.000129256;1.92E-06;0.000168531;-0.001051483;-0.001129931;0.16952455;-0.985524833
2024/05/03/13:36:45.713553;234135;1714768605;713233074;world;0.000113789;-1.04E-06;0.000164546;-0.001053653;-0.001137211;0.170861855;-0.985293806
2024/05/03/13:36:45.733289;234136;1714768605;733020680;world;0.000116091;-5.48E-06;0.000149646;-0.001082807;-0.001160518;0.172172546;-0.98506552
2024/05/03/13:36:45.743530;234137;1714768605;743211783;world;0.000116117;-3.58E-06;0.000159008;-0.001116638;-0.001122715;0.172829151;-0.984950542
2024/05/03/13:36:45.773325;234138;1714768605;773021319;world;0.000107177;-8.26E-06;0.000149524;-0.001219021;-0.001157553;0.174118787;-0.98472321
2024/05/03/13:36:45.773350;234139;1714768605;773058999;world;0.000113059;-1.64E-05;0.000162419;-0.001204133;-0.001177191;0.175430566;-0.984490335
2024/05/03/13:36:45.794252;234140;1714768605;792961050;world;0.000116136;-8.90E-06;0.000141049;-0.001202069;-0.001136215;0.176722288;-0.984259427
2024/05/03/13:36:45.813372;234141;1714768605;813043136;world;0.000136007;-1.61E-05;0.000156584;-0.001237685;-0.001162527;0.17800343;-0.984028399
2024/05/03/13:36:45.823654;234142;1714768605;823312612;world;6.78E-05;-2.35E-05;0.000152631;-0.001100792;-0.001173273;0.179423049;-0.983770728
2024/05/03/13:36:45.844801;234143;1714768605;843923271;world;3.88E-05;-9.19E-06;0.000185188;-0.001160637;-0.001186728;0.18086119;-0.983507276
2024/05/03/13:36:45.853347;234144;1714768605;853077224;world;5.53E-05;-2.69E-05;0.000175592;-0.001158884;-0.00127319;0.182063594;-0.983285248
2024/05/03/13:36:45.873179;234145;1714768605;872897522;world;0.000168469;-1.27E-05;0.000162506;-0.001586434;-0.001239036;0.182944164;-0.983121276
2024/05/03/13:36:45.903813;234146;1714768605;903383006;world;0.000186216;-7.44E-06;0.000148583;-0.001601284;-0.001269691;0.183483317;-0.983020782
2024/05/03/13:36:45.903819;234147;1714768605;903413232;world;0.00019842;-2.82E-05;0.000151029;-0.001697442;-0.001387917;0.184761181;-0.982780993
2024/05/03/13:36:45.913425;234148;1714768605;913142915;world;0.000157241;-1.35E-05;0.000177062;-0.001452888;-0.001390634;0.186244532;-0.982501447
2024/05/03/13:36:45.933483;234149;1714768605;933142006;world;0.000122208;-2.22E-05;0.000195342;-0.001410021;-0.001409565;0.187762275;-0.982212543
2024/05/03/13:36:45.943361;234150;1714768605;943049541;world;0.00010664;-3.66E-05;0.000220986;-0.001389264;-0.001392641;0.189169914;-0.981942475
2024/05/03/13:36:45.973295;234151;1714768605;972992704;world;0.000213411;-1.14E-05;0.00019233;-0.001651315;-0.001585141;0.190313607;-0.981720686
2024/05/03/13:36:45.973336;234152;1714768605;973026627;world;0.000159927;-2.86E-05;0.000153002;-0.001703218;-0.001605587;0.191790879;-0.981433094
2024/05/03/13:36:45.993189;234153;1714768605;992889637;world;6.76E-05;-6.03E-05;0.000272305;-0.001031117;-0.00119252;0.192641586;-0.981267989
2024/05/03/13:36:46.004075;234154;1714768606;3777663;world;0.000120062;-1.71E-06;0.000247355;-0.001387451;-0.001242472;0.193907797;-0.981018066
2024/05/03/13:36:46.023964;234155;1714768606;23113863;world;0.000127349;-3.53E-05;0.00039482;-0.000831046;-0.000784512;0.195357949;-0.980731428
2024/05/03/13:36:46.043928;234156;1714768606;43249709;world;0.000165116;3.57E-05;0.000173796;-0.001661459;-0.00147006;0.196348518;-0.980531633
2024/05/03/13:36:46.053295;234157;1714768606;52988359;world;0.000221938;4.48E-05;0.00017063;-0.0017111;-0.001447666;0.197547197;-0.98029089
2024/05/03/13:36:46.073711;234158;1714768606;73090274;world;0.000131741;-4.85E-06;0.000255367;-0.00118807;-0.001202576;0.199108541;-0.979976058
2024/05/03/13:36:46.103795;234159;1714768606;103098458;world;9.92E-05;-5.58E-05;0.000326525;-0.001162026;-0.001093757;0.200535282;-0.979685247
2024/05/03/13:36:46.103804;234160;1714768606;103133773;world;0.000116464;-7.42E-05;0.000314083;-0.001313781;-0.001031997;0.201722547;-0.979441285
2024/05/03/13:36:46.123598;234161;1714768606;123279458;world;0.000112064;-7.84E-05;0.000301774;-0.001369486;-0.001097815;0.202942401;-0.979189098
2024/05/03/13:36:46.133181;234162;1714768606;132882777;world;0.000118513;-7.06E-05;0.000307506;-0.001403685;-0.001079752;0.203601584;-0.979052246
2024/05/03/13:36:46.153555;234163;1714768606;153256877;world;8.69E-05;-7.87E-05;0.000275013;-0.001649278;-0.001041939;0.205696315;-0.978613913
2024/05/03/13:36:46.173319;234164;1714768606;172937357;world;0.000112135;-7.83E-05;0.000284401;-0.001822849;-0.000893395;0.206262469;-0.978494644
2024/05/03/13:36:46.204012;234165;1714768606;203162674;world;0.000135131;-6.14E-05;0.000268856;-0.002040628;-0.000860419;0.207382023;-0.978257596
2024/05/03/13:36:46.204018;234166;1714768606;203196176;world;0.000183325;-2.54E-05;0.000245663;-0.002213936;-0.001024505;0.208554804;-0.978007615
2024/05/03/13:36:46.223842;234167;1714768606;223475580;world;0.000208944;1.43E-06;0.000189071;-0.00237908;-0.001256634;0.209824517;-0.9777354
2024/05/03/13:36:46.223852;234168;1714768606;223495066;world;0.000201397;1.56E-05;0.000167909;-0.002300072;-0.001301006;0.211086005;-0.977463901
2024/05/03/13:36:46.244335;234169;1714768606;243958502;world;0.000202104;2.76E-05;0.00011068;-0.002288643;-0.00137735;0.21233426;-0.977193475
2024/05/03/13:36:46.263174;234170;1714768606;262922688;world;0.000181124;2.88E-05;0.000111236;-0.002251445;-0.001385915;0.213664874;-0.976903498
2024/05/03/13:36:46.284077;234171;1714768606;283300414;world;0.000183571;2.11E-05;0.000126928;-0.00208821;-0.001444201;0.214978442;-0.976615548
2024/05/03/13:36:46.303564;234172;1714768606;303270881;world;0.000153594;1.90E-05;0.000134065;-0.002016151;-0.001389977;0.215650678;-0.97646755
2024/05/03/13:36:46.303591;234173;1714768606;303306237;world;0.00015324;-7.65E-06;0.000116523;-0.001964128;-0.001463856;0.217019528;-0.976164162
2024/05/03/13:36:46.323754;234174;1714768606;323529377;world;0.000173733;8.29E-06;8.04E-05;-0.001979392;-0.00144771;0.218260273;-0.975887597
2024/05/03/13:36:46.333824;234175;1714768606;333130030;world;0.00015232;4.77E-05;0.000101303;-0.001817877;-0.001494597;0.219693378;-0.975566208
2024/05/03/13:36:46.353155;234176;1714768606;352861865;world;0.000161678;6.83E-05;0.000121409;-0.001834844;-0.001412035;0.220969453;-0.97527802
2024/05/03/13:36:46.373515;234177;1714768606;373189589;world;0.000126768;5.37E-05;0.000129199;-0.001730299;-0.001417582;0.222320661;-0.974971056
2024/05/03/13:36:46.383257;234178;1714768606;382963915;world;0.000100933;6.88E-05;0.000141648;-0.001615222;-0.001457588;0.223684505;-0.974659204
2024/05/03/13:36:46.403725;234179;1714768606;403419898;world;0.000107698;6.38E-05;0.000146704;-0.00161861;-0.001503691;0.224383533;-0.974498391
2024/05/03/13:36:46.414429;234180;1714768606;414070924;world;7.55E-05;0.000100467;0.000167866;-0.001488511;-0.001528764;0.225716025;-0.974190831
2024/05/03/13:36:46.433598;234181;1714768606;433017929;world;3.05E-05;0.000117972;0.000183136;-0.001425061;-0.0014616;0.227118537;-0.973864973
2024/05/03/13:36:46.453254;234182;1714768606;452950837;world;2.48E-05;0.000112236;0.000168962;-0.001438902;-0.001530548;0.228448436;-0.973553836
2024/05/03/13:36:46.464010;234183;1714768606;463653109;world;9.69E-06;0.000122793;0.000164288;-0.001369662;-0.001552874;0.229731336;-0.973251879
2024/05/03/13:36:46.483537;234184;1714768606;483287740;world;1.36E-05;0.000154637;0.000183888;-0.001367079;-0.001564382;0.231076062;-0.972933471
2024/05/03/13:36:46.503469;234185;1714768606;503139143;world;2.74E-05;0.000150844;0.000179276;-0.001414457;-0.001600647;0.231720909;-0.972780049
2024/05/03/13:36:46.503493;234186;1714768606;503175491;world;8.24E-05;0.00016509;0.000150215;-0.00153953;-0.001653929;0.232967705;-0.972481847
2024/05/03/13:36:46.523744;234187;1714768606;523250090;world;9.44E-05;0.000180896;0.000142592;-0.001477198;-0.001703345;0.234259471;-0.972171485
2024/05/03/13:36:46.544262;234188;1714768606;544027279;world;1.07E-05;0.000106886;0.000189497;-0.001568244;-0.001722386;0.236573935;-0.971610725
2024/05/03/13:36:46.563305;234189;1714768606;563028808;world;2.27E-05;9.61E-05;0.000212188;-0.001547058;-0.00169243;0.237252086;-0.971445441
2024/05/03/13:36:46.583419;234190;1714768606;583136111;world;3.20E-06;9.82E-05;0.000190135;-0.001571321;-0.001765368;0.238507345;-0.971137822
2024/05/03/13:36:46.593253;234191;1714768606;592938439;world;2.40E-05;8.42E-05;0.000176646;-0.001576216;-0.001757008;0.239745393;-0.970832884
2024/05/03/13:36:46.613261;234192;1714768606;612940337;world;6.29E-05;9.00E-05;0.000159299;-0.001561785;-0.001854957;0.240936041;-0.970537961
2024/05/03/13:36:46.633504;234193;1714768606;633247292;world;4.55E-05;9.75E-05;0.00017618;-0.001518522;-0.001822556;0.241539434;-0.970388174
2024/05/03/13:36:46.633556;234194;1714768606;633278800;world;3.36E-05;9.37E-05;0.000176648;-0.001571513;-0.001807612;0.242887497;-0.970051527
2024/05/03/13:36:46.653176;234195;1714768606;652967785;world;-8.94E-08;7.05E-05;0.000159892;-0.001680969;-0.001751022;0.244278595;-0.969702125
2024/05/03/13:36:46.663267;234196;1714768606;662953253;world;-2.66E-06;5.09E-05;0.000179551;-0.001701397;-0.001775647;0.245681241;-0.969347596
2024/05/03/13:36:46.693419;234197;1714768606;692924881;world;1.92E-05;6.11E-05;0.000208299;-0.001705896;-0.00160826;0.247022107;-0.969007075
2024/05/03/13:36:46.693449;234198;1714768606;692960107;world;4.34E-05;7.03E-05;0.000196917;-0.001720299;-0.001559694;0.248300746;-0.968680203
2024/05/03/13:36:46.713961;234199;1714768606;713675140;world;3.40E-05;0.000117823;0.000136967;-0.001716764;-0.001482261;0.249494955;-0.968373477
2024/05/03/13:36:46.733672;234200;1714768606;733208596;world;6.10E-05;0.000111684;0.000127329;-0.001832357;-0.001483261;0.250770032;-0.968043804
2024/05/03/13:36:46.743728;234201;1714768606;743407643;world;7.74E-05;0.000105891;0.000135616;-0.001875001;-0.001469575;0.251382947;-0.967884779
2024/05/03/13:36:46.763187;234202;1714768606;762926631;world;8.23E-05;0.000103824;0.000106042;-0.001938699;-0.001478648;0.252543062;-0.967582583
2024/05/03/13:36:46.773171;234203;1714768606;772868078;world;9.74E-05;0.000157468;0.000104639;-0.001890179;-0.001474979;0.253831923;-0.9672454
2024/05/03/13:36:46.793223;234204;1714768606;792928114;world;0.000129335;0.000155427;0.000119736;-0.001876112;-0.001468432;0.255079746;-0.966917098
2024/05/03/13:36:46.854031;234205;1714768606;853104983;world;9.75E-05;0.000149131;0.00010799;-0.001845698;-0.001522729;0.256431431;-0.96655947
2024/05/03/13:36:46.854085;234208;1714768606;853155216;world;1.00E-04;0.000149395;0.000141928;-0.001529892;-0.001574849;0.260007203;-0.965604186
2024/05/03/13:36:46.873256;234209;1714768606;872890867;world;0.000153895;0.000160705;0.00014535;-0.001502161;-0.00153846;0.261114746;-0.965305388
2024/05/03/13:36:46.894872;234210;1714768606;893434641;world;0.000163693;0.000177175;0.000126744;-0.001429986;-0.001689427;0.26238513;-0.964960694
2024/05/03/13:36:46.903516;234211;1714768606;903196140;world;0.000148948;0.000185382;0.000132534;-0.001398881;-0.001711224;0.263021916;-0.964787364
2024/05/03/13:36:46.933422;234212;1714768606;933136514;world;0.000142161;0.000207022;0.000154456;-0.001300702;-0.001808059;0.264999658;-0.964245915
2024/05/03/13:36:46.943275;234213;1714768606;942973240;world;0.00015112;0.000204735;0.000155693;-0.001382115;-0.001891059;0.265688539;-0.964056134
2024/05/03/13:36:46.943305;234214;1714768606;943004388;world;0.000145966;0.00019655;0.000178468;-0.001458096;-0.001842779;0.26696077;-0.963704586
2024/05/03/13:36:46.963508;234215;1714768606;963269511;world;0.000237118;0.00020409;0.000170721;-0.001408322;-0.001740423;0.26828742;-0.963336408
2024/05/03/13:36:46.983513;234216;1714768606;983251432;world;0.00024664;0.000200123;0.00018562;-0.001582929;-0.001718302;0.269535691;-0.962987602
2024/05/03/13:36:46.993547;234217;1714768606;993259102;world;0.000244383;0.0001771;0.000190543;-0.001537994;-0.001842989;0.270757139;-0.962644696
2024/05/03/13:36:47.043395;234218;1714768607;43083239;world;0.000269935;0.000182126;0.000220107;-0.0017082;-0.001804519;0.272056818;-0.962277949
2024/05/03/13:36:47.043423;234220;1714768607;43126319;world;0.000263859;0.000167266;0.000221441;-0.001773456;-0.001778635;0.274704218;-0.9615255
2024/05/03/13:36:47.063210;234221;1714768607;62951971;world;0.000243474;0.00016607;0.000217932;-0.001774832;-0.001803459;0.275998771;-0.96115464
2024/05/03/13:36:47.073651;234222;1714768607;73089171;world;0.00025519;0.000153653;0.000230116;-0.001836159;-0.001751946;0.276628345;-0.96097362
2024/05/03/13:36:47.103239;234223;1714768607;102936771;world;0.000214193;0.000222482;0.000209065;-0.001755458;-0.001782174;0.277902991;-0.960605979
2024/05/03/13:36:47.103266;234224;1714768607;102969361;world;0.000253346;0.000222072;0.000191837;-0.001838418;-0.001755578;0.279063404;-0.960269392
2024/05/03/13:36:47.143963;234225;1714768607;143444070;world;0.000261825;0.000229124;0.000179466;-0.001805413;-0.001781563;0.279608279;-0.960110784
2024/05/03/13:36:47.143970;234226;1714768607;143486569;world;0.000272505;0.000232443;0.000179089;-0.001888861;-0.001845736;0.280925751;-0.959725916
2024/05/03/13:36:47.153509;234227;1714768607;153221453;world;0.00029619;0.000234239;0.000174167;-0.001899612;-0.00187424;0.282829911;-0.959166348
2024/05/03/13:36:47.163418;234228;1714768607;163112697;world;0.000307813;0.000223529;0.000155193;-0.001914082;-0.001932058;0.283461124;-0.958979964
2024/05/03/13:36:47.183427;234229;1714768607;183112811;world;0.000347298;0.000223674;0.00014665;-0.001932644;-0.001894954;0.284763992;-0.958593845
2024/05/03/13:36:47.203572;234230;1714768607;203269877;world;0.000365905;0.000229012;0.000147777;-0.001915189;-0.001926016;0.286047369;-0.95821172
2024/05/03/13:36:47.263592;234231;1714768607;263293172;world;0.000337873;0.000236627;0.000170712;-0.002067741;-0.001922462;0.287367553;-0.957816303
2024/05/03/13:36:47.263619;234234;1714768607;263347313;world;0.000332139;0.000260103;0.000176061;-0.002243303;-0.001899695;0.290625811;-0.95683229
2024/05/03/13:36:47.273621;234235;1714768607;273199616;world;0.000329386;0.000273462;0.000192326;-0.002312262;-0.001883954;0.291805387;-0.956473053
2024/05/03/13:36:47.303445;234236;1714768607;303144152;world;0.00034377;0.000266742;0.000169383;-0.00215081;-0.00196217;0.293062359;-0.95608896
2024/05/03/13:36:47.303469;234237;1714768607;303185889;world;0.000330202;0.000273269;0.00016934;-0.002093135;-0.002002657;0.294302255;-0.955708086
2024/05/03/13:36:47.323406;234238;1714768607;323082743;world;0.000398781;0.000249546;0.000119631;-0.001969832;-0.001952387;0.29561162;-0.955304146
2024/05/03/13:36:47.343991;234239;1714768607;343219660;world;0.000385521;0.00023789;0.000163103;-0.00192753;-0.001900025;0.296959579;-0.954886258
2024/05/03/13:36:47.353436;234240;1714768607;353101437;world;0.000339152;0.000256654;0.00013575;-0.00190528;-0.00190673;0.298238724;-0.954487503
2024/05/03/13:36:47.373703;234241;1714768607;373277007;world;0.000342179;0.000259481;0.000126886;-0.001863682;-0.001878947;0.298860341;-0.954293251
2024/05/03/13:36:47.383632;234242;1714768607;383339781;world;0.000349084;0.000284471;0.000130079;-0.00190102;-0.001936264;0.300824642;-0.953675628
2024/05/03/13:36:47.403509;234243;1714768607;403172955;world;0.000349289;0.000301704;0.000137063;-0.001925818;-0.001888441;0.301501185;-0.953462064
2024/05/03/13:36:47.433599;234244;1714768607;433231306;world;0.000301929;0.000305973;0.000167309;-0.001892686;-0.001794865;0.302813679;-0.953046203
2024/05/03/13:36:47.433627;234245;1714768607;433265680;world;0.000372525;0.000270173;0.000164944;-0.002106951;-0.001645573;0.304853141;-0.952395618
2024/05/03/13:36:47.453445;234246;1714768607;453132975;world;0.000384878;0.000274561;0.000164778;-0.002077847;-0.001638466;0.305459738;-0.952201307
2024/05/03/13:36:47.463314;234247;1714768607;463011997;world;0.000350174;0.000255227;0.000203301;-0.002079409;-0.001607113;0.30677706;-0.951777816
2024/05/03/13:36:47.473354;234248;1714768607;473067787;world;0.000347026;0.000263251;0.000199301;-0.002069303;-0.001584142;0.308053792;-0.951365352
2024/05/03/13:36:47.493477;234249;1714768607;493169339;world;0.000377446;0.000255674;0.000195986;-0.002030426;-0.001567995;0.308671653;-0.951165259
2024/05/03/13:36:47.513412;234250;1714768607;513071924;world;0.000332333;0.000258449;0.000130346;-0.001864772;-0.001915217;0.310001791;-0.950732231
2024/05/03/13:36:47.533206;234251;1714768607;532908202;world;0.000322269;0.000251155;0.000179244;-0.001828069;-0.001897141;0.311889887;-0.950114667
2024/05/03/13:36:47.543196;234252;1714768607;542920724;world;0.000342991;0.000255942;0.00016972;-0.00178998;-0.001868157;0.312505871;-0.94991231
2024/05/03/13:36:47.553588;234253;1714768607;553333388;world;0.000338055;0.000255719;0.000162792;-0.001791336;-0.001958294;0.313720584;-0.949511647
2024/05/03/13:36:47.573312;234254;1714768607;572987720;world;0.0003665;0.00026951;0.000168215;-0.001881948;-0.001981836;0.315026104;-0.949079156
2024/05/03/13:36:47.583419;234255;1714768607;583128526;world;0.000372816;0.000282735;0.000181699;-0.00193882;-0.002025788;0.316287577;-0.948659301
2024/05/03/13:36:47.613536;234256;1714768607;613258188;world;0.0003538;0.000293411;0.000173216;-0.001976424;-0.002047444;0.317480683;-0.948260486
2024/05/03/13:36:47.613569;234257;1714768607;613302199;world;0.000360567;0.000297606;0.000168504;-0.001997867;-0.002007627;0.318014115;-0.948081732
2024/05/03/13:36:47.633726;234258;1714768607;633218659;world;0.000382133;0.000305682;0.000165502;-0.002084912;-0.00191716;0.319283068;-0.947655141
2024/05/03/13:36:47.653258;234259;1714768607;652923213;world;0.000376157;0.000285108;0.000163508;-0.002107892;-0.001957581;0.320546269;-0.947228491
2024/05/03/13:36:47.665251;234260;1714768607;664936258;world;0.000398383;0.000248857;0.000209244;-0.002274175;-0.001770746;0.321883351;-0.94677496
2024/05/03/13:36:47.683642;234261;1714768607;683329880;world;0.000389917;0.000251751;0.000191381;-0.002166616;-0.001882753;0.323103189;-0.946359396
2024/05/03/13:36:47.693342;234262;1714768607;693109317;world;0.000382906;0.000261404;0.000191372;-0.002120438;-0.001910338;0.324360222;-0.945929408
2024/05/03/13:36:47.713261;234263;1714768607;712940838;world;0.000350276;0.000251234;0.00017509;-0.001975866;-0.002188812;0.325697422;-0.945469499
2024/05/03/13:36:47.733454;234264;1714768607;733160336;world;0.000341995;0.000250295;0.000166693;-0.001959789;-0.002331996;0.326968759;-0.945030212
2024/05/03/13:36:47.743221;234265;1714768607;742888461;world;0.000341;0.000247344;0.000156699;-0.001944883;-0.002362922;0.327578008;-0.944819272
2024/05/03/13:36:47.763462;234266;1714768607;763148459;world;0.000357943;0.000265002;0.000160351;-0.001952586;-0.002319452;0.328775138;-0.94440335
2024/05/03/13:36:47.773287;234267;1714768607;772994428;world;0.000344088;0.00027708;0.000150565;-0.0019482;-0.002359024;0.329962969;-0.943988979
2024/05/03/13:36:47.793316;234268;1714768607;793051760;world;0.000348203;0.000268061;0.000165497;-0.002017387;-0.002294107;0.331262439;-0.943533719
2024/05/03/13:36:47.813570;234269;1714768607;813263857;world;0.000346554;0.000295535;0.000162616;-0.001953878;-0.00226713;0.332521826;-0.943090796
2024/05/03/13:36:47.823994;234270;1714768607;823359642;world;0.000335308;0.000300087;0.000162842;-0.001956782;-0.002310947;0.33374396;-0.942658961
2024/05/03/13:36:47.844201;234271;1714768607;843194228;world;0.000324251;0.000299925;0.000159074;-0.001931686;-0.002269777;0.335061401;-0.942191601
2024/05/03/13:36:47.853802;234272;1714768607;853437568;world;0.000326181;0.00030962;0.000179274;-0.001919114;-0.002228752;0.335734248;-0.941952169
2024/05/03/13:36:47.864232;234273;1714768607;863790360;world;0.000363419;0.000298809;0.000172058;-0.002003356;-0.002157458;0.336978883;-0.941507638
2024/05/03/13:36:47.883590;234274;1714768607;883137931;world;0.000350541;0.00030113;0.000158845;-0.001901838;-0.002239565;0.338857651;-0.940833092
2024/05/03/13:36:47.903631;234275;1714768607;903223624;world;0.000372536;0.000299774;0.000148903;-0.001851935;-0.002232591;0.339518845;-0.940594792
2024/05/03/13:36:47.923376;234276;1714768607;923047030;world;0.000386005;0.000283042;0.000142869;-0.001872576;-0.002276358;0.341295302;-0.939951479
2024/05/03/13:36:47.943288;234277;1714768607;942982664;world;0.000386231;0.000291206;0.000139474;-0.001866332;-0.002274192;0.341903895;-0.939730346
2024/05/03/13:36:47.943316;234278;1714768607;943014974;world;0.000403851;0.000312246;0.000156105;-0.001927839;-0.002329411;0.343139529;-0.939279556
2024/05/03/13:36:47.963285;234279;1714768607;962879285;world;0.00039503;0.000307212;0.000156675;-0.001890564;-0.002320361;0.34434405;-0.93883878
2024/05/03/13:36:47.983544;234280;1714768607;983183505;world;0.000380985;0.000335665;0.000168524;-0.001818679;-0.002235217;0.345663279;-0.938354194
2024/05/03/13:36:47.993536;234281;1714768607;993159999;world;0.000374826;0.000327939;0.000172219;-0.001837246;-0.00218719;0.346247464;-0.938138902
2024/05/03/13:36:48.023765;234282;1714768608;23224599;world;0.000359578;0.000336666;0.000173217;-0.00190087;-0.002182699;0.347522944;-0.937667012
2024/05/03/13:36:48.023771;234283;1714768608;23258973;world;0.000356864;0.000316784;0.000180409;-0.00191797;-0.002164452;0.348786116;-0.937197864
2024/05/03/13:36:48.063608;234284;1714768608;63117719;world;0.000381334;0.000315877;0.000180014;-0.002059947;-0.002172648;0.350026399;-0.936735094
2024/05/03/13:36:48.063637;234285;1714768608;63151562;world;0.000412395;0.000296503;0.000192107;-0.00210781;-0.002158798;0.351298064;-0.936258852
2024/05/03/13:36:48.073221;234286;1714768608;72887809;world;0.000396144;0.000313977;0.000196525;-0.002150168;-0.002119713;0.352600366;-0.935769141
2024/05/03/13:36:48.083204;234287;1714768608;82897794;world;0.000370335;0.000310667;0.000194221;-0.002190597;-0.002179565;0.353814781;-0.935310483
2024/05/03/13:36:48.103746;234288;1714768608;103436620;world;0.000383606;0.000302672;0.000183609;-0.002392973;-0.002257214;0.355140835;-0.934807062
2024/05/03/13:36:48.123464;234289;1714768608;123171951;world;0.000386754;0.000288501;0.000164517;-0.00244459;-0.002256322;0.356400967;-0.934327185
2024/05/03/13:36:48.153747;234290;1714768608;153117432;world;0.000388073;0.000283271;0.000156318;-0.002396198;-0.002377624;0.357619941;-0.933861196
2024/05/03/13:36:48.153774;234291;1714768608;153153289;world;0.000387385;0.000289023;0.000138959;-0.002348885;-0.002475995;0.358900487;-0.933369577
2024/05/03/13:36:48.163805;234292;1714768608;163426094;world;0.000386927;0.000289723;0.000144752;-0.002295455;-0.002520638;0.359543264;-0.933122218
2024/05/03/13:36:48.183439;234293;1714768608;183143562;world;0.000366079;0.000309249;0.00013662;-0.002101148;-0.002570943;0.360893011;-0.932601333
2024/05/03/13:36:48.193483;234294;1714768608;193201346;world;0.000354612;0.000348112;0.000136145;-0.002036512;-0.002715586;0.362223536;-0.932085156
2024/05/03/13:36:48.223559;234295;1714768608;223262401;world;0.000321381;0.000391874;0.000148206;-0.001936202;-0.00268318;0.363527119;-0.931577742
2024/05/03/13:36:48.223589;234296;1714768608;223297777;world;0.000331299;0.000391075;0.000148505;-0.001938863;-0.002690378;0.364204019;-0.931313276
