time;.header.seq;.header.stamp.secs;.header.stamp.nsecs;.header.frame_id;.pose.position.x;.pose.position.y;.pose.position.z;.pose.orientation.x;.pose.orientation.y;.pose.orientation.z;.pose.orientation.w
2024/05/03/14:04:47.386181;6442;1714770286;948619205;world;-1.01E-05;-6.90E-06;-8.68E-06;6.18E-05;2.95E-05;-1.84E-05;-1
2024/05/03/14:04:47.386202;6447;1714770286;948697747;world;-2.02E-05;-1.17E-05;-1.02E-05;0.000128745;5.07E-05;-5.04E-06;-1
2024/05/03/14:04:47.386204;6448;1714770286;948831526;world;-1.42E-05;-8.18E-06;-8.47E-06;4.65E-05;4.64E-07;-8.86E-06;-1
2024/05/03/14:04:47.386208;6450;1714770286;948846805;world;-1.32E-05;-1.58E-05;-1.53E-05;7.03E-05;1.53E-05;1.12E-05;-1
2024/05/03/14:04:47.386210;6451;1714770287;98654187;world;-1.71E-05;-2.50E-06;2.74E-06;0.000122078;4.47E-05;-1.46E-05;-1
2024/05/03/14:04:47.386213;6458;1714770287;98748049;world;-1.79E-05;-2.04E-05;-1.17E-05;9.04E-05;7.91E-05;1.21E-05;-1
2024/05/03/14:04:47.386214;6459;1714770287;98840427;world;-9.62E-06;-1.57E-05;-1.11E-05;7.80E-05;5.99E-05;-2.60E-05;-1
2024/05/03/14:04:47.386218;6460;1714770287;108657322;world;-1.04E-05;-7.65E-06;-6.05E-06;5.50E-05;2.30E-05;2.58E-06;-1
2024/05/03/14:04:47.386900;6461;1714770287;238725730;world;-1.47E-05;-2.26E-05;-8.07E-06;0.000101748;4.77E-05;-1.27E-05;-1
2024/05/03/14:04:47.386903;6467;1714770287;238810183;world;-1.01E-05;-7.03E-06;-1.31E-05;6.06E-05;4.48E-05;-4.61E-05;-1
2024/05/03/14:04:47.386908;6468;1714770287;238904886;world;-1.27E-05;8.50E-06;-2.10E-05;7.14E-05;1.03E-05;-1.36E-05;-1
2024/05/03/14:04:47.386918;6469;1714770287;249161903;world;-2.73E-05;-4.68E-06;-1.19E-06;0.000119902;5.57E-05;-5.99E-06;-1
2024/05/03/14:04:47.386920;6470;1714770287;378933695;world;-1.01E-05;-2.69E-06;-6.81E-06;7.91E-05;3.36E-05;-2.03E-05;-1
2024/05/03/14:04:47.386935;6476;1714770287;379019400;world;-1.77E-05;-9.43E-06;-2.55E-05;8.05E-05;3.28E-06;-2.19E-06;-1
2024/05/03/14:04:47.387314;6477;1714770287;379024941;world;-1.64E-05;2.61E-06;-6.50E-06;6.64E-05;3.61E-05;-3.27E-05;-1
2024/05/03/14:04:47.389210;6478;1714770287;388976075;world;-6.98E-06;6.89E-06;-7.42E-06;6.46E-05;3.49E-05;-8.86E-06;-1
2024/05/03/14:04:47.409324;6479;1714770287;408884657;world;-1.16E-05;-3.11E-06;-1.96E-05;6.59E-05;-1.65E-05;-1.74E-05;-1
2024/05/03/14:04:47.530070;6480;1714770287;529724239;world;-1.15E-05;-4.69E-06;-9.48E-06;7.57E-05;7.62E-06;5.44E-06;-1
2024/05/03/14:04:47.530095;6487;1714770287;529803031;world;-1.26E-05;-1.45E-05;-1.72E-05;4.94E-05;1.66E-05;2.17E-05;-1
2024/05/03/14:04:47.539038;6488;1714770287;538715219;world;-2.47E-05;-8.13E-06;-1.03E-05;5.34E-05;3.30E-05;-3.14E-06;-1
2024/05/03/14:04:47.669201;6489;1714770287;668720783;world;-1.34E-06;-4.78E-06;-6.91E-06;1.64E-06;8.04E-06;-1.84E-05;-1
2024/05/03/14:04:47.669228;6496;1714770287;668812380;world;-9.46E-06;-8.04E-06;1.76E-06;6.18E-05;2.69E-05;5.45E-06;-1
2024/05/03/14:04:47.769388;6497;1714770287;768934907;world;-2.23E-05;-1.28E-05;-1.68E-07;0.000139209;1.54E-05;3.41E-05;-1
2024/05/03/14:04:47.769416;6502;1714770287;769021684;world;-2.80E-05;-4.43E-05;6.35E-06;0.000166318;1.20E-05;-2.18E-06;-1
2024/05/03/14:04:47.779865;6503;1714770287;779368482;world;-2.01E-05;-5.60E-05;1.32E-05;0.00012856;1.16E-05;-2.70E-05;-1
2024/05/03/14:04:47.869157;6504;1714770287;868822411;world;-1.54E-05;-5.28E-05;2.45E-05;9.57E-05;9.00E-06;-4.51E-05;-1
2024/05/03/14:04:47.869163;6509;1714770287;868905050;world;-5.41E-06;-2.76E-05;2.92E-06;0.000130996;2.66E-05;-2.13E-05;-1
2024/05/03/14:04:47.969373;6510;1714770287;969049432;world;-5.68E-06;-2.07E-05;6.67E-06;0.000150483;1.03E-05;-6.95E-06;-1
2024/05/03/14:04:47.969379;6515;1714770287;969110119;world;-1.67E-05;-9.97E-06;-1.55E-05;6.82E-05;2.00E-05;-1.46E-05;-1
2024/05/03/14:04:47.979282;6516;1714770287;978545192;world;-2.00E-05;-2.02E-05;-4.56E-06;0.000100956;2.55E-05;1.98E-05;-1
2024/05/03/14:04:48.059364;6517;1714770288;58970838;world;-1.01E-05;-1.53E-05;6.66E-06;9.55E-05;4.56E-05;-2.98E-05;-1
2024/05/03/14:04:48.059397;6521;1714770288;59047336;world;-1.51E-05;-2.15E-05;1.05E-05;8.07E-05;2.29E-05;-3.94E-05;-1
2024/05/03/14:04:48.079149;6522;1714770288;78756785;world;4.78E-06;-1.76E-05;-2.71E-06;6.01E-05;3.83E-05;-3.94E-05;-1
2024/05/03/14:04:48.159250;6523;1714770288;158878169;world;2.60E-06;-7.50E-06;-1.29E-05;5.79E-05;5.33E-05;-1.84E-05;-1
2024/05/03/14:04:48.159278;6527;1714770288;158949707;world;-2.50E-05;-2.38E-05;-1.58E-05;1.20E-06;-1.81E-06;-4.09E-06;-1
2024/05/03/14:04:48.169274;6528;1714770288;169002849;world;-9.31E-06;-3.05E-05;-1.74E-06;9.41E-05;2.04E-05;-1.74E-05;-1
2024/05/03/14:04:48.288936;6529;1714770288;288571411;world;-1.56E-05;-1.76E-05;1.20E-05;0.000114142;9.05E-06;4.49E-06;-1
2024/05/03/14:04:48.288943;6535;1714770288;288655744;world;-2.75E-05;-6.49E-06;-4.52E-06;4.22E-05;4.98E-05;-2.51E-05;-1
2024/05/03/14:04:48.299007;6536;1714770288;298672999;world;-3.08E-05;-2.07E-05;-5.38E-06;9.44E-05;3.89E-05;-1.08E-05;-1
2024/05/03/14:04:48.309248;6537;1714770288;308857255;world;-1.44E-05;-2.48E-05;8.36E-08;6.40E-05;3.47E-05;-4.80E-05;-1
2024/05/03/14:04:48.410590;6538;1714770288;408970203;world;-1.97E-05;-4.13E-06;6.73E-06;4.04E-05;5.57E-05;-9.81E-06;-1
2024/05/03/14:04:48.410621;6541;1714770288;409040228;world;-2.65E-05;-2.75E-05;8.73E-06;7.29E-05;2.33E-05;-1.17E-05;-1
2024/05/03/14:04:48.419313;6542;1714770288;418691832;world;-1.02E-05;-3.24E-05;-2.02E-06;7.54E-05;6.61E-06;6.76E-07;-1
2024/05/03/14:04:48.419348;6543;1714770288;418732982;world;1.99E-07;-1.76E-05;-1.24E-07;5.04E-06;3.57E-05;-1.55E-05;-1
2024/05/03/14:04:48.429473;6544;1714770288;429075604;world;-2.17E-05;-1.11E-05;-9.03E-06;5.56E-05;4.04E-05;-5.04E-06;-1
2024/05/03/14:04:48.539279;6545;1714770288;538650075;world;-3.61E-06;-1.00E-06;4.45E-06;4.65E-05;-1.76E-07;-1.46E-05;-1
2024/05/03/14:04:48.539301;6550;1714770288;538737784;world;-1.36E-05;6.46E-06;1.17E-05;7.44E-05;3.11E-05;2.93E-05;-1
2024/05/03/14:04:48.539303;6551;1714770288;538855562;world;-8.27E-06;3.81E-06;-9.18E-06;6.11E-05;1.72E-05;2.58E-06;-1
2024/05/03/14:04:48.539306;6552;1714770288;538872084;world;-1.26E-05;-4.11E-06;-1.53E-05;7.30E-05;2.70E-05;-4.09E-06;-1
2024/05/03/14:04:48.669424;6553;1714770288;669035081;world;-6.81E-06;-1.18E-05;-1.03E-05;5.11E-05;-1.07E-05;1.63E-06;-1
2024/05/03/14:04:48.669450;6560;1714770288;669129974;world;-5.50E-06;-8.88E-06;-1.02E-05;3.18E-05;3.98E-05;-1.65E-05;-1
2024/05/03/14:04:48.790267;6561;1714770288;789868269;world;-2.15E-05;-6.51E-06;-2.54E-06;5.76E-05;4.25E-05;-2.89E-05;-1
2024/05/03/14:04:48.790297;6568;1714770288;789959234;world;4.92E-06;-1.27E-05;-1.61E-05;5.07E-05;-1.89E-05;-4.09E-06;-1
2024/05/03/14:04:48.980373;6569;1714770288;979073892;world;-9.00E-06;-1.29E-05;-1.32E-05;2.05E-05;1.96E-05;-2.19E-06;-1
2024/05/03/14:04:48.980398;6580;1714770288;979194004;world;6.07E-06;-4.98E-06;-1.18E-05;-2.88E-06;3.95E-05;-3.84E-05;-1
2024/05/03/14:04:48.999903;6581;1714770288;999022823;world;-1.29E-05;-3.84E-07;4.61E-07;0.000110236;2.57E-05;-6.00E-06;-1
2024/05/03/14:04:49.009113;6582;1714770289;8701777;world;-2.65E-06;-3.97E-06;-1.69E-05;6.01E-05;-4.43E-06;-1.36E-05;-1
2024/05/03/14:04:49.029567;6583;1714770289;29090481;world;-2.12E-06;-9.97E-06;3.46E-06;5.91E-05;3.09E-05;-1.46E-05;-1
2024/05/03/14:04:49.048948;6584;1714770289;48597806;world;6.48E-06;-3.73E-08;-6.36E-06;8.59E-05;2.60E-05;9.26E-06;-1
2024/05/03/14:04:49.059139;6585;1714770289;58841929;world;-9.43E-06;-9.37E-06;-1.83E-05;6.24E-05;3.66E-05;-1.84E-05;-1
2024/05/03/14:04:49.079391;6586;1714770289;79006202;world;-1.27E-05;-7.78E-06;-5.49E-06;7.83E-05;5.49E-05;-3.17E-05;-1
2024/05/03/14:04:49.098927;6587;1714770289;98529309;world;-9.51E-06;-5.80E-07;-8.15E-06;4.14E-05;6.00E-05;-3.65E-05;-1
2024/05/03/14:04:49.109074;6588;1714770289;108682423;world;-3.02E-06;5.27E-06;-1.80E-05;5.94E-06;1.49E-05;1.31E-05;-1
2024/05/03/14:04:49.129482;6589;1714770289;129030533;world;-6.84E-06;-7.00E-06;-1.88E-05;-1.12E-05;-1.66E-08;-1.84E-05;-1
2024/05/03/14:04:49.149322;6590;1714770289;148915168;world;-6.30E-06;-1.67E-05;-2.83E-05;9.08E-05;-1.50E-05;-1.55E-05;-1
2024/05/03/14:04:49.159457;6591;1714770289;159069475;world;-9.06E-06;-1.63E-06;-4.08E-06;4.68E-05;1.09E-05;-1.94E-05;-1
2024/05/03/14:04:49.169112;6592;1714770289;168623733;world;-6.34E-06;-1.00E-05;-2.47E-06;5.74E-05;1.70E-05;3.31E-05;-1
2024/05/03/14:04:49.189459;6593;1714770289;189000899;world;-4.94E-06;-9.77E-06;-2.14E-05;7.38E-05;1.14E-05;-3.17E-05;-1
2024/05/03/14:04:49.199178;6594;1714770289;198751557;world;-2.05E-05;-1.49E-05;-1.56E-05;0.000101079;8.73E-06;-7.91E-06;-1
2024/05/03/14:04:49.219510;6595;1714770289;219090638;world;-8.12E-06;-5.40E-06;-1.35E-05;7.53E-05;1.41E-05;-2.13E-05;-1
2024/05/03/14:04:49.230109;6596;1714770289;228997006;world;-8.85E-06;-1.21E-05;-6.27E-06;5.24E-05;6.95E-06;3.54E-06;-1
2024/05/03/14:04:49.249167;6597;1714770289;248742672;world;-1.41E-05;-1.22E-05;-4.78E-06;1.42E-05;-1.70E-07;-7.91E-06;-1
2024/05/03/14:04:49.269050;6598;1714770289;268708534;world;-1.69E-05;-8.66E-06;-2.19E-05;9.14E-05;2.70E-05;2.59E-06;-1
2024/05/03/14:04:49.279583;6599;1714770289;279095913;world;-8.11E-06;-4.42E-06;6.59E-07;5.69E-05;5.21E-05;-1.17E-05;-1
2024/05/03/14:04:49.299260;6600;1714770289;298861528;world;-1.42E-05;-4.45E-06;9.98E-06;6.10E-05;5.62E-05;-1.46E-05;-1
2024/05/03/14:04:49.309163;6601;1714770289;308697831;world;-4.35E-06;-1.68E-05;-1.77E-05;4.88E-05;-7.05E-06;-3.14E-06;-1
2024/05/03/14:04:49.339216;6602;1714770289;338809693;world;-1.10E-05;-1.53E-05;-1.55E-05;8.30E-05;2.85E-05;-1.93E-05;-1
2024/05/03/14:04:49.349522;6603;1714770289;349012475;world;-8.05E-06;-1.86E-06;-2.84E-06;8.63E-05;2.86E-05;-5.04E-06;-1
2024/05/03/14:04:49.359364;6604;1714770289;358874316;world;-1.04E-05;-9.60E-06;-6.06E-06;0.00012543;3.85E-05;-2.22E-05;-1
2024/05/03/14:04:49.380126;6605;1714770289;379644182;world;-1.94E-05;-1.80E-05;-9.88E-06;5.89E-05;1.10E-05;-1.17E-05;-1
2024/05/03/14:04:49.389439;6606;1714770289;388950932;world;-3.39E-06;-3.86E-06;-1.28E-05;2.41E-05;1.10E-05;-2.60E-05;-1
2024/05/03/14:04:49.409440;6607;1714770289;408990608;world;-1.56E-07;-2.47E-06;-1.83E-06;0.000104647;-2.78E-06;3.54E-06;-1
2024/05/03/14:04:49.419176;6608;1714770289;418750143;world;-8.77E-06;-1.30E-05;-5.91E-07;3.37E-05;3.90E-05;-4.13E-05;-1
2024/05/03/14:04:49.439217;6609;1714770289;438851145;world;6.33E-07;-1.52E-05;-2.24E-05;5.59E-05;3.50E-05;-4.41E-05;-1
2024/05/03/14:04:49.461006;6610;1714770289;459685115;world;-6.57E-06;-6.61E-06;-1.59E-05;5.44E-05;7.84E-06;1.50E-05;-1
2024/05/03/14:04:49.469001;6611;1714770289;468614126;world;-1.96E-05;4.95E-06;-9.12E-06;4.12E-05;1.10E-05;-2.70E-05;-1
2024/05/03/14:04:49.479321;6612;1714770289;478870420;world;9.27E-06;1.75E-06;2.72E-07;3.54E-06;8.56E-06;6.40E-06;-1
2024/05/03/14:04:49.499697;6613;1714770289;499247865;world;-1.10E-05;-9.77E-06;-1.36E-05;9.79E-05;2.50E-05;-3.37E-05;-1
2024/05/03/14:04:49.509652;6614;1714770289;509171069;world;-2.29E-05;-1.01E-05;-2.28E-05;6.49E-05;1.85E-05;9.26E-06;-1
2024/05/03/14:04:49.539814;6615;1714770289;538595303;world;-1.33E-05;-5.09E-06;-1.15E-05;0.000104538;2.31E-05;-2.76E-07;-1
2024/05/03/14:04:49.549525;6616;1714770289;549067495;world;-6.28E-06;-2.18E-06;-2.16E-06;3.81E-05;2.25E-05;-3.75E-05;-1
2024/05/03/14:04:49.559237;6617;1714770289;558582607;world;-1.57E-05;2.05E-06;2.89E-06;4.29E-05;5.19E-05;-2.98E-05;-1
2024/05/03/14:04:49.579162;6618;1714770289;578768646;world;-2.02E-06;-1.10E-05;-1.72E-05;3.34E-05;2.97E-05;2.58E-06;-1
2024/05/03/14:04:49.589351;6619;1714770289;588995141;world;-2.18E-05;1.11E-06;-1.33E-05;7.63E-05;2.01E-05;-1.74E-05;-1
2024/05/03/14:04:49.608915;6620;1714770289;608665668;world;-2.17E-05;-2.26E-05;-3.63E-06;0.000100277;6.50E-05;-4.89E-05;-1
2024/05/03/14:04:49.619287;6621;1714770289;618974424;world;-1.56E-05;-6.10E-06;4.72E-06;7.17E-05;4.08E-05;-1.93E-05;-1
2024/05/03/14:04:49.639114;6622;1714770289;638774621;world;-5.98E-06;5.18E-06;-2.04E-05;5.78E-05;-1.15E-05;-4.09E-06;-1
2024/05/03/14:04:49.658956;6623;1714770289;658615730;world;-2.07E-05;-1.50E-05;-1.11E-05;9.26E-05;-1.14E-06;3.54E-06;-1
2024/05/03/14:04:49.669240;6624;1714770289;668939784;world;-9.99E-06;-6.94E-06;-1.01E-05;4.95E-05;1.01E-05;-1.65E-05;-1
2024/05/03/14:04:49.689381;6625;1714770289;688973467;world;-9.17E-06;-1.20E-05;-1.05E-05;4.40E-05;-1.56E-05;-2.51E-05;-1
2024/05/03/14:04:49.699218;6626;1714770289;698841050;world;-1.24E-05;-6.42E-06;-3.16E-05;7.59E-05;6.09E-06;-1.17E-05;-1
2024/05/03/14:04:49.719002;6627;1714770289;718736276;world;-1.09E-06;8.67E-07;-2.34E-05;5.27E-05;4.82E-05;-2.98E-05;-1
2024/05/03/14:04:49.728878;6628;1714770289;728583060;world;-1.91E-05;-8.62E-06;-2.05E-06;5.50E-05;3.65E-05;-2.98E-05;-1
2024/05/03/14:04:49.749107;6629;1714770289;748728456;world;-1.92E-06;-5.91E-06;-6.60E-06;8.56E-05;3.87E-05;-1.27E-05;-1
2024/05/03/14:04:49.769165;6630;1714770289;768770115;world;-1.64E-05;-3.74E-06;-1.94E-05;8.25E-05;4.33E-05;-2.51E-05;-1
2024/05/03/14:04:49.779481;6631;1714770289;779199692;world;-1.92E-05;-2.35E-05;-1.26E-05;9.05E-05;-6.66E-06;1.31E-05;-1
2024/05/03/14:04:49.789047;6632;1714770289;788752559;world;-1.23E-05;-1.47E-05;-2.29E-05;5.71E-05;1.81E-05;-4.80E-05;-1
2024/05/03/14:04:49.810052;6633;1714770289;809290636;world;-1.42E-05;-4.83E-06;-1.90E-06;5.10E-05;5.10E-05;-1.08E-05;-1
2024/05/03/14:04:49.829420;6634;1714770289;828979442;world;-1.56E-05;-1.24E-05;-1.82E-05;3.75E-05;2.20E-05;-8.86E-06;-1
2024/05/03/14:04:49.849008;6635;1714770289;848626511;world;-1.53E-05;-1.53E-05;-2.94E-05;8.74E-05;-5.22E-06;-1.65E-05;-1
2024/05/03/14:04:49.869709;6636;1714770289;869015159;world;-1.46E-05;-1.49E-05;-1.33E-05;1.67E-05;2.84E-06;-3.84E-05;-1
2024/05/03/14:04:49.869744;6637;1714770289;869057140;world;-5.36E-06;-4.12E-06;-1.40E-05;2.04E-05;1.51E-05;-1.65E-05;-1
2024/05/03/14:04:49.889420;6638;1714770289;888842968;world;-9.76E-06;-2.24E-05;-2.03E-05;7.28E-05;4.55E-05;-1.27E-05;-1
2024/05/03/14:04:49.899636;6639;1714770289;899247078;world;-1.08E-05;-1.51E-05;-1.91E-05;8.35E-05;3.94E-05;-1.84E-05;-1
2024/05/03/14:04:49.919291;6640;1714770289;918868449;world;-1.39E-05;-6.89E-06;-6.21E-06;0.000112312;3.56E-05;-2.18E-06;-1
2024/05/03/14:04:49.940177;6641;1714770289;938725060;world;-1.09E-05;-3.86E-06;-3.91E-06;1.56E-05;1.60E-05;-1.27E-05;-1
2024/05/03/14:04:49.949865;6642;1714770289;949314357;world;-3.56E-06;-3.03E-06;-1.41E-05;5.77E-05;6.42E-05;-2.03E-05;-1
2024/05/03/14:04:49.968804;6643;1714770289;968562202;world;-2.31E-05;-1.50E-05;-2.34E-05;0.000113737;-3.53E-06;-3.08E-05;-1
2024/05/03/14:04:49.989573;6644;1714770289;989000897;world;-1.99E-05;-9.51E-06;-8.47E-06;8.75E-05;4.75E-06;-3.37E-05;-1
2024/05/03/14:04:49.999430;6645;1714770289;999019992;world;-3.43E-05;-6.53E-06;-4.84E-06;9.39E-05;4.42E-05;-1.74E-05;-1
2024/05/03/14:04:50.009105;6646;1714770290;8706176;world;-1.55E-05;-8.43E-06;-2.10E-05;9.79E-05;-9.09E-06;-2.22E-05;-1
2024/05/03/14:04:50.029427;6647;1714770290;29084140;world;-1.39E-05;-5.22E-08;-1.87E-05;7.77E-05;-8.61E-07;2.58E-06;-1
2024/05/03/14:04:50.059022;6648;1714770290;58717937;world;-4.13E-05;-2.88E-05;-1.92E-05;9.14E-05;1.27E-07;-1.08E-05;-1
2024/05/03/14:04:50.069617;6649;1714770290;69161491;world;-1.42E-05;-1.02E-05;-2.94E-05;7.85E-05;-1.73E-05;-3.65E-05;-1
2024/05/03/14:04:50.079073;6650;1714770290;78691622;world;-2.93E-05;-1.26E-05;-3.33E-05;5.61E-05;3.08E-05;-2.51E-05;-1
2024/05/03/14:04:50.089092;6651;1714770290;88809209;world;-2.70E-05;-2.58E-05;-2.11E-05;5.62E-05;2.58E-05;1.02E-05;-1
2024/05/03/14:04:50.109292;6652;1714770290;108817262;world;-1.82E-05;-4.14E-05;-2.33E-05;9.82E-05;-2.60E-05;6.40E-06;-1
2024/05/03/14:04:50.118808;6653;1714770290;118612316;world;-2.93E-05;-1.39E-05;-1.67E-05;5.10E-05;-1.54E-05;1.63E-06;-1
2024/05/03/14:04:50.139409;6654;1714770290;138898057;world;-1.85E-05;5.56E-06;-1.68E-05;6.96E-05;2.02E-05;-2.98E-05;-1
2024/05/03/14:04:50.158979;6655;1714770290;158601372;world;-9.42E-06;-2.31E-05;-3.01E-05;5.29E-05;-2.29E-05;-1.94E-05;-1
2024/05/03/14:04:50.169286;6656;1714770290;168739288;world;-2.76E-05;-1.92E-05;-1.16E-05;1.38E-05;-8.49E-06;-1.27E-05;-1
2024/05/03/14:04:50.189097;6657;1714770290;188760537;world;-9.28E-06;-1.43E-05;-2.07E-05;1.34E-05;-1.26E-05;-2.98E-05;-1
2024/05/03/14:04:50.199438;6658;1714770290;199048303;world;-1.96E-05;-3.82E-06;-2.20E-05;4.12E-05;-9.70E-06;-1.84E-05;-1
2024/05/03/14:04:50.219234;6659;1714770290;218984709;world;-3.21E-05;-1.50E-05;-2.18E-05;6.46E-05;-4.73E-05;-7.91E-06;-1
2024/05/03/14:04:50.239058;6660;1714770290;238669458;world;-7.23E-06;-1.90E-05;-2.75E-05;2.22E-05;-2.16E-05;-3.46E-05;-1
2024/05/03/14:04:50.259186;6661;1714770290;258959126;world;-1.85E-05;1.13E-06;-1.54E-05;3.57E-05;-2.03E-05;5.44E-06;-1
2024/05/03/14:04:50.269665;6662;1714770290;269405968;world;-9.23E-06;-9.12E-06;-2.63E-05;3.53E-05;-4.26E-06;-2.22E-05;-1
2024/05/03/14:04:50.279618;6663;1714770290;279260787;world;9.40E-06;-1.68E-05;-2.29E-05;-1.97E-05;-1.64E-05;-4.51E-05;-1
2024/05/03/14:04:50.300562;6664;1714770290;299933195;world;-1.54E-05;-2.41E-05;-2.86E-05;-2.50E-05;-2.89E-06;-2.22E-05;-1
2024/05/03/14:04:50.308971;6665;1714770290;308586173;world;-1.40E-05;-1.74E-05;-2.89E-05;1.96E-05;1.90E-06;7.35E-06;-1
2024/05/03/14:04:50.329622;6666;1714770290;328999424;world;-2.03E-05;-3.53E-05;-2.57E-05;0.000100273;8.24E-07;-2.78E-07;-1
2024/05/03/14:04:50.348918;6667;1714770290;348671162;world;-4.11E-05;-6.20E-05;-1.15E-05;7.40E-05;5.28E-05;1.63E-06;-1
2024/05/03/14:04:50.359005;6668;1714770290;358669219;world;3.45E-05;-5.99E-05;-1.64E-05;7.27E-05;7.81E-05;-4.51E-05;-1
2024/05/03/14:04:50.379315;6669;1714770290;378908219;world;0.000495179;-5.56E-05;1.80E-06;0.000234392;0.000116183;0.00011419;-1
2024/05/03/14:04:50.389113;6670;1714770290;388868943;world;0.001624784;-3.90E-05;4.65E-06;8.84E-05;0.000137269;0.000616761;-0.999999881
2024/05/03/14:04:50.399351;6671;1714770290;398985268;world;0.003207812;-0.000107164;4.60E-06;0.000291089;0.000137818;0.001788854;-0.999998331
2024/05/03/14:04:50.419322;6672;1714770290;418989855;world;0.00484381;-0.000195144;-3.00E-05;0.00058066;1.53E-06;0.002710061;-0.999996185
2024/05/03/14:04:50.439289;6673;1714770290;438989142;world;0.006501785;-0.000264492;-7.63E-05;0.000219219;0.000256307;0.003590354;-0.999993563
2024/05/03/14:04:50.469508;6674;1714770290;469205136;world;0.008284325;-0.00014248;6.21E-05;0.000300532;2.09E-05;0.005153361;-0.999986649
2024/05/03/14:04:50.479172;6675;1714770290;478896140;world;0.010029865;-0.000189976;4.36E-05;0.000381232;-5.40E-05;0.006289142;-0.999980211
2024/05/03/14:04:50.479186;6676;1714770290;478931027;world;0.010904607;-0.00024886;4.43E-05;0.000188555;-0.000122509;0.006842259;-0.999976635
2024/05/03/14:04:50.499805;6677;1714770290;499500615;world;0.012737098;-0.000357465;2.52E-05;0.000309258;-0.000252576;0.007959879;-0.99996829
2024/05/03/14:04:50.509218;6678;1714770290;508916036;world;0.014550745;-0.00033038;0.000143934;0.000137288;-0.000313419;0.009285471;-0.999956846
2024/05/03/14:04:50.530025;6679;1714770290;529696894;world;0.017267754;-0.000462209;7.02E-05;8.93E-06;-0.000379521;0.010713092;-0.999942541
2024/05/03/14:04:50.549044;6680;1714770290;548705006;world;0.018141598;-0.000522963;0.000125877;0.000119986;-0.000439976;0.011588463;-0.999932766
2024/05/03/14:04:50.569388;6681;1714770290;569014250;world;0.019932181;-0.000569421;0.000156458;-9.12E-05;-0.000551638;0.012754825;-0.99991858
2024/05/03/14:04:50.579120;6682;1714770290;578726192;world;0.021616854;-0.000587687;0.000167093;-0.000120121;-0.000535857;0.014045043;-0.999901295
2024/05/03/14:04:50.589121;6683;1714770290;588745048;world;0.023308888;-0.000682214;0.000126095;-0.000228815;-0.000597693;0.015379161;-0.999881625
2024/05/03/14:04:50.609081;6684;1714770290;608745317;world;0.024856044;-0.000748467;0.000168625;-0.000273023;-0.000756349;0.016838161;-0.999857903
2024/05/03/14:04:50.629274;6685;1714770290;629030265;world;0.026432712;-0.000804496;0.000127593;-0.000422281;-0.000696993;0.017870925;-0.999840021
2024/05/03/14:04:50.639101;6686;1714770290;638747897;world;0.027167082;-0.000796623;0.000144923;-0.000587645;-0.000684666;0.018291527;-0.999832392
2024/05/03/14:04:50.669438;6687;1714770290;668964794;world;0.028634381;-0.000832785;0.000120476;-0.000473003;-0.000638961;0.01943182;-0.999810874
2024/05/03/14:04:50.669467;6688;1714770290;669018208;world;0.029883556;-0.000869834;0.00017864;-0.000663005;-0.000833895;0.020922353;-0.999780595
2024/05/03/14:04:50.689355;6689;1714770290;689038326;world;0.031030595;-0.000936784;0.000198859;-0.000699103;-0.000708668;0.022103623;-0.999755204
2024/05/03/14:04:50.699210;6690;1714770290;698858608;world;0.032033585;-0.000967014;0.000229231;-0.000348559;-0.000701533;0.023098771;-0.999732912
2024/05/03/14:04:50.719139;6691;1714770290;718837836;world;0.033060312;-0.00102944;0.000218891;-0.000344081;-0.000530588;0.024030186;-0.999711096
2024/05/03/14:04:50.739033;6692;1714770290;738720638;world;0.033996813;-0.001082775;0.00022519;-0.000299324;-0.000566316;0.02508557;-0.999685168
2024/05/03/14:04:50.749046;6693;1714770290;748743120;world;0.034417484;-0.001102884;0.000249713;-0.000458834;-0.000556396;0.025630977;-0.999671221
2024/05/03/14:04:50.769024;6694;1714770290;768688174;world;0.035274096;-0.001163345;0.000231767;-0.000435856;-0.000872154;0.026834236;-0.999639511
2024/05/03/14:04:50.789085;6695;1714770290;788761583;world;0.036324922;-0.001155199;0.000274332;-0.000653107;-0.000857572;0.028107075;-0.999604404
2024/05/03/14:04:50.799510;6696;1714770290;799068494;world;0.036640674;-0.001203003;0.000289948;-0.000466127;-0.000741654;0.028529175;-0.999592602
2024/05/03/14:04:50.809002;6697;1714770290;808649383;world;0.037238684;-0.00120365;0.0002909;-0.000396701;-0.000732098;0.029511955;-0.999564111
2024/05/03/14:04:50.829469;6698;1714770290;828962376;world;0.0378015;-0.001215467;0.000342061;-0.000452274;-0.000861035;0.030218406;-0.999542832
2024/05/03/14:04:50.838847;6699;1714770290;838501434;world;0.038382016;-0.00122318;0.000364917;-0.000486175;-0.000879259;0.030992463;-0.99951911
2024/05/03/14:04:50.859280;6700;1714770290;858925888;world;0.0389193;-0.00122355;0.000348839;-0.000566145;-0.000950196;0.031754185;-0.999495149
2024/05/03/14:04:50.869205;6701;1714770290;868841807;world;0.039200447;-0.001201609;0.000387453;-0.000787221;-0.000762441;0.032192688;-0.999481142
2024/05/03/14:04:50.889370;6702;1714770290;888916078;world;0.039958034;-0.001321849;0.000351433;-0.000799751;-0.000917999;0.033440519;-0.999440014
2024/05/03/14:04:50.909280;6703;1714770290;908858776;world;0.040204883;-0.0012926;0.000353888;-0.000932513;-0.00102203;0.033770513;-0.999428689
2024/05/03/14:04:50.919486;6704;1714770290;919066315;world;0.040586565;-0.001359167;0.00031203;-0.00075996;-0.001289571;0.034439646;-0.999405742
2024/05/03/14:04:50.929137;6705;1714770290;928800352;world;0.041029677;-0.001354902;0.000322291;-0.000778898;-0.001225192;0.034993373;-0.999386549
2024/05/03/14:04:50.949126;6706;1714770290;948771314;world;0.041447096;-0.001339043;0.000327441;-0.000815303;-0.001174924;0.035609059;-0.999364793
2024/05/03/14:04:50.979198;6707;1714770290;978887494;world;0.041842356;-0.001375585;0.000291979;-0.000727014;-0.001195739;0.036221802;-0.999342859
2024/05/03/14:04:50.988997;6708;1714770290;988720151;world;0.042044297;-0.001416351;0.000297765;-0.000732126;-0.001211219;0.036547754;-0.999330878
2024/05/03/14:04:50.999627;6709;1714770290;999340955;world;0.042652506;-0.001461243;0.000307792;-0.000612253;-0.001176116;0.037471078;-0.999296904
2024/05/03/14:04:51.009381;6710;1714770291;8960107;world;0.042879608;-0.00149805;0.000303247;-0.00079349;-0.001216173;0.037807714;-0.999283969
2024/05/03/14:04:51.029141;6711;1714770291;28695616;world;0.04336651;-0.001524556;0.000312168;-0.000829547;-0.001111312;0.038517635;-0.999257028
2024/05/03/14:04:51.049448;6712;1714770291;48918851;world;0.04393981;-0.001614019;0.000290363;-0.000987288;-0.0012596;0.039266005;-0.999227524
2024/05/03/14:04:51.058897;6713;1714770291;58611075;world;0.044428974;-0.001693531;0.000282381;-0.00102481;-0.001315234;0.039891228;-0.999202669
2024/05/03/14:04:51.079227;6714;1714770291;78876898;world;0.044929288;-0.00172923;0.000301363;-0.000876873;-0.00122582;0.040510356;-0.999177992
2024/05/03/14:04:51.099106;6715;1714770291;98730772;world;0.045462281;-0.001774646;0.000288427;-0.000754334;-0.00113249;0.041139051;-0.999152541
2024/05/03/14:04:51.109064;6716;1714770291;108750937;world;0.045737661;-0.001795054;0.000296972;-0.000627197;-0.001055738;0.041426629;-0.999140859
2024/05/03/14:04:51.129359;6717;1714770291;128841925;world;0.046544556;-0.001860022;0.000305977;-0.000598763;-0.001116863;0.042267997;-0.999105513
2024/05/03/14:04:51.139267;6718;1714770291;138951006;world;0.046818376;-0.001890221;0.000324857;-0.00059379;-0.001063544;0.042505205;-0.999095559
2024/05/03/14:04:51.159645;6719;1714770291;158888553;world;0.047366925;-0.001914375;0.000299692;-0.000357735;-0.001040639;0.043150961;-0.999067962
2024/05/03/14:04:51.179051;6720;1714770291;178653068;world;0.047987677;-0.001976667;0.00032086;-0.000459705;-0.001063285;0.043776095;-0.999040782
2024/05/03/14:04:51.199207;6721;1714770291;198755894;world;0.048648778;-0.002044953;0.000324152;-0.000640116;-0.001178202;0.044426117;-0.999011755
2024/05/03/14:04:51.199238;6722;1714770291;198804318;world;0.049361639;-0.002195563;0.000301979;-0.000664332;-0.001164119;0.045167349;-0.998978615
2024/05/03/14:04:51.219076;6723;1714770291;218751564;world;0.049625564;-0.002245931;0.00030138;-0.000421823;-0.00108669;0.045503356;-0.998963594
2024/05/03/14:04:51.229232;6724;1714770291;228679244;world;0.050264418;-0.002284491;0.000304109;-0.000438617;-0.000984662;0.046193052;-0.998931944
2024/05/03/14:04:51.249212;6725;1714770291;248901059;world;0.050901163;-0.00225202;0.000363624;-0.000332265;-0.001048049;0.046971284;-0.998895645
2024/05/03/14:04:51.259083;6726;1714770291;258730074;world;0.051524214;-0.002242969;0.000424578;-0.000322522;-0.001332439;0.047655348;-0.998862982
2024/05/03/14:04:51.278938;6727;1714770291;278640784;world;0.052220929;-0.002263731;0.000437351;-0.000440696;-0.001289462;0.048322272;-0.998830855
2024/05/03/14:04:51.299308;6728;1714770291;298909642;world;0.052915283;-0.002342081;0.000452821;-0.000412222;-0.001235167;0.048962332;-0.998799801
2024/05/03/14:04:51.309091;6729;1714770291;308770784;world;0.053647533;-0.002457587;0.000409999;-7.84E-05;-0.001037188;0.049435321;-0.998776853
2024/05/03/14:04:51.329025;6730;1714770291;328775871;world;0.054383542;-0.002451785;0.000466804;-0.000141556;-0.001202796;0.050278362;-0.998734534
2024/05/03/14:04:51.339367;6731;1714770291;339071532;world;0.055201199;-0.002475651;0.000483582;-0.000293074;-0.001482802;0.051031075;-0.99869591
2024/05/03/14:04:51.359042;6732;1714770291;358805112;world;0.055546425;-0.002554234;0.000420251;-0.000284272;-0.001503193;0.051226318;-0.998685896
2024/05/03/14:04:51.389077;6733;1714770291;388635426;world;0.056244589;-0.002615149;0.000424528;-0.000212733;-0.00151102;0.051852908;-0.99865365
2024/05/03/14:04:51.399284;6734;1714770291;398999088;world;0.056939766;-0.002689051;0.000409571;-0.00031078;-0.00163786;0.052371185;-0.998626351
2024/05/03/14:04:51.409623;6735;1714770291;408821714;world;0.057692483;-0.002803224;0.000358392;-0.000220916;-0.001633765;0.05293199;-0.998596847
2024/05/03/14:04:51.419351;6736;1714770291;418927558;world;0.05837407;-0.002877105;0.000354447;-0.000162235;-0.001584771;0.053626113;-0.998559892
2024/05/03/14:04:51.439104;6737;1714770291;438764492;world;0.05901663;-0.002944939;0.000375753;8.33E-05;-0.001564721;0.054478992;-0.998513758
2024/05/03/14:04:51.449513;6738;1714770291;449109756;world;0.059718937;-0.003057468;0.000342767;0.000264407;-0.001413048;0.055088148;-0.998480499
2024/05/03/14:04:51.468985;6739;1714770291;468688512;world;0.060503364;-0.003054471;0.000437107;0.000122061;-0.001852855;0.055910107;-0.998434126
2024/05/03/14:04:51.489180;6740;1714770291;488751292;world;0.061226644;-0.003172098;0.000438779;-4.55E-05;-0.001830933;0.056497883;-0.998401105
2024/05/03/14:04:51.509576;6741;1714770291;509126215;world;0.061970733;-0.003228527;0.000437893;-0.000188776;-0.001748832;0.05705227;-0.998369634
2024/05/03/14:04:51.509586;6742;1714770291;509165531;world;0.062316991;-0.003272704;0.000426153;-0.000200361;-0.001701015;0.057404555;-0.998349547
2024/05/03/14:04:51.528918;6743;1714770291;528693587;world;0.063009843;-0.003361954;0.000445612;-0.000285184;-0.001802315;0.057949338;-0.998317957
2024/05/03/14:04:51.549421;6744;1714770291;548921265;world;0.063701071;-0.003506523;0.000416926;-0.000194634;-0.001673625;0.058561303;-0.998282433
2024/05/03/14:04:51.558898;6745;1714770291;558624792;world;0.06445995;-0.003593459;0.000426255;-0.000418108;-0.001817434;0.059335738;-0.998236418
2024/05/03/14:04:51.589295;6746;1714770291;589064964;world;0.065227158;-0.00366529;0.000438341;-0.000318472;-0.001893402;0.060094319;-0.998190939
2024/05/03/14:04:51.609359;6747;1714770291;609089825;world;0.065970987;-0.003733262;0.00043218;-0.000356167;-0.002006932;0.060752224;-0.998150885
2024/05/03/14:04:51.609386;6748;1714770291;609138820;world;0.066713676;-0.003738147;0.000436702;-0.000671935;-0.002052384;0.061475337;-0.998106241
2024/05/03/14:04:51.629340;6749;1714770291;629016511;world;0.067335233;-0.003795551;0.000434689;-0.000350245;-0.002114141;0.062033478;-0.99807179
2024/05/03/14:04:51.638889;6750;1714770291;638641336;world;0.067682177;-0.003847491;0.00043165;-0.000359924;-0.002062809;0.062279049;-0.998056591
2024/05/03/14:04:51.659062;6751;1714770291;658734114;world;0.068348192;-0.003952635;0.000409199;-0.000104248;-0.00197056;0.062811531;-0.99802351
2024/05/03/14:04:51.669148;6752;1714770291;668806770;world;0.069003314;-0.004049806;0.00040702;-6.21E-05;-0.002004551;0.063359685;-0.99798882
2024/05/03/14:04:51.690175;6753;1714770291;689789190;world;0.06973511;-0.004206456;0.0003738;-0.000241362;-0.002051784;0.064094789;-0.997941673
2024/05/03/14:04:51.708926;6754;1714770291;708690744;world;0.070398621;-0.004298138;0.000355362;-0.000185277;-0.002114662;0.064754233;-0.997899055
2024/05/03/14:04:51.718941;6755;1714770291;718690803;world;0.071121529;-0.004300375;0.000441305;-0.000441359;-0.002288039;0.065638937;-0.997840762
2024/05/03/14:04:51.728827;6756;1714770291;728478023;world;0.071480691;-0.004350793;0.000417576;-0.000603362;-0.002246673;0.065967545;-0.997819066
2024/05/03/14:04:51.749423;6757;1714770291;749112036;world;0.072354265;-0.004453707;0.000421309;-0.00040102;-0.002162427;0.066871054;-0.997759223
2024/05/03/14:04:51.759316;6758;1714770291;759001251;world;0.072665446;-0.004502898;0.000433156;-0.000390994;-0.002046791;0.067199253;-0.997737408
2024/05/03/14:04:51.779319;6759;1714770291;778938164;world;0.073269084;-0.004604018;0.000408845;-0.000342228;-0.002109826;0.067900449;-0.997689843
2024/05/03/14:04:51.799277;6760;1714770291;798971622;world;0.073883437;-0.004687883;0.000418529;-6.81E-05;-0.00199236;0.068426028;-0.997654259
2024/05/03/14:04:51.809001;6761;1714770291;808688610;world;0.074449122;-0.004735177;0.000449298;6.27E-05;-0.002172398;0.069183104;-0.997601688
2024/05/03/14:04:51.828984;6762;1714770291;828649659;world;0.075077631;-0.00486516;0.000447919;0.000261796;-0.001972968;0.069905728;-0.99755162
2024/05/03/14:04:51.838988;6763;1714770291;838691428;world;0.075811446;-0.004924892;0.000491553;0.000101469;-0.00212665;0.070588149;-0.99750334
2024/05/03/14:04:51.859492;6764;1714770291;858876150;world;0.076127686;-0.004961872;0.000503953;0.000186625;-0.002258479;0.070979901;-0.997475207
2024/05/03/14:04:51.869435;6765;1714770291;868780689;world;0.076712519;-0.005019187;0.000500388;0.000369789;-0.002261425;0.071688153;-0.997424483
2024/05/03/14:04:51.898965;6766;1714770291;898609928;world;0.077312954;-0.005062795;0.000497265;0.000494833;-0.002220797;0.072200581;-0.997387588
2024/05/03/14:04:51.919435;6767;1714770291;919094538;world;0.07821963;-0.005204611;0.000498992;0.000565226;-0.00219536;0.073055521;-0.997325301
2024/05/03/14:04:51.919618;6768;1714770291;919144725;world;0.078535117;-0.005260045;0.000482995;0.000531116;-0.002160015;0.073360927;-0.997303009
2024/05/03/14:04:51.939406;6769;1714770291;939102261;world;0.079155222;-0.005352076;0.000483663;0.000515579;-0.002091968;0.073958255;-0.997259021
2024/05/03/14:04:51.949075;6770;1714770291;948696696;world;0.079794534;-0.005475796;0.00050245;0.000460133;-0.002049568;0.074687853;-0.99720484
2024/05/03/14:04:51.969617;6771;1714770291;969099859;world;0.080451444;-0.005612739;0.000471212;0.000438237;-0.001854495;0.075226195;-0.997164667
2024/05/03/14:04:51.989175;6772;1714770291;988864252;world;0.081209131;-0.005633092;0.000535487;4.60E-05;-0.002208336;0.075980127;-0.997106969
2024/05/03/14:04:51.999421;6773;1714770291;998670066;world;0.081529647;-0.005660255;0.00053353;-5.35E-05;-0.002243913;0.076376878;-0.997076511
2024/05/03/14:04:52.019002;6774;1714770292;18634461;world;0.082183607;-0.005771233;0.000548091;8.38E-05;-0.002221087;0.077014625;-0.997027576
2024/05/03/14:04:52.029044;6775;1714770292;28752574;world;0.082840845;-0.005894205;0.000534313;9.02E-05;-0.00222899;0.077608868;-0.996981442
2024/05/03/14:04:52.049760;6776;1714770292;49520771;world;0.08342915;-0.005965245;0.000544981;0.000216426;-0.002169622;0.078171432;-0.996937633
2024/05/03/14:04:52.059088;6777;1714770292;58768331;world;0.084021166;-0.006073835;0.000521844;0.000240024;-0.00218136;0.078834049;-0.996885359
2024/05/03/14:04:52.079219;6778;1714770292;78878313;world;0.084655441;-0.00620553;0.00053729;0.000250786;-0.002234611;0.079555586;-0.9968279
2024/05/03/14:04:52.099123;6779;1714770292;98768207;world;0.085296229;-0.006343269;0.000502877;0.000176625;-0.002145546;0.080090024;-0.996785402
2024/05/03/14:04:52.119129;6780;1714770292;118727357;world;0.085616961;-0.006398335;0.000495247;0.000197204;-0.002195499;0.080439791;-0.99675709
2024/05/03/14:04:52.119150;6781;1714770292;118766562;world;0.086427703;-0.006486092;0.00048014;-0.000304545;-0.002616316;0.081200562;-0.996694326
2024/05/03/14:04:52.139673;6782;1714770292;139346391;world;0.087024204;-0.006622655;0.00046454;1.13E-05;-0.002676905;0.081776731;-0.99664706
2024/05/03/14:04:52.149097;6783;1714770292;148643512;world;0.087641589;-0.006711922;0.000511038;0.000130295;-0.002636038;0.082441747;-0.996592462
2024/05/03/14:04:52.169004;6784;1714770292;168688126;world;0.08827088;-0.006782275;0.000536749;0.000227952;-0.00260537;0.08312387;-0.996535778
2024/05/03/14:04:52.188906;6785;1714770292;188586269;world;0.088876411;-0.006883726;0.000535101;0.000378711;-0.002580551;0.083753549;-0.996483088
2024/05/03/14:04:52.209055;6786;1714770292;208830529;world;0.089490823;-0.00697518;0.000538913;0.000526962;-0.00262685;0.084370859;-0.996430874
2024/05/03/14:04:52.219077;6787;1714770292;218790872;world;0.090187639;-0.007091734;0.000515701;0.000470164;-0.002476899;0.084994406;-0.996378243
2024/05/03/14:04:52.229565;6788;1714770292;228661401;world;0.090538077;-0.007183409;0.000547635;0.00035806;-0.002352004;0.085368134;-0.996346653
2024/05/03/14:04:52.248896;6789;1714770292;248584982;world;0.091261834;-0.007255739;0.000627987;0.000216862;-0.002576527;0.086140975;-0.996279657
2024/05/03/14:04:52.259124;6790;1714770292;258864851;world;0.091948785;-0.007373977;0.000591828;0.000145067;-0.002418835;0.086692199;-0.996232212
2024/05/03/14:04:52.279166;6791;1714770292;278854289;world;0.09256085;-0.007487782;0.000626266;0.000383306;-0.002440967;0.087403208;-0.996169984
2024/05/03/14:04:52.308970;6792;1714770292;308612861;world;0.09322127;-0.007621855;0.000586065;0.000368289;-0.00219888;0.087947644;-0.996122658
2024/05/03/14:04:52.329089;6793;1714770292;328838703;world;0.093974873;-0.007781045;0.000521802;0.00014334;-0.002203616;0.088418357;-0.996081054
2024/05/03/14:04:52.339113;6794;1714770292;338812101;world;0.094543532;-0.007840285;0.000596246;6.27E-05;-0.002308534;0.089178473;-0.996013045
2024/05/03/14:04:52.339137;6795;1714770292;338844063;world;0.094882302;-0.007904779;0.000602748;1.15E-08;-0.002245906;0.089559503;-0.995978951
2024/05/03/14:04:52.359030;6796;1714770292;358645960;world;0.095575251;-0.008051432;0.000586111;-5.35E-05;-0.002309266;0.090173222;-0.9959234
2024/05/03/14:04:52.369434;6797;1714770292;369027464;world;0.096225895;-0.008116299;0.000624035;-8.50E-06;-0.002395629;0.090907298;-0.995856464
2024/05/03/14:04:52.389169;6798;1714770292;388750809;world;0.09685839;-0.008224936;0.000621383;0.000149253;-0.002332498;0.09155748;-0.995797038
2024/05/03/14:04:52.409181;6799;1714770292;408861130;world;0.097444147;-0.00832345;0.000636057;0.000284359;-0.002278005;0.09213645;-0.995743811
2024/05/03/14:04:52.428938;6800;1714770292;428566791;world;0.098117247;-0.008444213;0.000625659;0.000370174;-0.002388555;0.09255214;-0.995704949
2024/05/03/14:04:52.439102;6801;1714770292;438799870;world;0.098825738;-0.008573791;0.000614059;0.000337295;-0.002521605;0.093110569;-0.995652556
2024/05/03/14:04:52.448909;6802;1714770292;448632405;world;0.099589802;-0.008709959;0.000516319;8.97E-05;-0.002490888;0.09332481;-0.995632589
2024/05/03/14:04:52.469355;6803;1714770292;469028499;world;0.100311831;-0.00887944;0.000497369;-0.000136949;-0.002407347;0.094227344;-0.995547771
2024/05/03/14:04:52.489186;6804;1714770292;488722999;world;0.100790307;-0.009014402;0.000454707;0.000415761;-0.002520768;0.094720639;-0.995500624
2024/05/03/14:04:52.498901;6805;1714770292;498575041;world;0.101020895;-0.009073881;0.000574144;0.000341781;-0.002253583;0.09538921;-0.995437443
2024/05/03/14:04:52.509162;6806;1714770292;508810211;world;0.10170567;-0.009185011;0.000625431;0.000364617;-0.002546197;0.096271031;-0.995351911
2024/05/03/14:04:52.538992;6807;1714770292;538680933;world;0.102344535;-0.009329895;0.000630806;0.000299287;-0.002544057;0.096887216;-0.995292068
2024/05/03/14:04:52.549134;6808;1714770292;548770867;world;0.103057168;-0.009464564;0.000649748;7.02E-05;-0.0025104;0.09745159;-0.995237112
2024/05/03/14:04:52.558975;6809;1714770292;558553275;world;0.103742175;-0.009594698;0.000677167;8.16E-06;-0.002427055;0.097953811;-0.995187998
2024/05/03/14:04:52.579279;6810;1714770292;578873954;world;0.104311861;-0.009746757;0.000658122;0.000234134;-0.00256307;0.098681211;-0.995115757
2024/05/03/14:04:52.589174;6811;1714770292;588849555;world;0.104980804;-0.009888371;0.000642225;0.000207281;-0.002622514;0.099364541;-0.995047688
2024/05/03/14:04:52.619446;6812;1714770292;619068518;world;0.105259173;-0.009977344;0.000580088;0.000620348;-0.00298162;0.099784642;-0.995004475
2024/05/03/14:04:52.639582;6813;1714770292;638871115;world;0.105879262;-0.010126336;0.000635727;0.000500045;-0.002474777;0.100485407;-0.994935334
2024/05/03/14:04:52.639613;6814;1714770292;638916012;world;0.106673412;-0.010148713;0.000638855;0.000302899;-0.002824981;0.10109219;-0.994872987
2024/05/03/14:04:52.659004;6815;1714770292;658631400;world;0.107361943;-0.01025253;0.000636629;8.89E-05;-0.002846245;0.101627909;-0.994818389
2024/05/03/14:04:52.669232;6816;1714770292;668896031;world;0.107974887;-0.010345276;0.000642808;0.000144778;-0.002830464;0.1021543;-0.994764566
2024/05/03/14:04:52.688794;6817;1714770292;688535552;world;0.108647466;-0.010478706;0.0006473;3.40E-05;-0.002819781;0.102653593;-0.994713247
2024/05/03/14:04:52.699095;6818;1714770292;698777819;world;0.109325811;-0.010623389;0.000651355;-0.00014372;-0.002679056;0.103260167;-0.994650781
2024/05/03/14:04:52.719241;6819;1714770292;718930516;world;0.109999783;-0.010771437;0.000685904;6.85E-05;-0.002572455;0.104181595;-0.994554996
2024/05/03/14:04:52.739413;6820;1714770292;738830170;world;0.110662319;-0.010897368;0.000737928;0.00011671;-0.002455334;0.104880445;-0.994481802
2024/05/03/14:04:52.748788;6821;1714770292;748496265;world;0.111298896;-0.011065591;0.000741266;0.000122708;-0.002483089;0.105511129;-0.994415045
2024/05/03/14:04:52.769758;6822;1714770292;769046205;world;0.11189118;-0.011187317;0.000830911;-5.85E-06;-0.002820558;0.106123179;-0.994349062
2024/05/03/14:04:52.779250;6823;1714770292;778829722;world;0.112049118;-0.011301943;0.000862201;0.000493669;-0.002878282;0.106451765;-0.994313598
2024/05/03/14:04:52.799374;6824;1714770292;798981418;world;0.112636149;-0.011389553;0.000855628;0.000937583;-0.002561241;0.107227206;-0.994230866
2024/05/03/14:04:52.819323;6825;1714770292;819023949;world;0.113387227;-0.011521989;0.00082713;0.000578796;-0.002544826;0.107813217;-0.994167805
2024/05/03/14:04:52.839206;6826;1714770292;838834072;world;0.114006862;-0.011601355;0.000822666;0.000598423;-0.002385754;0.108557448;-0.9940871
2024/05/03/14:04:52.839235;6827;1714770292;838888447;world;0.114548109;-0.011619748;0.000826135;0.001258573;-0.002175716;0.109549433;-0.993978262
2024/05/03/14:04:52.859002;6828;1714770292;858654092;world;0.114863709;-0.011681375;0.000851627;0.001244933;-0.002314667;0.109887719;-0.993940592
2024/05/03/14:04:52.868952;6829;1714770292;868633531;world;0.115510449;-0.011863515;0.000824827;0.00110484;-0.00239146;0.110299423;-0.993894994
2024/05/03/14:04:52.889229;6830;1714770292;888889103;world;0.116769344;-0.012210046;0.000807331;9.27E-05;-0.002975806;0.11096365;-0.993820012
2024/05/03/14:04:52.899253;6831;1714770292;898760563;world;0.117074251;-0.012274196;0.000824896;3.06E-05;-0.002937824;0.11125952;-0.99378705
2024/05/03/14:04:52.919089;6832;1714770292;918739433;world;0.117604904;-0.012479189;0.000901521;0.000276544;-0.002873709;0.111946844;-0.993710041
2024/05/03/14:04:52.949308;6833;1714770292;948789938;world;0.11818745;-0.012652431;0.000884463;0.000578873;-0.002651907;0.112652972;-0.993630707
2024/05/03/14:04:52.949332;6834;1714770292;948835927;world;0.118738219;-0.012813846;0.000929475;0.000751944;-0.002627698;0.113354661;-0.993550897
2024/05/03/14:04:52.969444;6835;1714770292;969066742;world;0.119452931;-0.012956631;0.000923747;0.000637208;-0.002464294;0.114200167;-0.993454576
2024/05/03/14:04:52.989434;6836;1714770292;989080668;world;0.120130882;-0.013155326;0.000943413;0.000474777;-0.002460335;0.114940517;-0.993369281
2024/05/03/14:04:52.999184;6837;1714770292;998817849;world;0.120464675;-0.013251651;0.000962755;0.000264951;-0.002355761;0.115306728;-0.993327141
2024/05/03/14:04:53.039484;6838;1714770293;39000960;world;0.121504173;-0.013418976;0.000904689;0.000344401;-0.002506611;0.116243355;-0.993217528
2024/05/03/14:04:53.039512;6840;1714770293;39055024;world;0.122436933;-0.013700614;0.000894306;0.000100674;-0.002691961;0.117025428;-0.993125319
2024/05/03/14:04:53.069177;6841;1714770293;68807083;world;0.123000547;-0.013849882;0.000909396;0.000242157;-0.002603476;0.117626451;-0.993054569
2024/05/03/14:04:53.079513;6842;1714770293;79023830;world;0.123711929;-0.013997145;0.000891007;0.000277712;-0.002481155;0.118078068;-0.993001223
2024/05/03/14:04:53.089329;6843;1714770293;89006436;world;0.124047026;-0.014072063;0.000844977;0.000291185;-0.002524655;0.118243776;-0.992981434
2024/05/03/14:04:53.109157;6844;1714770293;108675846;world;0.124779008;-0.014256026;0.000817264;0.000216455;-0.002617887;0.119060226;-0.992883563
2024/05/03/14:04:53.129101;6845;1714770293;128704903;world;0.125430107;-0.014347298;0.00079534;0.00034535;-0.002484565;0.119842947;-0.992789686
2024/05/03/14:04:53.149315;6846;1714770293;148812628;world;0.126141638;-0.014499525;0.000780202;0.00031301;-0.002395275;0.120359004;-0.992727518
2024/05/03/14:04:53.159007;6847;1714770293;158751871;world;0.126947552;-0.014667727;0.000823687;-0.000160832;-0.002389493;0.120986827;-0.992651284
2024/05/03/14:04:53.169341;6848;1714770293;169029337;world;0.127576068;-0.014855022;0.000823181;-0.000144168;-0.002362001;0.121592626;-0.992577255
2024/05/03/14:04:53.189011;6849;1714770293;188740879;world;0.128180146;-0.015053071;0.000866268;0.000112274;-0.002260779;0.122211106;-0.992501616
2024/05/03/14:04:53.199234;6850;1714770293;198854969;world;0.128727496;-0.015180369;0.000931475;0.000205779;-0.002328195;0.12302579;-0.992400765
2024/05/03/14:04:53.229260;6851;1714770293;228805202;world;0.129336789;-0.015359212;0.000926342;0.000195474;-0.002231194;0.123661801;-0.992321908
2024/05/03/14:04:53.249244;6852;1714770293;248851350;world;0.129614666;-0.015471119;0.000906136;0.000304909;-0.002206815;0.124016434;-0.992277741
2024/05/03/14:04:53.249251;6853;1714770293;248903481;world;0.130340487;-0.0156377;0.000905838;3.90E-05;-0.002164916;0.124673694;-0.992195487
2024/05/03/14:04:53.269678;6854;1714770293;269276901;world;0.131018162;-0.015813764;0.000915478;-1.43E-05;-0.002210922;0.125312522;-0.992114842
2024/05/03/14:04:53.279087;6855;1714770293;278769871;world;0.131630316;-0.015969712;0.000943691;0.000259219;-0.002281457;0.126105696;-0.992014229
2024/05/03/14:04:53.299054;6856;1714770293;298697829;world;0.132265821;-0.016135667;0.000931535;0.000160463;-0.002319498;0.126615867;-0.991949081
2024/05/03/14:04:53.309226;6857;1714770293;308902233;world;0.132918403;-0.016344845;0.00088647;8.93E-05;-0.002254572;0.126969784;-0.99190408
2024/05/03/14:04:53.349038;6858;1714770293;348740868;world;0.133495584;-0.016469128;0.0008864;0.000438585;-0.002219427;0.127508178;-0.991834998
2024/05/03/14:04:53.349066;6859;1714770293;348777138;world;0.13381958;-0.016561545;0.000887639;0.000505246;-0.002163026;0.127770066;-0.991801322
2024/05/03/14:04:53.359289;6860;1714770293;358954250;world;0.134810522;-0.016877862;0.000854997;0.000214696;-0.002166071;0.128735423;-0.991676569
2024/05/03/14:04:53.369504;6861;1714770293;369034054;world;0.135051206;-0.016919885;0.000953131;0.00027407;-0.002120361;0.12934339;-0.991597593
2024/05/03/14:04:53.389708;6862;1714770293;389035693;world;0.135750055;-0.017092358;0.000921252;6.74E-05;-0.002000925;0.129901722;-0.991524875
2024/05/03/14:04:53.399249;6863;1714770293;398843642;world;0.136415273;-0.017210107;0.000977918;-0.000345589;-0.002152263;0.130671322;-0.991423428
2024/05/03/14:04:53.428939;6864;1714770293;428626563;world;0.13715139;-0.01734951;0.000985886;-0.000729684;-0.002149415;0.131252527;-0.991346419
2024/05/03/14:04:53.449313;6865;1714770293;448985031;world;0.137788236;-0.017513752;0.001006105;-0.000901616;-0.002214385;0.131818235;-0.991271019
2024/05/03/14:04:53.449322;6866;1714770293;449029026;world;0.138223246;-0.017791171;0.000945728;-0.000135645;-0.002331311;0.132563651;-0.991171777
2024/05/03/14:04:53.469707;6867;1714770293;469244973;world;0.138817683;-0.017961662;0.000925881;-0.000122706;-0.002282302;0.133128837;-0.991096139
2024/05/03/14:04:53.479196;6868;1714770293;478766939;world;0.139461368;-0.018143296;0.000932981;-7.42E-05;-0.002216118;0.133948103;-0.99098587
2024/05/03/14:04:53.499017;6869;1714770293;498664269;world;0.140204757;-0.018317588;0.000887403;-0.000358993;-0.002160104;0.134512872;-0.990909517
2024/05/03/14:04:53.509276;6870;1714770293;508948939;world;0.14053528;-0.018372161;0.000891282;-0.000473991;-0.002265668;0.134839147;-0.990864813
2024/05/03/14:04:53.539083;6871;1714770293;538694387;world;0.141199902;-0.018435901;0.000943611;-0.000787201;-0.002242259;0.135509685;-0.990773201
2024/05/03/14:04:53.549213;6872;1714770293;548791985;world;0.141962826;-0.018604673;0.000961141;-0.001128407;-0.002353853;0.136160478;-0.990683436
2024/05/03/14:04:53.559337;6873;1714770293;559017009;world;0.14250192;-0.018812373;0.000970909;-0.000834522;-0.00226757;0.136653021;-0.990616024
2024/05/03/14:04:53.579050;6874;1714770293;578669442;world;0.143008843;-0.018956004;0.000972144;-0.000332957;-0.002236614;0.137175381;-0.9905442
2024/05/03/14:04:53.589455;6875;1714770293;589061241;world;0.143633306;-0.019147953;0.00102525;-0.000191396;-0.001946055;0.137972221;-0.99043417
2024/05/03/14:04:53.609162;6876;1714770293;608808566;world;0.144274369;-0.019309385;0.001033296;-0.000176909;-0.001956127;0.138812795;-0.990316689
2024/05/03/14:04:53.618941;6877;1714770293;618582072;world;0.144575819;-0.019393438;0.001038436;-7.13E-05;-0.001929015;0.139160141;-0.990268052
2024/05/03/14:04:53.639031;6878;1714770293;638650934;world;0.145305738;-0.019607266;0.000998135;-0.000206947;-0.002047848;0.139738411;-0.990186334
2024/05/03/14:04:53.659284;6879;1714770293;658931335;world;0.145928532;-0.019828502;0.001005169;-0.000254018;-0.002213705;0.140054911;-0.990141213
2024/05/03/14:04:53.669105;6880;1714770293;668833806;world;0.146604016;-0.019979857;0.001028936;-6.31E-05;-0.002218044;0.140896782;-0.990021884
2024/05/03/14:04:53.689569;6881;1714770293;689180143;world;0.14730069;-0.020130925;0.001026823;-0.000573987;-0.002243455;0.141569063;-0.989925742
2024/05/03/14:04:53.699322;6882;1714770293;698997079;world;0.147881269;-0.020290954;0.001009042;-0.000678772;-0.002294108;0.142218798;-0.989832401
2024/05/03/14:04:53.718936;6883;1714770293;718577959;world;0.148398399;-0.020478757;0.000999968;-0.000389396;-0.002292462;0.142756283;-0.989755213
2024/05/03/14:04:53.739206;6884;1714770293;738815236;world;0.149004579;-0.020722166;0.000998871;-0.000197355;-0.002199091;0.143524155;-0.989644408
2024/05/03/14:04:53.759203;6885;1714770293;758789758;world;0.149345651;-0.020816091;0.00099783;-0.000315534;-0.002227246;0.143844321;-0.989597797
2024/05/03/14:04:53.759241;6886;1714770293;758833051;world;0.149999604;-0.021028828;0.000984137;-0.000318791;-0.002315092;0.14452669;-0.989498138
2024/05/03/14:04:53.780182;6887;1714770293;779737397;world;0.150656983;-0.021206226;0.000955448;-0.000203864;-0.002173761;0.145149156;-0.989407361
2024/05/03/14:04:53.798935;6888;1714770293;798653173;world;0.15136528;-0.021379605;0.000986834;-0.000392113;-0.002238098;0.14576757;-0.989316344
2024/05/03/14:04:53.809203;6889;1714770293;808897805;world;0.152063131;-0.021587992;0.001002992;-0.000682527;-0.002060147;0.14642176;-0.989219844
2024/05/03/14:04:53.829112;6890;1714770293;828743372;world;0.152540147;-0.021926964;0.000988864;-0.000258161;-0.001921884;0.146653026;-0.989186108
2024/05/03/14:04:53.839311;6891;1714770293;838948782;world;0.153208762;-0.022081554;0.000980298;-0.000246252;-0.001800686;0.147391558;-0.989076614
2024/05/03/14:04:53.859245;6892;1714770293;858874410;world;0.153559208;-0.022145208;0.000950146;-0.000327634;-0.001895124;0.147702068;-0.989030063
2024/05/03/14:04:53.869537;6893;1714770293;869126519;world;0.1542034;-0.022347014;0.000995307;-0.00010532;-0.001994563;0.148515701;-0.988908112
2024/05/03/14:04:53.889720;6894;1714770293;889399867;world;0.155111983;-0.022679161;0.000952149;2.14E-05;-0.00190128;0.149365067;-0.988780379
2024/05/03/14:04:53.909290;6895;1714770293;908995756;world;0.155378342;-0.022706896;0.001020517;0.00013926;-0.002150495;0.149815634;-0.988711596
2024/05/03/14:04:53.919291;6896;1714770293;918839912;world;0.155981287;-0.022937063;0.000974766;0.000367344;-0.002082798;0.150257379;-0.988644719
2024/05/03/14:04:53.949396;6897;1714770293;949059064;world;0.156560495;-0.023194471;0.001001094;-0.000171807;-0.002455047;0.150513172;-0.988605022
2024/05/03/14:04:53.970391;6898;1714770293;968990400;world;0.157267958;-0.023306863;0.00097134;0.000263365;-0.001945551;0.151532173;-0.988450408
2024/05/03/14:04:53.970422;6899;1714770293;969029114;world;0.15790537;-0.023471151;0.00099158;0.000142553;-0.002012791;0.152205482;-0.988346875
2024/05/03/14:04:53.988944;6900;1714770293;988605706;world;0.158558816;-0.023671012;0.000955834;9.28E-05;-0.001970475;0.152804986;-0.988254428
2024/05/03/14:04:53.998953;6901;1714770293;998617468;world;0.158879295;-0.023785669;0.000943543;0.000150921;-0.00194021;0.15316394;-0.988198876
2024/05/03/14:04:54.009450;6902;1714770294;9026569;world;0.159524545;-0.02398633;0.000949258;-5.89E-05;-0.001927936;0.153778747;-0.988103449
2024/05/03/14:04:54.029262;6903;1714770294;28925495;world;0.160112292;-0.024208548;0.000976156;3.46E-05;-0.001768531;0.154368445;-0.988011837
2024/05/03/14:04:54.049211;6904;1714770294;48953778;world;0.16075258;-0.02440696;0.001004871;-0.000120544;-0.001725178;0.154962257;-0.987918913
2024/05/03/14:04:54.069293;6905;1714770294;68900149;world;0.161510944;-0.024643401;0.000945736;-0.000287095;-0.001610908;0.155432567;-0.987845123
2024/05/03/14:04:54.079132;6906;1714770294;78779529;world;0.162191182;-0.024841834;0.000928013;-0.00045552;-0.001582296;0.156075239;-0.987743795
2024/05/03/14:04:54.089199;6907;1714770294;88938244;world;0.162554294;-0.024867529;0.000970399;-0.000585882;-0.001622677;0.156497419;-0.987676859
2024/05/03/14:04:54.109373;6908;1714770294;109085312;world;0.163195983;-0.025037359;0.000981865;-0.000714602;-0.001648834;0.157165393;-0.987570703
2024/05/03/14:04:54.118895;6909;1714770294;118602744;world;0.163818538;-0.025255624;0.000991924;-0.000544084;-0.001546899;0.157957137;-0.987444639
2024/05/03/14:04:54.149212;6910;1714770294;148896417;world;0.164713532;-0.025520653;0.000941251;-0.000243793;-0.001583809;0.158815548;-0.987306952
2024/05/03/14:04:54.179139;6911;1714770294;178670805;world;0.165015101;-0.025614997;0.000937549;-0.000190031;-0.001615314;0.15916951;-0.987249911
2024/05/03/14:04:54.179166;6912;1714770294;178710051;world;0.165586025;-0.025829546;0.000938835;0.00011108;-0.001687143;0.159740537;-0.987157643
2024/05/03/14:04:54.189213;6913;1714770294;188923802;world;0.166242078;-0.026070952;0.000919316;0.000117337;-0.001733533;0.160267711;-0.987072051
2024/05/03/14:04:54.199213;6914;1714770294;198868795;world;0.166572496;-0.02615618;0.000923078;3.45E-05;-0.001788821;0.160522044;-0.987030685
2024/05/03/14:04:54.219294;6915;1714770294;218976621;world;0.167545617;-0.026473533;0.000904097;-0.000123833;-0.001680371;0.161444664;-0.986880302
2024/05/03/14:04:54.229383;6916;1714770294;228948457;world;0.167888045;-0.026566567;0.000920025;-0.000166128;-0.001776504;0.161826864;-0.986817598
2024/05/03/14:04:54.249048;6917;1714770294;248745594;world;0.168901786;-0.026975317;0.000955498;-0.000225052;-0.001554332;0.163142368;-0.986601293
2024/05/03/14:04:54.279407;6918;1714770294;278980407;world;0.169463977;-0.027165357;0.000980883;-0.000192636;-0.001551341;0.163829163;-0.986487567
2024/05/03/14:04:54.289139;6919;1714770294;288831218;world;0.169995382;-0.027333513;0.000995872;8.35E-07;-0.001559979;0.164455414;-0.986383319
2024/05/03/14:04:54.299253;6920;1714770294;298814135;world;0.170270085;-0.027415309;0.000990397;3.90E-05;-0.001536439;0.164705589;-0.986341655
2024/05/03/14:04:54.319341;6921;1714770294;318982065;world;0.170837477;-0.027637802;0.000993046;0.000102378;-0.00143058;0.165366694;-0.986231148
2024/05/03/14:04:54.329208;6922;1714770294;328744375;world;0.171516061;-0.027882982;0.000992469;6.16E-05;-0.001271662;0.165886819;-0.986143947
2024/05/03/14:04:54.359283;6923;1714770294;358930614;world;0.172191203;-0.028134052;0.000954;-6.90E-05;-0.001208457;0.166456848;-0.986047983
2024/05/03/14:04:54.368802;6924;1714770294;368471476;world;0.172499821;-0.028241619;0.000970918;-9.33E-05;-0.001237244;0.166828319;-0.98598516
2024/05/03/14:04:54.379472;6925;1714770294;379005818;world;0.17354539;-0.028639857;0.000988288;-0.000253918;-0.001205494;0.168188944;-0.985754013
2024/05/03/14:04:54.389169;6926;1714770294;388869837;world;0.173896924;-0.028732583;0.001015379;-0.000562313;-0.001127695;0.16855298;-0.985691845
2024/05/03/14:04:54.409331;6927;1714770294;409012711;world;0.17451033;-0.028932691;0.001019675;-0.000682356;-0.001120232;0.16914995;-0.985589445
2024/05/03/14:04:54.419174;6928;1714770294;418900292;world;0.175041199;-0.029060319;0.001022862;-0.000409384;-0.000967954;0.169675067;-0.985499501
2024/05/03/14:04:54.439156;6929;1714770294;438784807;world;0.175577641;-0.029207911;0.000930707;-4.58E-05;-0.001303406;0.170010343;-0.985441446
2024/05/03/14:04:54.459414;6930;1714770294;458836597;world;0.17617327;-0.029368311;0.000920921;0.000275883;-0.001357011;0.170338854;-0.985384643
2024/05/03/14:04:54.489249;6931;1714770294;488945124;world;0.176769018;-0.029602695;0.000915783;0.000265024;-0.001240388;0.170976937;-0.985274196
2024/05/03/14:04:54.489283;6932;1714770294;488986524;world;0.177075028;-0.029724818;0.000951741;0.000142294;-0.001138987;0.171411172;-0.985198915
2024/05/03/14:04:54.499028;6933;1714770294;498710480;world;0.177692667;-0.029963914;0.000959213;0.000404585;-0.001156981;0.17243585;-0.985020041
2024/05/03/14:04:54.509228;6934;1714770294;508752931;world;0.178314731;-0.030186545;0.000932988;0.000588157;-0.001076024;0.173217118;-0.984882891
2024/05/03/14:04:54.529501;6935;1714770294;528951055;world;0.178885132;-0.030364864;0.000958108;0.000767054;-0.001098319;0.173874334;-0.98476702
2024/05/03/14:04:54.559088;6936;1714770294;558761437;world;0.179480985;-0.030582558;0.000947225;0.000778986;-0.001158663;0.174431175;-0.984668434
2024/05/03/14:04:54.559122;6937;1714770294;558802997;world;0.180042058;-0.030792074;0.000961215;0.000983238;-0.001144313;0.175044924;-0.984559357
2024/05/03/14:04:54.599288;6938;1714770294;598927507;world;0.180609867;-0.031014903;0.0009535;0.001185387;-0.0010128;0.175544262;-0.984470367
2024/05/03/14:04:54.599316;6939;1714770294;598969799;world;0.181350917;-0.031221058;0.000947495;0.00087945;-0.00093627;0.176042333;-0.984381855
2024/05/03/14:04:54.609139;6940;1714770294;608814579;world;0.18164663;-0.03132556;0.000961035;0.000892886;-0.000947014;0.176398069;-0.984318137
2024/05/03/14:04:54.619135;6941;1714770294;618715318;world;0.182299271;-0.03157397;0.000968134;0.00100583;-0.001073572;0.177308321;-0.984154224
2024/05/03/14:04:54.639305;6942;1714770294;638908200;world;0.182966322;-0.031803939;0.000944153;0.000974222;-0.000934857;0.177907258;-0.9840464
2024/05/03/14:04:54.659846;6943;1714770294;658991139;world;0.183530033;-0.032013059;0.00099001;0.001193346;-0.000957748;0.17865859;-0.983910024
2024/05/03/14:04:54.709057;6944;1714770294;708619338;world;0.184125289;-0.032246381;0.000991615;0.00127662;-0.000874769;0.179374412;-0.983779728
2024/05/03/14:04:54.709068;6946;1714770294;708652332;world;0.185381547;-0.032669231;0.001000659;0.000916825;-0.000902676;0.180446222;-0.983583987
2024/05/03/14:04:54.718885;6947;1714770294;718559052;world;0.186003923;-0.032896765;0.000990916;0.000880513;-0.000932766;0.181016549;-0.983479261
2024/05/03/14:04:54.729363;6948;1714770294;729060262;world;0.186317056;-0.03299867;0.000967347;0.000904969;-0.000887046;0.181309149;-0.983425319
2024/05/03/14:04:54.749169;6949;1714770294;748822954;world;0.186964452;-0.033264838;0.000947406;0.001031164;-0.001022994;0.182161376;-0.983267605
2024/05/03/14:04:54.759738;6950;1714770294;759284413;world;0.187583342;-0.03350218;0.00094686;0.001044079;-0.000929651;0.182845861;-0.983140647
2024/05/03/14:04:54.798990;6951;1714770294;798613213;world;0.188199177;-0.033759311;0.000903546;0.001174399;-0.000899833;0.183468252;-0.983024597
2024/05/03/14:04:54.799026;6952;1714770294;798662588;world;0.188730896;-0.033926811;0.000929074;0.001499184;-0.00097104;0.184117317;-0.982902646
2024/05/03/14:04:54.809226;6953;1714770294;808980018;world;0.189324215;-0.03414112;0.000942207;0.001417219;-0.001031533;0.184708804;-0.982791722
2024/05/03/14:04:54.829095;6954;1714770294;828711782;world;0.189971969;-0.034386963;0.00093919;0.001447107;-0.001012624;0.185284227;-0.98268342
2024/05/03/14:04:54.838982;6955;1714770294;838669578;world;0.190587282;-0.034618802;0.00095917;0.001436817;-0.00110579;0.185928851;-0.982561529
2024/05/03/14:04:54.869275;6956;1714770294;868788177;world;0.191191971;-0.034872733;0.000947655;0.001460938;-0.001107576;0.186559424;-0.982441962
2024/05/03/14:04:54.889454;6957;1714770294;889080511;world;0.191563115;-0.03504179;0.000951441;0.001324596;-0.001074074;0.187079668;-0.982343256
2024/05/03/14:04:54.899008;6958;1714770294;898640282;world;0.192162111;-0.035279993;0.000987758;0.001366294;-0.001018867;0.18781127;-0.982203722
2024/05/03/14:04:54.909317;6959;1714770294;909008642;world;0.192747697;-0.035553265;0.001032912;0.001338766;-0.001044361;0.188481912;-0.982075274
2024/05/03/14:04:54.918961;6960;1714770294;918667683;world;0.193346336;-0.035828598;0.000978162;0.001391813;-0.000762423;0.188949466;-0.981985569
2024/05/03/14:04:54.939305;6961;1714770294;938971089;world;0.193900794;-0.03602349;0.000942444;0.001459829;-0.000846709;0.189622581;-0.98185569
2024/05/03/14:04:54.958972;6962;1714770294;958585882;world;0.194566131;-0.036265161;0.000943423;0.001413551;-0.000740882;0.190294087;-0.981725872
2024/05/03/14:04:54.969295;6963;1714770294;968983119;world;0.194920182;-0.036372971;0.000952083;0.001360285;-0.000704211;0.190661192;-0.981654763
2024/05/03/14:04:55.000005;6964;1714770294;999620447;world;0.195616469;-0.036608689;0.000967514;0.00131898;-0.000664703;0.191345602;-0.981521606
