time;.header.seq;.header.stamp.secs;.header.stamp.nsecs;.header.frame_id;.pose.position.x;.pose.position.y;.pose.position.z;.pose.orientation.x;.pose.orientation.y;.pose.orientation.z;.pose.orientation.w
2024/05/03/12:43:33.573450;31843;1714765413;573105335;world;-2.41E-05;-2.56E-05;2.73E-05;-9.39E-05;-7.04E-05;-8.31E-05;1
2024/05/03/12:43:33.585057;31844;1714765413;584717835;world;-8.92E-06;-4.91E-05;8.83E-06;-8.77E-05;-4.45E-05;-0.000101567;1
2024/05/03/12:43:33.613290;31845;1714765413;612898683;world;-3.18E-05;-1.44E-05;2.39E-05;-6.06E-05;-4.59E-05;-1.19E-05;1
2024/05/03/12:43:33.623606;31846;1714765413;623278353;world;1.84E-06;-1.13E-05;5.07E-05;0.000102393;-2.33E-05;-2.21E-05;1
2024/05/03/12:43:33.643823;31847;1714765413;643501636;world;1.52E-05;-7.03E-06;4.98E-05;0.000167165;3.11E-05;-6.80E-06;1
2024/05/03/12:43:33.653340;31848;1714765413;652969244;world;1.58E-05;-1.16E-05;1.48E-05;8.97E-05;8.27E-07;-1.94E-05;1
2024/05/03/12:43:33.663582;31849;1714765413;663273346;world;2.81E-06;-3.32E-05;2.61E-05;-5.06E-05;-9.13E-05;-2.86E-05;1
2024/05/03/12:43:33.683620;31850;1714765413;683300250;world;-3.24E-05;-3.30E-05;4.56E-05;-0.000172732;-0.000138403;-7.34E-05;1
2024/05/03/12:43:33.693377;31851;1714765413;693009551;world;-3.24E-05;-3.14E-05;3.82E-05;-0.000113145;-6.38E-05;-7.09E-05;1
2024/05/03/12:43:33.713237;31852;1714765413;712927282;world;-9.85E-06;-3.33E-05;2.13E-05;-3.24E-05;-3.14E-05;-6.23E-05;1
2024/05/03/12:43:33.753361;31853;1714765413;752967316;world;-5.86E-06;-2.77E-05;4.67E-05;-6.20E-05;-9.79E-05;-8.21E-05;1
2024/05/03/12:43:33.753400;31855;1714765413;753019934;world;-2.26E-05;-2.27E-05;3.67E-05;-9.72E-05;-6.97E-05;-4.72E-05;1
2024/05/03/12:43:33.773722;31856;1714765413;773093778;world;4.08E-06;-1.19E-05;3.37E-05;0.000160979;-8.57E-06;7.66E-06;1
2024/05/03/12:43:33.793847;31857;1714765413;793432687;world;1.56E-05;-1.82E-05;2.71E-05;0.000129291;3.62E-05;3.87E-05;1
2024/05/03/12:43:33.813643;31858;1714765413;813343615;world;-1.71E-05;-1.69E-05;4.17E-05;6.56E-06;3.50E-05;-2.22E-05;1
2024/05/03/12:43:33.823529;31859;1714765413;823234133;world;-3.16E-05;-2.28E-05;3.01E-05;-0.000109865;-8.93E-05;-9.05E-05;1
2024/05/03/12:43:33.853510;31860;1714765413;853018296;world;-6.87E-06;-3.39E-05;3.40E-05;7.49E-07;-6.71E-05;-8.95E-05;1
2024/05/03/12:43:33.853539;31861;1714765413;853063811;world;-2.26E-05;-2.45E-05;3.07E-05;-3.30E-06;-4.45E-05;-3.67E-05;1
2024/05/03/12:43:33.863784;31862;1714765413;863355299;world;-8.81E-06;-2.46E-05;5.47E-05;1.14E-05;-3.14E-05;-5.85E-05;1
2024/05/03/12:43:33.883681;31863;1714765413;883396311;world;-6.93E-05;-4.05E-05;9.23E-06;-0.000231923;-6.85E-05;-5.54E-05;1
2024/05/03/12:43:33.903579;31864;1714765413;903260428;world;-3.81E-05;-2.30E-05;8.42E-06;-0.000175044;-4.65E-05;-3.69E-05;1
2024/05/03/12:43:33.913594;31865;1714765413;913326279;world;-1.54E-05;-3.35E-05;3.17E-05;-0.000133413;-0.000108174;-8.53E-05;1
2024/05/03/12:43:33.933437;31866;1714765413;933096300;world;-2.98E-05;-3.71E-05;2.67E-05;-0.000169372;-9.24E-05;-4.04E-05;1
2024/05/03/12:43:33.953267;31867;1714765413;952955991;world;-6.10E-05;-3.06E-05;3.85E-05;-0.000232965;-0.000115725;-7.01E-05;1
2024/05/03/12:43:33.963698;31868;1714765413;963378183;world;-5.68E-05;-3.44E-05;1.65E-05;-0.000148261;-4.83E-05;-5.80E-05;1
2024/05/03/12:43:33.973401;31869;1714765413;973136049;world;-1.05E-05;-4.29E-05;1.17E-05;-0.000140492;-5.73E-05;-4.04E-05;1
2024/05/03/12:43:33.993254;31870;1714765413;992928572;world;-4.03E-05;-3.00E-05;3.62E-05;-0.0001327;-7.90E-05;-5.08E-05;1
2024/05/03/12:43:34.023290;31871;1714765414;22947946;world;-8.90E-06;-7.38E-06;2.99E-05;5.52E-05;-1.53E-05;-2.41E-05;1
2024/05/03/12:43:34.023324;31872;1714765414;22990856;world;-5.26E-06;-2.42E-05;3.50E-05;4.69E-05;-1.15E-05;-1.68E-05;1
2024/05/03/12:43:34.053347;31873;1714765414;52940511;world;3.14E-05;-2.04E-05;3.96E-05;0.000106392;3.25E-06;8.75E-06;1
2024/05/03/12:43:34.053376;31874;1714765414;52984053;world;-3.97E-05;-5.96E-05;1.46E-05;-0.000155389;-5.12E-05;-6.56E-05;1
2024/05/03/12:43:34.073468;31875;1714765414;73156961;world;-3.79E-05;-3.48E-05;3.63E-05;-0.000255613;-0.000138939;-8.25E-05;1
2024/05/03/12:43:34.083201;31876;1714765414;82864097;world;-3.59E-05;-4.36E-05;1.27E-05;-0.000214756;-7.12E-05;-7.05E-05;1
2024/05/03/12:43:34.103399;31877;1714765414;102958269;world;-8.51E-06;-2.88E-05;2.34E-05;-9.12E-05;-4.29E-05;-6.29E-05;1
2024/05/03/12:43:34.123317;31878;1714765414;122999501;world;-1.77E-05;-5.37E-05;3.57E-05;-0.00012937;-0.000100006;-0.000120658;1
2024/05/03/12:43:34.133475;31879;1714765414;133155165;world;-5.03E-05;-3.04E-05;2.92E-05;-0.000163811;-0.000105444;-4.46E-05;1
2024/05/03/12:43:34.164214;31880;1714765414;163063294;world;-1.55E-05;-1.92E-05;1.83E-05;-2.19E-05;1.32E-06;-9.90E-06;1
2024/05/03/12:43:34.164250;31881;1714765414;163099281;world;-6.65E-06;-3.09E-05;4.71E-05;-4.50E-05;-9.73E-05;-0.000100683;1
2024/05/03/12:43:34.183709;31882;1714765414;183344995;world;-1.53E-05;-2.30E-05;3.87E-05;-0.00013086;-9.75E-05;-5.89E-05;1
2024/05/03/12:43:34.203554;31883;1714765414;203159484;world;-2.02E-05;-2.78E-05;4.02E-05;-7.90E-05;-7.49E-05;-5.49E-05;1
2024/05/03/12:43:34.223285;31884;1714765414;222917630;world;-2.36E-05;-2.70E-05;2.07E-05;-9.17E-05;-4.29E-05;-1.54E-05;1
2024/05/03/12:43:34.223310;31885;1714765414;222952384;world;9.90E-06;-1.55E-05;1.16E-05;1.12E-05;2.10E-05;3.67E-06;1
2024/05/03/12:43:34.263679;31886;1714765414;262992632;world;-1.73E-05;-5.10E-05;1.52E-05;-0.000126307;-3.56E-05;-0.000100022;1
2024/05/03/12:43:34.263719;31887;1714765414;263040371;world;-3.08E-05;-3.80E-05;1.98E-05;-0.000245749;-0.000106373;-9.01E-05;1
2024/05/03/12:43:34.273556;31888;1714765414;273240087;world;1.03E-05;-1.44E-05;4.94E-05;9.13E-05;-9.67E-05;-8.83E-06;1
2024/05/03/12:43:34.294033;31889;1714765414;293305835;world;1.44E-05;-2.50E-05;2.65E-05;5.71E-05;-3.46E-05;-1.19E-05;1
2024/05/03/12:43:34.303667;31890;1714765414;303229476;world;2.68E-06;-2.88E-05;2.44E-05;-7.20E-05;-5.65E-05;-4.49E-05;1
2024/05/03/12:43:34.323608;31891;1714765414;323200499;world;-1.30E-05;-2.58E-05;2.60E-05;-7.10E-05;-7.93E-05;-5.11E-05;1
2024/05/03/12:43:34.343378;31892;1714765414;343041429;world;4.55E-06;-1.44E-05;3.59E-05;6.74E-05;1.23E-05;-2.10E-05;1
2024/05/03/12:43:34.363541;31893;1714765414;363181817;world;1.60E-05;-1.73E-05;2.48E-05;4.89E-05;4.55E-06;-2.93E-05;1
2024/05/03/12:43:34.363572;31894;1714765414;363224186;world;3.77E-06;-2.77E-05;3.44E-05;2.32E-05;-3.65E-05;-5.27E-05;1
2024/05/03/12:43:34.384027;31895;1714765414;383526367;world;-3.55E-05;-2.96E-05;2.84E-05;-0.000147584;-7.52E-05;-4.73E-05;1
2024/05/03/12:43:34.394144;31896;1714765414;393797124;world;-2.47E-05;-1.67E-05;4.14E-05;-3.93E-05;-6.34E-05;-4.54E-05;1
2024/05/03/12:43:34.413482;31897;1714765414;413165381;world;-2.53E-05;-3.25E-05;2.16E-06;-7.60E-05;3.33E-05;-3.90E-05;1
2024/05/03/12:43:34.433310;31898;1714765414;432979540;world;-9.85E-06;-2.48E-05;3.28E-05;-1.74E-05;-4.34E-05;-2.51E-05;1
2024/05/03/12:43:34.463629;31899;1714765414;463320575;world;-2.21E-05;-5.80E-06;3.77E-05;1.67E-05;-2.73E-05;-3.16E-05;1
2024/05/03/12:43:34.463651;31900;1714765414;463357925;world;-2.47E-05;-1.25E-05;5.06E-05;-1.83E-05;-5.74E-05;-5.42E-05;1
2024/05/03/12:43:34.473513;31901;1714765414;473190416;world;-1.21E-05;-1.69E-05;4.09E-05;1.58E-05;5.58E-05;-4.53E-05;1
2024/05/03/12:43:34.493349;31902;1714765414;493009305;world;-2.30E-05;-2.53E-05;2.53E-05;-3.52E-05;7.83E-05;-4.04E-05;1
2024/05/03/12:43:34.503289;31903;1714765414;502960768;world;-2.21E-05;-1.72E-05;2.14E-05;-1.49E-05;3.43E-05;-2.21E-06;1
2024/05/03/12:43:34.533723;31904;1714765414;533076189;world;-3.38E-05;-1.36E-05;4.72E-05;-3.02E-05;-5.36E-05;-5.55E-05;1
2024/05/03/12:43:34.543462;31905;1714765414;543131205;world;4.27E-06;-1.25E-05;4.84E-05;6.61E-05;6.75E-06;-8.78E-06;1
2024/05/03/12:43:34.573246;31906;1714765414;572909863;world;7.02E-07;-1.49E-05;1.82E-05;6.06E-05;2.71E-05;2.73E-06;1
2024/05/03/12:43:34.573278;31907;1714765414;572946020;world;-1.99E-05;-3.65E-05;1.33E-05;-0.000164878;-1.05E-05;-5.75E-05;1
2024/05/03/12:43:34.583893;31908;1714765414;583520329;world;-3.76E-05;-2.56E-05;2.99E-05;-0.0001474;-7.12E-05;-4.61E-05;1
2024/05/03/12:43:34.603377;31909;1714765414;603010068;world;-1.47E-05;-4.29E-05;3.69E-05;-8.82E-05;-6.88E-05;-0.000121192;1
2024/05/03/12:43:34.613644;31910;1714765414;613362939;world;8.35E-06;-2.31E-05;3.89E-05;4.46E-05;-1.38E-05;-5.14E-05;1
2024/05/03/12:43:34.633158;31911;1714765414;632899209;world;-1.42E-06;-1.18E-05;4.11E-05;9.32E-05;3.14E-05;3.51E-05;1
2024/05/03/12:43:34.643700;31912;1714765414;643302606;world;-1.26E-05;-1.88E-05;2.50E-05;8.42E-05;3.90E-05;3.07E-05;1
2024/05/03/12:43:34.673275;31913;1714765414;672955176;world;-3.66E-05;-3.30E-05;3.52E-05;-0.000113819;-6.92E-05;-3.60E-05;1
2024/05/03/12:43:34.683333;31914;1714765414;683100398;world;-5.51E-07;-1.62E-05;4.43E-05;2.55E-05;-5.67E-05;-4.51E-05;1
2024/05/03/12:43:34.693686;31915;1714765414;693315373;world;-8.32E-06;-3.25E-05;4.11E-05;-0.000100154;-0.000107813;-5.67E-05;1
2024/05/03/12:43:34.713559;31916;1714765414;713267990;world;3.74E-06;-2.79E-05;4.98E-05;-9.02E-05;-0.000120612;-7.43E-05;1
2024/05/03/12:43:34.733456;31917;1714765414;733058614;world;-1.25E-05;-2.77E-05;5.59E-05;-0.000114319;-0.000106549;-5.03E-05;1
2024/05/03/12:43:34.743498;31918;1714765414;743303433;world;-3.32E-05;-3.23E-05;3.07E-05;-9.61E-05;-4.06E-05;-2.14E-05;1
2024/05/03/12:43:34.764072;31919;1714765414;763653899;world;-1.88E-05;-2.29E-05;4.34E-05;-8.56E-05;-8.05E-05;-6.54E-05;1
2024/05/03/12:43:34.773657;31920;1714765414;773276121;world;-2.80E-05;-2.78E-05;3.86E-05;-0.000133707;-4.55E-05;-6.59E-05;1
2024/05/03/12:43:34.793441;31921;1714765414;793157817;world;-1.81E-05;-2.91E-05;2.91E-05;-0.000104302;-6.83E-05;-4.25E-05;1
2024/05/03/12:43:34.803568;31922;1714765414;803256623;world;-4.75E-06;-1.96E-05;3.18E-05;-6.71E-05;-7.46E-05;-2.89E-05;1
2024/05/03/12:43:34.824044;31923;1714765414;823607213;world;1.55E-05;-2.49E-05;4.56E-05;-9.17E-06;-5.98E-05;-4.09E-05;1
2024/05/03/12:43:34.843532;31924;1714765414;842989859;world;-2.66E-06;-1.69E-05;3.70E-05;-9.00E-06;-7.85E-05;-9.97E-06;1
2024/05/03/12:43:34.873399;31925;1714765414;873046893;world;-2.05E-05;-1.92E-05;3.80E-05;-2.13E-05;-4.42E-05;-2.30E-05;1
2024/05/03/12:43:34.873419;31926;1714765414;873081899;world;-2.94E-05;-3.12E-05;3.42E-05;-6.86E-05;-3.46E-05;-6.34E-05;1
2024/05/03/12:43:34.884395;31927;1714765414;883990027;world;-2.35E-05;-2.85E-05;1.62E-05;-0.00011757;-2.84E-05;-5.90E-05;1
2024/05/03/12:43:34.903142;31928;1714765414;902917722;world;-2.01E-05;-4.79E-05;2.12E-05;-0.000163601;-0.000115402;-9.21E-05;1
2024/05/03/12:43:34.913625;31929;1714765414;913318894;world;-2.94E-05;-2.97E-05;2.47E-05;-7.76E-05;-4.39E-05;-3.52E-05;1
2024/05/03/12:43:34.943437;31930;1714765414;943025624;world;-3.46E-05;-6.19E-05;2.96E-05;-0.000151055;-3.98E-06;-0.000110398;1
2024/05/03/12:43:34.943463;31931;1714765414;943061311;world;-2.94E-05;-5.14E-05;-6.25E-06;-0.000143203;8.09E-05;-6.64E-05;1
2024/05/03/12:43:34.973543;31932;1714765414;973209435;world;-2.76E-05;-3.10E-05;3.81E-05;-9.12E-05;-1.05E-05;-5.58E-05;1
2024/05/03/12:43:34.973570;31933;1714765414;973253878;world;-2.54E-05;-4.69E-05;5.79E-05;-6.51E-05;-5.77E-05;-0.000117804;1
2024/05/03/12:43:34.993152;31934;1714765414;992931684;world;-8.55E-06;-3.01E-05;3.07E-05;-0.000100831;9.35E-06;-5.38E-05;1
2024/05/03/12:43:35.003296;31935;1714765415;3102343;world;-1.27E-05;-3.53E-05;2.06E-05;-0.000137379;-7.36E-05;-4.27E-05;1
2024/05/03/12:43:35.023428;31936;1714765415;23162610;world;-1.65E-05;-3.03E-05;2.80E-05;-0.000182881;-0.000113353;-4.77E-05;1
2024/05/03/12:43:35.043535;31937;1714765415;43236164;world;-3.73E-05;-4.89E-05;4.62E-05;-0.000163517;-0.000141492;-0.000144486;1
2024/05/03/12:43:35.053355;31938;1714765415;52961387;world;-2.59E-05;-3.15E-05;2.45E-05;-0.000171056;-4.66E-05;-5.51E-05;1
2024/05/03/12:43:35.083197;31939;1714765415;82942260;world;-3.73E-06;-2.52E-05;1.97E-05;-5.13E-05;-8.71E-06;-3.26E-05;1
2024/05/03/12:43:35.083211;31940;1714765415;82985019;world;4.96E-06;-2.01E-05;2.92E-05;2.32E-05;-1.67E-05;-5.92E-06;1
2024/05/03/12:43:35.103445;31941;1714765415;103058524;world;-1.83E-05;-2.82E-05;4.31E-05;-2.65E-05;-5.33E-05;2.01E-06;1
2024/05/03/12:43:35.123526;31942;1714765415;122979138;world;-4.61E-05;-3.44E-05;1.79E-05;-0.000179917;-6.70E-05;-6.64E-05;1
2024/05/03/12:43:35.143422;31943;1714765415;143173409;world;-3.63E-05;-4.06E-05;2.31E-05;-0.000311506;-0.000128618;-6.55E-05;1
2024/05/03/12:43:35.153775;31944;1714765415;153403512;world;-2.41E-05;-3.39E-05;3.43E-05;-9.38E-05;-6.63E-05;-4.76E-05;1
2024/05/03/12:43:35.184846;31945;1714765415;183291384;world;-2.24E-05;-2.89E-05;4.57E-05;-2.78E-05;-6.56E-05;-4.54E-05;1
2024/05/03/12:43:35.184870;31946;1714765415;183326750;world;-2.98E-05;-2.58E-05;4.92E-05;-0.000121392;-0.000103653;-5.79E-05;1
2024/05/03/12:43:35.193402;31947;1714765415;193030342;world;-2.17E-05;-2.59E-05;3.15E-05;-9.30E-05;-6.73E-05;-2.76E-05;1
2024/05/03/12:43:35.214038;31948;1714765415;213340994;world;2.73E-06;-2.98E-05;3.51E-05;-2.71E-05;-0.000116359;-9.34E-05;1
2024/05/03/12:43:35.223724;31949;1714765415;223426040;world;-1.99E-05;-3.20E-05;4.87E-05;-0.000171325;-0.000155998;-4.53E-05;1
2024/05/03/12:43:35.253251;31950;1714765415;253050469;world;-2.83E-05;-3.24E-05;4.94E-05;-9.69E-05;-4.48E-05;-7.72E-05;1
2024/05/03/12:43:35.264068;31951;1714765415;262932253;world;-4.08E-05;-3.92E-05;2.84E-05;-0.000187488;-5.31E-05;-6.55E-05;1
2024/05/03/12:43:35.283628;31952;1714765415;283335113;world;-1.14E-05;-3.37E-05;3.02E-05;-0.000111009;-4.84E-05;-5.32E-05;1
2024/05/03/12:43:35.294001;31953;1714765415;293361413;world;-7.43E-06;-1.87E-05;2.55E-05;-8.11E-05;-2.21E-05;-2.37E-05;1
2024/05/03/12:43:35.303568;31954;1714765415;303324899;world;-2.17E-05;-2.84E-05;5.06E-05;-4.27E-05;-5.83E-05;-7.24E-05;1
2024/05/03/12:43:35.323413;31955;1714765415;323109073;world;3.48E-06;-1.64E-05;4.36E-05;-1.37E-05;-8.11E-05;-6.88E-05;1
2024/05/03/12:43:35.333240;31956;1714765415;333001645;world;-1.26E-05;-3.03E-05;2.89E-05;-6.26E-05;-5.61E-05;-2.89E-05;1
2024/05/03/12:43:35.353710;31957;1714765415;353252155;world;-2.23E-05;-5.05E-05;3.33E-05;-0.000143538;-5.52E-05;-0.000110286;1
2024/05/03/12:43:35.383667;31958;1714765415;383452892;world;-3.98E-05;-3.47E-05;4.47E-05;-0.000199578;-0.00010687;-8.87E-05;1
2024/05/03/12:43:35.383671;31959;1714765415;383495882;world;-1.77E-05;-2.31E-05;5.44E-05;-6.48E-05;-0.000102916;-7.65E-05;1
2024/05/03/12:43:35.393620;31960;1714765415;393388815;world;-1.03E-05;-3.35E-05;3.81E-05;-5.93E-05;-3.24E-05;-6.47E-05;1
2024/05/03/12:43:35.413470;31961;1714765415;413169059;world;-2.85E-05;-3.11E-05;2.94E-05;-0.00019708;-0.000110757;-6.57E-05;1
2024/05/03/12:43:35.433555;31962;1714765415;433282756;world;-4.78E-05;-6.27E-05;2.90E-05;-0.000308269;-0.000119937;-0.000154694;1
2024/05/03/12:43:35.453233;31963;1714765415;452977708;world;-5.07E-05;-2.98E-05;3.93E-05;-0.000190515;-8.81E-05;-8.32E-05;1
2024/05/03/12:43:35.463418;31964;1714765415;463123644;world;-8.33E-06;-2.17E-05;4.65E-05;-2.42E-05;-3.15E-05;-2.56E-05;1
2024/05/03/12:43:35.493685;31965;1714765415;493409315;world;-2.70E-05;-1.95E-05;4.03E-05;-0.000144248;-5.50E-05;-1.34E-05;1
2024/05/03/12:43:35.493804;31966;1714765415;493435153;world;-5.32E-05;-3.40E-05;4.98E-05;-0.00016309;-0.000112226;-8.05E-05;1
2024/05/03/12:43:35.503519;31967;1714765415;503090343;world;-4.67E-05;-3.18E-05;4.04E-05;-0.000180271;-9.80E-05;-9.72E-05;1
2024/05/03/12:43:35.523672;31968;1714765415;523313971;world;-2.60E-05;-3.44E-05;3.14E-05;-0.000183187;-7.63E-05;-7.93E-05;1
2024/05/03/12:43:35.533693;31969;1714765415;533350783;world;-1.37E-05;-1.63E-05;5.77E-05;3.00E-06;-2.80E-05;-5.61E-05;1
2024/05/03/12:43:35.554093;31970;1714765415;553431971;world;-4.71E-05;-5.43E-05;3.27E-05;-0.000304016;-8.22E-05;-0.000168264;1
2024/05/03/12:43:35.593379;31971;1714765415;593083384;world;-5.86E-05;-3.79E-05;1.92E-05;-0.000399703;-9.93E-05;-6.05E-05;1
2024/05/03/12:43:35.593458;31972;1714765415;593127406;world;-3.93E-05;-3.33E-05;5.24E-05;-0.000220923;-0.000138732;-8.65E-05;1
2024/05/03/12:43:35.603301;31973;1714765415;602994271;world;-5.22E-05;-4.29E-05;1.17E-05;-0.000285988;-2.89E-05;-9.23E-05;1
2024/05/03/12:43:35.623917;31974;1714765415;623227042;world;-4.15E-05;-3.55E-05;3.21E-05;-0.000237015;-9.42E-05;-5.44E-05;1
2024/05/03/12:43:35.633647;31975;1714765415;633291136;world;-2.46E-05;-3.80E-05;4.06E-05;-0.000116859;-7.18E-05;-5.42E-05;1
2024/05/03/12:43:35.654085;31976;1714765415;653410223;world;-2.35E-05;-2.44E-05;5.19E-05;-3.49E-05;-6.24E-05;-7.45E-05;1
2024/05/03/12:43:35.663848;31977;1714765415;663133781;world;-1.98E-05;-1.60E-05;5.99E-05;3.32E-07;-0.000101344;-7.71E-05;1
2024/05/03/12:43:35.693446;31978;1714765415;693090672;world;-3.41E-06;-3.01E-05;4.46E-05;-1.81E-05;-5.45E-06;1.02E-05;1
2024/05/03/12:43:35.693503;31979;1714765415;693126759;world;-3.28E-05;-3.49E-05;2.55E-05;-0.000135496;-8.69E-05;-5.81E-05;1
2024/05/03/12:43:35.713434;31980;1714765415;713075720;world;-2.91E-05;-3.63E-05;5.21E-05;-0.000228329;-0.000117993;-0.000102411;1
2024/05/03/12:43:35.733489;31981;1714765415;733124654;world;-3.20E-05;-4.04E-05;3.45E-05;-0.000205453;-1.04E-05;-4.36E-05;1
2024/05/03/12:43:35.743549;31982;1714765415;743232713;world;-4.47E-05;-2.38E-05;2.76E-05;-0.000151006;-2.32E-05;-4.12E-05;1
2024/05/03/12:43:35.764016;31983;1714765415;763633559;world;-2.34E-05;-2.27E-05;4.17E-05;-5.57E-05;-3.16E-05;-6.52E-05;1
2024/05/03/12:43:35.773494;31984;1714765415;773119524;world;-2.51E-05;-3.34E-05;4.35E-05;-0.000185892;-7.99E-05;-4.92E-05;1
2024/05/03/12:43:35.793609;31985;1714765415;793192963;world;-3.25E-05;-5.54E-05;3.27E-05;-0.00028968;-0.000122259;-0.000160092;1
2024/05/03/12:43:35.804552;31986;1714765415;804080152;world;-4.65E-05;-8.07E-05;8.79E-06;-0.000392601;-7.47E-05;-0.000187656;0.999999881
2024/05/03/12:43:35.814151;31987;1714765415;813919958;world;-4.23E-05;-4.49E-05;2.99E-05;-0.000252671;-7.76E-05;-8.59E-05;1
2024/05/03/12:43:35.833806;31988;1714765415;833496756;world;-8.53E-07;-1.64E-05;4.93E-05;5.94E-05;-4.73E-06;1.14E-05;1
2024/05/03/12:43:35.863539;31989;1714765415;863142987;world;-8.27E-06;-2.79E-05;4.88E-05;-5.58E-05;-8.57E-05;-5.25E-05;1
2024/05/03/12:43:35.863575;31990;1714765415;863197980;world;-2.85E-05;-3.49E-05;3.65E-05;-0.000125513;-8.21E-05;-4.79E-05;1
2024/05/03/12:43:35.903381;31991;1714765415;903044794;world;-3.47E-06;-1.78E-05;4.71E-05;1.00E-05;-6.98E-05;-3.19E-05;1
2024/05/03/12:43:35.903409;31992;1714765415;903097692;world;-1.45E-05;-4.60E-05;3.71E-05;-6.29E-05;-2.57E-05;-9.33E-05;1
2024/05/03/12:43:35.914100;31993;1714765415;913783679;world;-1.64E-05;-3.48E-05;4.13E-05;-0.000131645;-3.44E-05;-5.64E-05;1
2024/05/03/12:43:35.933258;31994;1714765415;932915035;world;-3.33E-05;-2.68E-05;3.39E-05;-0.000193453;-0.000102632;-5.69E-05;1
2024/05/03/12:43:35.943836;31995;1714765415;943312201;world;-3.60E-05;-4.52E-05;2.57E-05;-0.00015293;-5.12E-05;-0.000113478;1
2024/05/03/12:43:35.963271;31996;1714765415;963029518;world;-5.36E-05;-4.09E-05;1.49E-05;-0.000284859;1.88E-05;-2.71E-05;1
2024/05/03/12:43:35.973648;31997;1714765415;973348031;world;-4.12E-05;-3.42E-05;3.44E-05;-0.000235676;-2.60E-05;-7.29E-05;1
2024/05/03/12:43:36.003896;31998;1714765416;3520536;world;-2.39E-05;-1.76E-05;4.69E-05;3.53E-07;-7.07E-06;-5.56E-05;1
2024/05/03/12:43:36.003917;31999;1714765416;3562845;world;-4.21E-05;-3.32E-05;4.69E-05;-7.88E-05;-6.72E-05;-4.81E-05;1
2024/05/03/12:43:36.023545;32000;1714765416;23308757;world;-4.04E-05;-2.97E-05;3.07E-05;-0.000160425;-9.00E-05;-8.70E-05;1
2024/05/03/12:43:36.043477;32001;1714765416;43274470;world;-3.12E-05;-2.74E-05;2.59E-05;-0.000147207;-4.44E-05;-1.53E-05;1
2024/05/03/12:43:36.053619;32002;1714765416;53294872;world;-2.83E-05;-3.77E-05;4.61E-05;-0.000150557;-0.000156146;-7.29E-05;1
2024/05/03/12:43:36.074319;32003;1714765416;73513399;world;-2.38E-05;-2.59E-05;4.58E-05;-0.00012297;-0.000101879;-5.39E-05;1
2024/05/03/12:43:36.103484;32004;1714765416;103115637;world;-1.40E-05;-2.96E-05;5.03E-05;-9.94E-05;-6.41E-05;-6.04E-05;1
2024/05/03/12:43:36.103490;32005;1714765416;103154159;world;-2.11E-05;-3.00E-05;4.72E-05;-9.96E-05;-4.99E-05;-5.21E-05;1
2024/05/03/12:43:36.123629;32006;1714765416;123356835;world;-2.59E-05;-3.80E-05;5.48E-05;-0.000173793;-0.000125935;-8.14E-05;1
2024/05/03/12:43:36.134456;32007;1714765416;133784798;world;-3.75E-05;-3.78E-05;3.50E-05;-0.000195856;-0.000109522;-7.91E-05;1
2024/05/03/12:43:36.153242;32008;1714765416;152972239;world;-1.73E-05;-1.99E-05;4.18E-05;-0.000115184;-6.57E-05;-3.24E-05;1
2024/05/03/12:43:36.173732;32009;1714765416;173445319;world;-1.82E-05;-3.71E-05;3.64E-05;-0.000147364;-6.14E-05;-2.25E-05;1
2024/05/03/12:43:36.173744;32010;1714765416;173482608;world;-1.45E-05;-1.65E-05;7.88E-06;-9.29E-05;1.14E-05;4.36E-06;1
2024/05/03/12:43:36.213550;32011;1714765416;213276489;world;-1.21E-05;-3.65E-05;3.45E-05;-8.31E-05;-6.28E-05;-5.59E-05;1
2024/05/03/12:43:36.213578;32012;1714765416;213307447;world;-2.44E-05;-2.98E-05;6.50E-05;-0.000141925;-0.000156816;-8.33E-05;1
2024/05/03/12:43:36.233656;32013;1714765416;233347375;world;-1.03E-05;-5.25E-05;5.95E-05;-0.000114144;-0.000105598;-0.000166245;1
2024/05/03/12:43:36.243345;32014;1714765416;243083070;world;-1.81E-05;-4.48E-05;2.33E-05;-0.000135153;6.93E-06;-4.57E-05;1
2024/05/03/12:43:36.273451;32015;1714765416;273076893;world;-1.28E-05;-3.16E-05;3.09E-05;-0.000111007;-5.28E-05;-5.23E-05;1
2024/05/03/12:43:36.273459;32016;1714765416;273112629;world;-4.52E-06;-3.56E-05;5.37E-05;-8.95E-05;-9.84E-05;-8.59E-05;1
2024/05/03/12:43:36.313485;32017;1714765416;313171089;world;-3.49E-05;-3.34E-05;4.83E-05;-0.000163387;-8.24E-05;-0.000101357;1
2024/05/03/12:43:36.313495;32018;1714765416;313217736;world;-2.80E-05;-3.96E-05;2.01E-05;-0.000144659;-9.12E-06;-0.00010333;1
2024/05/03/12:43:36.323747;32019;1714765416;323250760;world;-3.30E-05;-2.32E-05;1.30E-05;-8.95E-05;-1.94E-05;-2.30E-05;1
2024/05/03/12:43:36.333680;32020;1714765416;333158032;world;-3.41E-05;-2.87E-05;5.44E-05;-0.00015871;-0.000114584;-5.27E-05;1
2024/05/03/12:43:36.353489;32021;1714765416;353120568;world;-2.89E-05;-2.95E-05;4.67E-05;-0.000202454;-9.85E-05;-8.44E-05;1
2024/05/03/12:43:36.373954;32022;1714765416;373340025;world;-3.66E-05;-5.52E-05;3.87E-05;-0.000324193;-0.000133626;-0.000180892;1
2024/05/03/12:43:36.384202;32023;1714765416;383535299;world;-2.42E-05;-3.41E-05;1.37E-05;-0.000186647;-5.39E-05;-7.11E-05;1
2024/05/03/12:43:36.403507;32024;1714765416;403084109;world;-2.13E-05;-2.44E-05;4.67E-05;-0.000111318;-9.66E-05;-5.63E-05;1
2024/05/03/12:43:36.413502;32025;1714765416;413238291;world;-2.31E-05;-1.83E-05;4.51E-05;-8.47E-05;-6.33E-05;-4.55E-05;1
2024/05/03/12:43:36.433518;32026;1714765416;433195228;world;1.37E-05;-3.93E-05;4.61E-05;-0.000112664;-8.31E-05;-8.93E-05;1
2024/05/03/12:43:36.453489;32027;1714765416;452951701;world;-1.75E-05;-3.66E-05;2.61E-05;-0.000176584;-4.87E-05;-7.59E-05;1
2024/05/03/12:43:36.463370;32028;1714765416;463085575;world;-6.03E-05;-3.90E-05;4.29E-05;-0.000310358;-0.000195344;-0.000116549;1
2024/05/03/12:43:36.473568;32029;1714765416;473204161;world;-4.61E-05;-3.42E-05;3.47E-05;-0.000229585;-7.83E-05;-7.70E-05;1
2024/05/03/12:43:36.493173;32030;1714765416;492883399;world;-1.51E-05;-3.10E-05;4.76E-05;-0.00013023;-6.18E-05;-7.81E-05;1
2024/05/03/12:43:36.513205;32031;1714765416;512896612;world;-2.28E-06;-3.05E-05;5.09E-05;-3.02E-05;-5.67E-05;-4.81E-05;1
2024/05/03/12:43:36.523294;32032;1714765416;522990138;world;-6.59E-06;-3.04E-05;4.84E-05;-8.26E-05;-9.11E-05;-7.71E-05;1
2024/05/03/12:43:36.543675;32033;1714765416;543344256;world;-4.13E-05;-3.99E-05;3.82E-05;-0.000290939;-0.000113203;-4.63E-05;1
2024/05/03/12:43:36.553533;32034;1714765416;553238723;world;-8.85E-06;-1.29E-05;2.25E-05;-8.63E-05;-1.50E-05;1.59E-06;1
2024/05/03/12:43:36.583513;32035;1714765416;583201786;world;6.50E-05;-4.03E-05;2.99E-05;-0.0001298;-5.87E-05;-0.000247986;1
2024/05/03/12:43:36.593378;32036;1714765416;593004391;world;0.000708288;-4.42E-05;0.000138136;-0.000106873;-2.86E-05;-0.000721584;0.999999762
2024/05/03/12:43:36.603517;32037;1714765416;603265362;world;0.002089013;-6.23E-05;0.000123299;-0.000167893;0.000347864;-0.000517273;0.999999881
2024/05/03/12:43:36.623282;32038;1714765416;623091145;world;0.002945443;-7.61E-05;6.52E-05;-0.00037418;0.000462634;-0.000287754;0.999999762
2024/05/03/12:43:36.643522;32039;1714765416;643229610;world;0.005782604;-4.79E-05;0.000146744;-0.00026285;0.000314194;-0.000338628;0.999999881
2024/05/03/12:43:36.653562;32040;1714765416;653263730;world;0.006766883;-3.30E-05;0.000174993;4.39E-05;0.000409283;-0.00033035;0.999999881
2024/05/03/12:43:36.663662;32041;1714765416;663419382;world;0.008886389;6.38E-06;0.000249932;0.000976763;-0.000330977;-0.000187575;0.999999523
2024/05/03/12:43:36.683590;32042;1714765416;683304535;world;0.011046544;-2.05E-05;0.000319353;0.000505998;-0.000231932;8.05E-05;0.999999881
2024/05/03/12:43:36.703317;32043;1714765416;702982128;world;0.012960874;-0.000111936;0.000100321;-0.000895056;7.02E-05;-0.000113157;0.999999642
2024/05/03/12:43:36.723607;32044;1714765416;723312877;world;0.014895696;-0.000133985;9.36E-05;-0.001029929;0.000363326;-0.000102587;0.999999404
2024/05/03/12:43:36.733213;32045;1714765416;732966785;world;0.016970718;-2.13E-05;0.000202952;-0.000559289;0.000559315;1.17E-05;0.999999762
2024/05/03/12:43:36.743505;32046;1714765416;743316601;world;0.018095098;9.15E-06;0.00033636;-0.000163112;0.000518165;-7.95E-05;0.999999881
2024/05/03/12:43:36.753258;32047;1714765416;752994754;world;0.020190127;-8.45E-06;0.000280314;-0.000179346;-0.00023463;-0.000170573;1
2024/05/03/12:43:36.773154;32048;1714765416;772912398;world;0.022287555;1.78E-06;0.000162039;-0.000256362;-0.000552871;-3.05E-06;0.999999881
2024/05/03/12:43:36.793644;32049;1714765416;793350074;world;0.024435524;-3.70E-05;0.00013605;-0.00059345;-0.000123658;6.52E-05;0.999999881
2024/05/03/12:43:36.813197;32050;1714765416;812920910;world;0.026377469;-3.40E-05;0.000150648;-0.000385408;0.00036758;0.000233459;0.999999881
2024/05/03/12:43:36.823906;32051;1714765416;823312103;world;0.028387383;-1.37E-05;0.000268641;6.08E-05;0.000340926;0.00043985;0.999999881
2024/05/03/12:43:36.833049;32052;1714765416;832861757;world;0.029482115;-5.13E-05;0.00028812;-0.00010808;0.00038691;0.000354086;0.999999881
2024/05/03/12:43:36.853548;32053;1714765416;853060164;world;0.032567605;-4.91E-05;0.000212899;-0.000945883;0.000198137;0.000159759;0.999999523
2024/05/03/12:43:36.863257;32054;1714765416;863007416;world;0.033526946;-2.92E-05;0.000221148;-0.000911391;0.000102305;0.000141883;0.999999642
2024/05/03/12:43:36.883887;32055;1714765416;883534547;world;0.03557492;-8.23E-06;0.000374434;0.000345014;0.000231638;0.000469381;0.999999881
2024/05/03/12:43:36.903401;32056;1714765416;903030674;world;0.037245158;-2.80E-05;0.000325968;0.000449962;0.000324308;0.000690176;0.999999642
2024/05/03/12:43:36.914068;32057;1714765416;913409459;world;0.038813837;-7.24E-05;0.000267839;-0.000118021;0.00030304;0.000722823;0.999999762
2024/05/03/12:43:36.933455;32058;1714765416;933129665;world;0.040328614;-8.00E-05;0.000314549;-0.000356359;0.00038402;0.00065776;0.999999642
2024/05/03/12:43:36.943243;32059;1714765416;942926760;world;0.04194317;-9.47E-05;0.00040664;-0.000228127;0.00030385;0.000515866;0.999999881
2024/05/03/12:43:36.963470;32060;1714765416;963132772;world;0.043361712;-3.46E-05;0.000341156;0.000115763;0.000198259;0.000373261;0.999999881
2024/05/03/12:43:36.993506;32061;1714765416;993193238;world;0.044589136;-8.62E-05;0.000270048;-0.000234496;-4.56E-05;0.000466031;0.999999881
2024/05/03/12:43:36.993540;32062;1714765416;993235206;world;0.045654763;-0.000119062;0.00024194;-0.000564873;0.000224932;0.000420364;0.999999762
2024/05/03/12:43:37.013453;32063;1714765417;13155415;world;0.046193592;-0.000101658;0.000221749;-0.000548253;0.000197271;0.000392637;0.999999762
2024/05/03/12:43:37.023321;32064;1714765417;23028001;world;0.047280684;-0.000109633;0.000274358;-0.000508506;0.000128987;0.000403009;0.999999762
2024/05/03/12:43:37.043376;32065;1714765417;43069476;world;0.048192386;-0.000124641;0.000325409;-0.0003804;0.000154491;0.00036539;0.999999881
2024/05/03/12:43:37.053238;32066;1714765417;52936091;world;0.048953466;-0.000119652;0.000329884;-0.000471657;0.000184805;0.000438875;0.999999762
2024/05/03/12:43:37.073322;32067;1714765417;73003087;world;0.049685095;-9.86E-05;0.000321214;-0.00060523;0.000265264;0.000508069;0.999999642
2024/05/03/12:43:37.093411;32068;1714765417;93088354;world;0.050479606;-4.56E-05;0.000347781;-0.000430224;0.000410449;0.000564434;0.999999642
2024/05/03/12:43:37.103543;32069;1714765417;103222979;world;0.051169012;-1.60E-05;0.000390393;-0.00026412;0.000570184;0.000562093;0.999999642
2024/05/03/12:43:37.123855;32070;1714765417;123625027;world;0.051475655;-2.34E-05;0.000390956;-0.000293911;0.000564911;0.000561161;0.999999642
2024/05/03/12:43:37.133236;32071;1714765417;132925065;world;0.05207675;-1.65E-05;0.000392447;-0.000341152;0.000548455;0.000526086;0.999999642
2024/05/03/12:43:37.153257;32072;1714765417;153020422;world;0.052733015;-2.06E-05;0.000436784;-0.000195163;0.000319421;0.000445527;0.999999881
2024/05/03/12:43:37.163298;32073;1714765417;163049400;world;0.053332083;-5.02E-06;0.000439441;-0.00025604;0.000428772;0.000373446;0.999999881
2024/05/03/12:43:37.183423;32074;1714765417;183175273;world;0.053872932;3.37E-06;0.000446614;-0.000206873;0.000511227;0.000429908;0.999999762
2024/05/03/12:43:37.193885;32075;1714765417;193123962;world;0.054406211;4.65E-06;0.000500214;-8.32E-05;0.000394195;0.0003979;0.999999881
2024/05/03/12:43:37.223292;32076;1714765417;222999724;world;0.055004597;1.18E-05;0.00052211;7.77E-05;5.14E-05;0.000380769;1
2024/05/03/12:43:37.233289;32077;1714765417;233036546;world;0.055622704;4.57E-06;0.000497339;7.65E-05;-2.94E-05;0.000398611;1
2024/05/03/12:43:37.243689;32078;1714765417;243429113;world;0.05620645;2.17E-05;0.00048903;0.00014222;-0.000120498;0.000433537;0.999999881
2024/05/03/12:43:37.253442;32079;1714765417;253218483;world;0.056525461;2.42E-05;0.000487063;0.000312115;-4.80E-05;0.000513233;0.999999881
2024/05/03/12:43:37.273298;32080;1714765417;273000284;world;0.057092443;2.91E-05;0.000399676;-2.39E-05;6.04E-05;0.000468499;0.999999881
2024/05/03/12:43:37.293180;32081;1714765417;292916667;world;0.057652526;1.73E-05;0.000371249;-0.000229627;3.18E-05;0.00041057;0.999999881
2024/05/03/12:43:37.303392;32082;1714765417;303168719;world;0.058211699;1.05E-05;0.000430619;-0.00010507;0.000162375;0.00040767;0.999999881
2024/05/03/12:43:37.323970;32083;1714765417;323438681;world;0.058956657;5.42E-05;0.000529902;0.000502276;0.000451573;0.000568288;0.999999642
2024/05/03/12:43:37.333321;32084;1714765417;332978346;world;0.059678491;1.31E-05;0.000707277;0.000761073;0.000380826;0.000432504;0.999999523
2024/05/03/12:43:37.353623;32085;1714765417;353188509;world;0.060024671;1.64E-05;0.00065002;0.000564961;0.000330027;0.000447775;0.999999762
2024/05/03/12:43:37.363265;32086;1714765417;362968781;world;0.060656331;1.17E-05;0.000500806;0.000119122;0.000450237;0.000544878;0.999999762
2024/05/03/12:43:37.383320;32087;1714765417;383043029;world;0.061313372;-5.78E-06;0.000477165;-6.50E-05;0.000653494;0.000531151;0.999999642
2024/05/03/12:43:37.403415;32088;1714765417;403105932;world;0.061975308;-2.98E-05;0.000531252;-0.000147712;0.000817353;0.000492714;0.999999523
2024/05/03/12:43:37.414118;32089;1714765417;413294167;world;0.062707976;-3.58E-05;0.000543866;-0.000293667;0.000761267;0.000554592;0.999999523
2024/05/03/12:43:37.433232;32090;1714765417;432930478;world;0.063507363;-2.85E-06;0.000565701;0.000137665;0.000566467;0.000657576;0.999999642
2024/05/03/12:43:37.443872;32091;1714765417;443407872;world;0.064338833;-2.44E-05;0.000612138;0.000302338;0.000312566;0.000690591;0.999999642
2024/05/03/12:43:37.463229;32092;1714765417;462876337;world;0.065268755;-5.02E-05;0.000657077;0.000176306;0.000229212;0.000664145;0.999999762
2024/05/03/12:43:37.473432;32093;1714765417;473114507;world;0.065694302;-5.54E-05;0.000639652;8.80E-05;0.00036356;0.000682955;0.999999762
2024/05/03/12:43:37.503637;32094;1714765417;503312920;world;0.066491835;-6.71E-05;0.00063007;-0.000159736;0.000463043;0.000666626;0.999999642
2024/05/03/12:43:37.503655;32095;1714765417;503348456;world;0.067351222;-8.45E-05;0.000648648;-0.000139566;6.69E-05;0.000555369;0.999999881
2024/05/03/12:43:37.543509;32096;1714765417;543105221;world;0.068831198;-1.79E-05;0.000684727;0.000798394;0.000553838;0.000791612;0.999999285
2024/05/03/12:43:37.543535;32097;1714765417;543130698;world;0.069282442;9.17E-07;0.000718674;0.000896397;0.000471143;0.000786445;0.999999166
2024/05/03/12:43:37.553571;32098;1714765417;553287494;world;0.070127882;4.13E-06;0.000815676;0.001392707;8.16E-05;0.000728469;0.999998808
2024/05/03/12:43:37.573406;32099;1714765417;573120921;world;0.071027003;-2.39E-05;0.000742648;0.000858668;0.000135091;0.000814119;0.999999285
2024/05/03/12:43:37.583069;32100;1714765417;582873904;world;0.071883932;-9.08E-05;0.000594175;-0.000227573;0.000187156;0.000880486;0.999999642
2024/05/03/12:43:37.603607;32101;1714765417;603081608;world;0.072693296;-0.000128409;0.000535143;-0.000576606;0.000108375;0.000893394;0.999999404
2024/05/03/12:43:37.613418;32102;1714765417;613088237;world;0.073122248;-0.000135634;0.000578006;-0.000551178;-6.27E-07;0.00083264;0.999999523
2024/05/03/12:43:37.634085;32103;1714765417;633711505;world;0.074530706;-0.000102215;0.000679891;9.18E-05;4.13E-05;0.000855972;0.999999642
2024/05/03/12:43:37.643361;32104;1714765417;643087625;world;0.075010478;-0.000111304;0.000740009;0.000332609;-9.24E-06;0.000831501;0.999999642
2024/05/03/12:43:37.663440;32105;1714765417;662868073;world;0.075957611;-8.96E-05;0.000821634;0.001089368;0.000126611;0.000962442;0.999998927
2024/05/03/12:43:37.684142;32106;1714765417;683221642;world;0.076925933;-7.26E-05;0.000827198;0.001203097;0.000583457;0.001074987;0.999998569
2024/05/03/12:43:37.703697;32107;1714765417;703413604;world;0.07779818;-9.37E-05;0.000702963;0.000271586;0.000924429;0.001025684;0.999999046
2024/05/03/12:43:37.713586;32108;1714765417;713233336;world;0.078584164;-0.000140585;0.000643103;-0.000290392;0.001068406;0.001041444;0.999998927
2024/05/03/12:43:37.753259;32109;1714765417;753034113;world;0.079099581;-0.000127512;0.000683956;-0.000111787;0.001089746;0.000957333;0.999998927
2024/05/03/12:43:37.753280;32110;1714765417;753067074;world;0.080057815;-0.000133554;0.000702115;2.76E-05;0.000840234;0.000937599;0.999999285
2024/05/03/12:43:37.763262;32111;1714765417;763056919;world;0.080943927;-0.000139267;0.000745225;0.000408168;0.000277541;0.000850967;0.999999523
2024/05/03/12:43:37.773469;32112;1714765417;773204298;world;0.081796721;-0.000149294;0.000692083;0.00028398;-2.52E-05;0.00083129;0.999999642
2024/05/03/12:43:37.794778;32113;1714765417;793258637;world;0.082681522;-0.000182983;0.00070409;0.000192464;-0.000203963;0.000907377;0.999999523
2024/05/03/12:43:37.813926;32114;1714765417;813542247;world;0.083498441;-0.000172372;0.000741405;1.45E-05;-0.00019377;0.001076625;0.999999404
2024/05/03/12:43:37.823639;32115;1714765417;822994609;world;0.084353611;-0.000142377;0.000803489;0.000310897;0.000130816;0.001112804;0.999999404
2024/05/03/12:43:37.844703;32116;1714765417;844038585;world;0.084772445;-0.000126854;0.000843599;0.000398243;0.000246837;0.001109664;0.999999285
2024/05/03/12:43:37.853629;32117;1714765417;853321242;world;0.085609049;-9.71E-05;0.000944367;0.000938075;0.00025148;0.000955026;0.999999046
2024/05/03/12:43:37.863322;32118;1714765417;863025422;world;0.086439535;-0.000114375;0.001129248;0.001549187;-3.36E-05;0.000759977;0.999998569
2024/05/03/12:43:37.883741;32119;1714765417;883397245;world;0.087324381;-9.67E-05;0.001090116;0.001236567;9.69E-05;0.000871598;0.999998927
2024/05/03/12:43:37.893233;32120;1714765417;892931971;world;0.088113621;-0.000102689;0.00097937;0.000531192;2.95E-05;0.000839813;0.999999523
2024/05/03/12:43:37.913368;32121;1714765417;913069015;world;0.088911653;-0.000131518;0.000944502;0.000224969;-1.18E-05;0.000888727;0.999999642
2024/05/03/12:43:37.953364;32122;1714765417;953073440;world;0.089826949;-0.000120739;0.000975496;0.00061297;0.000365339;0.000971141;0.999999285
2024/05/03/12:43:37.953389;32123;1714765417;953112363;world;0.090567835;-0.000157065;0.000973382;-5.19E-06;0.000649994;0.001015853;0.999999285
2024/05/03/12:43:37.963355;32124;1714765417;963046143;world;0.091417864;-0.000129742;0.001096414;0.000660631;0.00027799;0.001002562;0.999999285
2024/05/03/12:43:37.973752;32125;1714765417;973357186;world;0.092255652;-0.000177041;0.001126808;0.00096096;0.000133358;0.001055482;0.999999046
2024/05/03/12:43:37.993377;32126;1714765417;993110073;world;0.093177199;-0.000174339;0.001016138;0.000597977;3.79E-05;0.001014218;0.999999285
2024/05/03/12:43:38.013577;32127;1714765418;13308573;world;0.093573906;-0.000189131;0.000961857;0.00027528;0.000103094;0.001023987;0.999999404
2024/05/03/12:43:38.023399;32128;1714765418;22912468;world;0.094397679;-0.000176244;0.00092067;0.000142013;0.000200091;0.000923099;0.999999523
2024/05/03/12:43:38.054488;32129;1714765418;53568002;world;0.095264621;-0.000146744;0.000944938;0.000307387;0.000227121;0.000986274;0.999999523
2024/05/03/12:43:38.054492;32130;1714765418;53606464;world;0.0961399;-0.000170056;0.00104219;0.000466557;0.000282531;0.000972781;0.999999404
2024/05/03/12:43:38.073293;32131;1714765418;73008598;world;0.096975103;-0.000199461;0.001105346;0.000518055;0.000183046;0.000941327;0.999999404
2024/05/03/12:43:38.093333;32132;1714765418;93007764;world;0.097762011;-0.000204336;0.001081676;0.000717595;0.00026892;0.000874932;0.999999404
2024/05/03/12:43:38.113304;32133;1714765418;112974993;world;0.098546527;-0.000227653;0.001055337;0.00047168;-2.10E-05;0.000768376;0.999999642
2024/05/03/12:43:38.113324;32134;1714765418;113027651;world;0.098971434;-0.000245305;0.001055015;0.000498942;-9.59E-05;0.000748646;0.999999642
2024/05/03/12:43:38.163484;32135;1714765418;163185418;world;0.09982387;-0.000240042;0.001068542;0.000531451;-0.000136767;0.000848514;0.999999523
2024/05/03/12:43:38.163512;32137;1714765418;163230211;world;0.101491198;-0.000222162;0.001012411;0.000673883;0.000263601;0.001223627;0.999999046
2024/05/03/12:43:38.183575;32138;1714765418;183202323;world;0.102335528;-0.000223029;0.001036447;0.000501541;0.000232559;0.001259971;0.999999046
2024/05/03/12:43:38.193568;32139;1714765418;193271662;world;0.103208572;-0.000237256;0.001187633;0.000878713;0.000174496;0.001131779;0.999999046
2024/05/03/12:43:38.223640;32140;1714765418;223180344;world;0.104107924;-0.000228894;0.001263459;0.001667272;-0.000397718;0.001107122;0.999997973
2024/05/03/12:43:38.223666;32141;1714765418;223212995;world;0.104940519;-0.00025007;0.001312999;0.00202298;-0.000491725;0.001176404;0.999997139
2024/05/03/12:43:38.253637;32142;1714765418;253397533;world;0.105755486;-0.00024824;0.001266773;0.001466317;-0.000403791;0.001211634;0.999998093
2024/05/03/12:43:38.263554;32143;1714765418;263293373;world;0.106494889;-0.000270981;0.001141167;0.000806143;-0.000156397;0.00119114;0.999998927
2024/05/03/12:43:38.273639;32144;1714765418;273337749;world;0.106901571;-0.000271888;0.001113269;0.000646206;-0.00026128;0.001111504;0.999999166
2024/05/03/12:43:38.293641;32145;1714765418;293333189;world;0.108209565;-0.000282169;0.001287231;0.001213023;-0.000397926;0.001123522;0.999998569
2024/05/03/12:43:38.303668;32146;1714765418;303368438;world;0.108625248;-0.00030267;0.001328225;0.001307532;-0.000457297;0.00112258;0.99999845
2024/05/03/12:43:38.323551;32147;1714765418;322984852;world;0.10949754;-0.00034382;0.001317152;0.00102023;-0.000122795;0.001180816;0.999998808
2024/05/03/12:43:38.344124;32148;1714765418;343096408;world;0.110358648;-0.000341934;0.001158671;0.000369179;0.000102066;0.00115298;0.999999285
2024/05/03/12:43:38.353286;32149;1714765418;352957452;world;0.111156017;-0.000372068;0.001140132;3.05E-05;5.24E-05;0.001195011;0.999999285
2024/05/03/12:43:38.373866;32150;1714765418;373624266;world;0.111987688;-0.000331921;0.001183067;0.000314682;8.97E-05;0.001330357;0.999999046
2024/05/03/12:43:38.383872;32151;1714765418;383358594;world;0.112367935;-0.00033408;0.001176313;0.000372119;0.000139546;0.001362028;0.999999046
2024/05/03/12:43:38.393589;32152;1714765418;393341672;world;0.113290153;-0.000337736;0.001210832;0.000713443;0.000425686;0.001416892;0.999998689
2024/05/03/12:43:38.423378;32153;1714765418;423052919;world;0.114209563;-0.000340356;0.001244048;0.000638913;0.000467263;0.001547238;0.999998569
2024/05/03/12:43:38.433393;32154;1714765418;433105413;world;0.115169883;-0.000358369;0.001332726;0.001022462;0.000215368;0.001495872;0.999998331
2024/05/03/12:43:38.443265;32155;1714765418;442962810;world;0.115999453;-0.000379828;0.001316854;0.001195755;-5.78E-05;0.00135169;0.99999845
2024/05/03/12:43:38.463295;32156;1714765418;463010941;world;0.116783723;-0.000393866;0.00132765;0.001153729;-0.000341238;0.001331775;0.99999845
2024/05/03/12:43:38.473335;32157;1714765418;473019147;world;0.117209285;-0.000390786;0.001330101;0.001150948;-0.000322287;0.001361851;0.999998331
2024/05/03/12:43:38.493378;32158;1714765418;493094519;world;0.118007258;-0.000396584;0.001315028;0.001026183;-0.000174925;0.001482438;0.999998331
2024/05/03/12:43:38.503375;32159;1714765418;503074486;world;0.118829116;-0.000410812;0.001302986;0.001072967;-5.55E-05;0.001497927;0.999998331
2024/05/03/12:43:38.534007;32160;1714765418;533192199;world;0.120130479;-0.000379503;0.001320225;0.000777932;-0.000383254;0.001360877;0.999998689
2024/05/03/12:43:38.553514;32161;1714765418;553111419;world;0.120558575;-0.000392176;0.00136063;0.000778578;-0.000433093;0.001406742;0.999998689
2024/05/03/12:43:38.563518;32162;1714765418;563235294;world;0.121417508;-0.000391918;0.001415454;0.000935706;-0.000467123;0.001385175;0.999998569
2024/05/03/12:43:38.573299;32163;1714765418;572968891;world;0.12226744;-0.00035386;0.001397473;0.000995002;-0.000151771;0.001220671;0.999998808
2024/05/03/12:43:38.583180;32164;1714765418;582942336;world;0.123112343;-0.000304178;0.001409834;0.000964833;-8.95E-05;0.001247314;0.999998808
2024/05/03/12:43:38.603428;32165;1714765418;603147597;world;0.123607293;-0.000263783;0.001415373;0.001152909;0.000133592;0.001298155;0.999998569
2024/05/03/12:43:38.633398;32166;1714765418;633102315;world;0.124434218;-0.000276887;0.001402216;0.00111997;0.000135055;0.001436432;0.999998331
2024/05/03/12:43:38.633421;32167;1714765418;633135406;world;0.125604257;-0.000275605;0.001458611;0.001291466;0.000140433;0.001389998;0.999998212
2024/05/03/12:43:38.653755;32168;1714765418;652982240;world;0.126041144;-0.00028972;0.00144985;0.001284739;0.000127397;0.001366768;0.999998212
2024/05/03/12:43:38.663369;32169;1714765418;663048047;world;0.126955092;-0.000309605;0.001388547;0.000870276;-0.000215681;0.001299614;0.999998808
2024/05/03/12:43:38.683312;32170;1714765418;683070218;world;0.12782079;-0.000311071;0.001334634;0.00043485;-0.000360122;0.001187327;0.999999166
2024/05/03/12:43:38.693381;32171;1714765418;693011551;world;0.128654763;-0.000289734;0.001299913;0.000381388;-0.00030765;0.001202657;0.999999166
2024/05/03/12:43:38.713183;32172;1714765418;712893531;world;0.129455686;-0.000278728;0.001288701;0.000216764;-0.00019765;0.001299376;0.999999166
2024/05/03/12:43:38.733406;32173;1714765418;733067906;world;0.129844561;-0.000271501;0.001322441;0.000319394;-0.000161828;0.001336709;0.999999046
2024/05/03/12:43:38.743651;32174;1714765418;743340148;world;0.130578905;-0.000280394;0.001388703;0.000348729;-0.000157319;0.001364827;0.999999046
2024/05/03/12:43:38.773234;32175;1714765418;772895924;world;0.131433591;-0.000315632;0.00142287;0.000488702;-3.18E-05;0.001308588;0.999999046
2024/05/03/12:43:38.773262;32176;1714765418;772936690;world;0.132312566;-0.000318737;0.001448569;0.000655002;-0.000296185;0.00126672;0.999998927
2024/05/03/12:43:38.793513;32177;1714765418;793221048;world;0.133215964;-0.000298206;0.001487853;0.000938098;-0.000405655;0.001353477;0.999998569
2024/05/03/12:43:38.803199;32178;1714765418;802909901;world;0.13405107;-0.000316533;0.001468979;0.000911119;-0.000228966;0.001231335;0.999998808
2024/05/03/12:43:38.833325;32179;1714765418;833024198;world;0.134889156;-0.000298897;0.001441783;0.000990249;-0.000192121;0.001280835;0.999998689
2024/05/03/12:43:38.833351;32180;1714765418;833058281;world;0.135715768;-0.000276138;0.001464056;0.00096856;-0.000254274;0.001408652;0.999998569
2024/05/03/12:43:38.863441;32181;1714765418;863094963;world;0.136579126;-0.000276847;0.001536861;0.001232055;-0.000272471;0.001418042;0.999998212
2024/05/03/12:43:38.873252;32182;1714765418;873002655;world;0.136992082;-0.000286201;0.001528774;0.001129735;-0.000180216;0.001378508;0.99999845
2024/05/03/12:43:38.883342;32183;1714765418;883061290;world;0.137780726;-0.000317421;0.001517979;0.000623006;-0.000353582;0.001317725;0.999998927
2024/05/03/12:43:38.893580;32184;1714765418;893285592;world;0.13858147;-0.000332931;0.001491109;0.000421576;-0.000448368;0.001250798;0.999999046
2024/05/03/12:43:38.913371;32185;1714765418;913061252;world;0.139473915;-0.000308591;0.001553535;0.000689876;-0.000542449;0.001283185;0.999998808
2024/05/03/12:43:38.933549;32186;1714765418;933250995;world;0.140335545;-0.000287427;0.001540478;0.001064805;-0.00040942;0.001294472;0.999998569
2024/05/03/12:43:38.943424;32187;1714765418;943222388;world;0.141111046;-0.000270656;0.001543764;0.00104472;-0.000324888;0.001377499;0.99999845
2024/05/03/12:43:38.973442;32188;1714765418;973226909;world;0.141896874;-0.000240613;0.001532842;0.000753799;-0.000350606;0.001480389;0.999998569
2024/05/03/12:43:38.973469;32189;1714765418;973256715;world;0.142743886;-0.000271332;0.001532471;0.000445129;-0.000261448;0.001486064;0.999998808
2024/05/03/12:43:38.993426;32190;1714765418;993173747;world;0.143567637;-0.000290707;0.001534822;0.000376344;-0.000635308;0.001461516;0.999998689
2024/05/03/12:43:39.003338;32191;1714765419;2943114;world;0.143942118;-0.000296791;0.001524577;0.000185457;-0.00069357;0.00148309;0.999998689
2024/05/03/12:43:39.023564;32192;1714765419;23270716;world;0.144791931;-0.00025927;0.001510221;0.000242783;-0.000890312;0.001475363;0.999998569
2024/05/03/12:43:39.043266;32193;1714765419;42954704;world;0.145670876;-0.000232796;0.001499998;9.71E-05;-0.000812034;0.001528917;0.999998569
2024/05/03/12:43:39.063558;32194;1714765419;63262265;world;0.146620512;-0.000174269;0.001425717;0.000215943;-0.000205952;0.001767862;0.99999845
2024/05/03/12:43:39.073527;32195;1714765419;73249229;world;0.147335038;-0.00018594;0.001366388;-2.87E-05;-0.000189508;0.001785364;0.99999845
2024/05/03/12:43:39.083364;32196;1714765419;83069668;world;0.147713482;-0.000243954;0.001392327;9.43E-05;-0.000304988;0.001616406;0.999998689
2024/05/03/12:43:39.103193;32197;1714765419;102900142;world;0.149105266;-0.000195641;0.001645919;0.00099504;-0.000718487;0.001663112;0.999997854
2024/05/03/12:43:39.123544;32198;1714765419;123300910;world;0.149939895;-0.000196122;0.001641638;0.001085861;-0.001078488;0.001556476;0.999997616
2024/05/03/12:43:39.143874;32199;1714765419;143288594;world;0.150325134;-0.000189414;0.001630895;0.0010931;-0.001086349;0.001568582;0.999997616
2024/05/03/12:43:39.153527;32200;1714765419;153188482;world;0.151607275;-0.000180364;0.001702522;0.00136981;-0.001575461;0.001515191;0.999996662
2024/05/03/12:43:39.174012;32201;1714765419;173352838;world;0.15202038;-0.000181676;0.001710568;0.001342567;-0.001409416;0.001594064;0.999996901
2024/05/03/12:43:39.183424;32202;1714765419;183122052;world;0.152842253;-0.000171782;0.001696034;0.001219422;-0.001135315;0.001594184;0.999997377
2024/05/03/12:43:39.193169;32203;1714765419;192856432;world;0.153585613;-0.000190802;0.001610431;0.000710482;-0.001010012;0.001668921;0.999997854
2024/05/03/12:43:39.213423;32204;1714765419;213163154;world;0.154386237;-0.000205453;0.001604565;0.000269968;-0.001174013;0.001679821;0.999997854
2024/05/03/12:43:39.223471;32205;1714765419;223037683;world;0.155255347;-0.000204435;0.001614181;7.18E-06;-0.001003679;0.00159773;0.999998212
2024/05/03/12:43:39.243541;32206;1714765419;243227727;world;0.155663177;-0.000210714;0.001627053;-0.000103582;-0.000929733;0.001561778;0.999998331
2024/05/03/12:43:39.283656;32207;1714765419;283160931;world;0.156494319;-0.00017591;0.001629712;-6.87E-05;-0.001009963;0.001540782;0.999998331
2024/05/03/12:43:39.283684;32208;1714765419;283196838;world;0.157386616;-0.000166582;0.00162193;0.00039796;-0.000870131;0.001546758;0.999998331
2024/05/03/12:43:39.293145;32209;1714765419;292863472;world;0.158236623;-0.000150624;0.001716962;0.000671448;-0.000879883;0.00162866;0.999998093
2024/05/03/12:43:39.303611;32210;1714765419;303306462;world;0.15910992;-0.000152853;0.001769326;0.00076451;-0.000823137;0.001575055;0.999998212
2024/05/03/12:43:39.323336;32211;1714765419;323023283;world;0.159979835;-0.000138199;0.001736242;0.000882664;-0.000769873;0.001626012;0.999997973
2024/05/03/12:43:39.343409;32212;1714765419;342974892;world;0.160903722;-8.54E-05;0.00176622;0.001152648;-0.001117794;0.001704935;0.999997258
2024/05/03/12:43:39.353506;32213;1714765419;353230575;world;0.161327228;-9.43E-05;0.001750825;0.00086699;-0.001217893;0.001682057;0.999997497
2024/05/03/12:43:39.383759;32214;1714765419;383251888;world;0.162071228;-8.32E-05;0.00171688;0.00049673;-0.001360522;0.001578648;0.999997735
2024/05/03/12:43:39.383764;32215;1714765419;383291532;world;0.162841633;-8.35E-05;0.001717518;0.000450082;-0.001102064;0.001645651;0.999997973
2024/05/03/12:43:39.393507;32216;1714765419;393190239;world;0.163640991;-9.41E-05;0.001720712;0.000389237;-0.000981699;0.001667983;0.999998093
2024/05/03/12:43:39.413716;32217;1714765419;413284384;world;0.164498478;-9.55E-05;0.001723592;0.000353161;-0.000910126;0.001738789;0.999998093
2024/05/03/12:43:39.433369;32218;1714765419;433120954;world;0.165311873;-9.43E-05;0.001734184;0.000196926;-0.000860529;0.001776456;0.999998093
2024/05/03/12:43:39.443387;32219;1714765419;443106896;world;0.166199222;-8.26E-05;0.00173945;0.000184401;-0.000738488;0.001902625;0.999997973
2024/05/03/12:43:39.463431;32220;1714765419;463132494;world;0.167059779;-6.79E-05;0.001785228;0.000142927;-0.000838015;0.001841255;0.999997973
2024/05/03/12:43:39.484283;32221;1714765419;483508304;world;0.167959124;-5.19E-05;0.001840183;0.000854978;-0.000601761;0.00189588;0.999997735
2024/05/03/12:43:39.493212;32222;1714765419;492962573;world;0.1683781;-3.83E-05;0.001907724;0.001252511;-0.000865213;0.001836654;0.999997139
2024/05/03/12:43:39.503873;32223;1714765419;503447041;world;0.169220492;-1.20E-05;0.001941318;0.001602449;-0.001256004;0.00184602;0.999996305
2024/05/03/12:43:39.523491;32224;1714765419;523187835;world;0.170069218;-1.83E-05;0.001926499;0.001298973;-0.001223103;0.001875802;0.999996662
2024/05/03/12:43:39.553240;32225;1714765419;552912415;world;0.170895353;-1.85E-05;0.001954298;0.000946474;-0.001078821;0.001934527;0.999997139
2024/05/03/12:43:39.553263;32226;1714765419;552949694;world;0.171703562;-4.17E-05;0.001974796;0.000777247;-0.00087713;0.0018845;0.999997616
2024/05/03/12:43:39.583427;32227;1714765419;582938068;world;0.1726183;-1.34E-05;0.001974985;0.001097922;-0.00101854;0.0018798;0.999997139
2024/05/03/12:43:39.583575;32228;1714765419;582972562;world;0.173480049;2.75E-06;0.001994041;0.001344936;-0.001222924;0.00197495;0.999996424
2024/05/03/12:43:39.603641;32229;1714765419;603373080;world;0.17389299;3.77E-06;0.001976757;0.001245452;-0.001248328;0.001984427;0.999996543
2024/05/03/12:43:39.623399;32230;1714765419;623035900;world;0.174792618;2.01E-05;0.00187909;0.000671066;-0.001032673;0.001776752;0.999997735
2024/05/03/12:43:39.633820;32231;1714765419;633394042;world;0.175965935;-5.87E-05;0.001783334;-0.000190674;-0.001380082;0.001645845;0.999997735
2024/05/03/12:43:39.653398;32232;1714765419;653084894;world;0.176327199;-7.90E-05;0.001785891;-0.000236509;-0.001348325;0.001726285;0.999997616
2024/05/03/12:43:39.663857;32233;1714765419;663128010;world;0.177196294;-8.11E-05;0.001878404;8.90E-05;-0.000971226;0.001970724;0.999997616
2024/05/03/12:43:39.693504;32234;1714765419;693113396;world;0.178093702;-8.94E-05;0.00195668;0.00037809;-0.001040621;0.002016811;0.999997377
2024/05/03/12:43:39.693534;32235;1714765419;693148952;world;0.179038942;-2.24E-05;0.001841029;0.000406558;-0.001119404;0.001986929;0.999997377
2024/05/03/12:43:39.713498;32236;1714765419;713200369;world;0.179970473;-7.27E-06;0.001942863;0.000849991;-0.001019481;0.00196072;0.999997258
2024/05/03/12:43:39.723705;32237;1714765419;723395643;world;0.180384547;-8.85E-07;0.001989912;0.001033378;-0.001169318;0.001949026;0.999996901
2024/05/03/12:43:39.743479;32238;1714765419;743185354;world;0.181160703;1.81E-05;0.001898787;0.000800642;-0.001242715;0.001961656;0.99999702
2024/05/03/12:43:39.753570;32239;1714765419;753147039;world;0.182003513;2.06E-05;0.001890454;0.000844576;-0.001229624;0.001970248;0.99999702
2024/05/03/12:43:39.783586;32240;1714765419;783179272;world;0.182805404;-2.90E-06;0.001913035;0.00084154;-0.001093465;0.001942893;0.999997139
2024/05/03/12:43:39.783612;32241;1714765419;783223765;world;0.183657393;1.68E-06;0.001989202;0.000726344;-0.001168394;0.001783622;0.999997497
2024/05/03/12:43:39.803560;32242;1714765419;803239774;world;0.184558317;3.07E-06;0.002014974;0.000660506;-0.001596965;0.001784305;0.999996901
2024/05/03/12:43:39.823523;32243;1714765419;823256926;world;0.185344502;1.22E-06;0.002013032;0.000963504;-0.00191543;0.001835443;0.999996066
2024/05/03/12:43:39.833426;32244;1714765419;832962192;world;0.185777396;1.13E-05;0.002057595;0.001352982;-0.002088134;0.001816352;0.999995232
2024/05/03/12:43:39.863408;32245;1714765419;863057384;world;0.186639562;2.77E-05;0.002095595;0.001722457;-0.001942854;0.001808783;0.999994993
2024/05/03/12:43:39.863432;32246;1714765419;863101807;world;0.187428787;7.53E-06;0.001999189;0.001084997;-0.001851576;0.001792918;0.999996066
2024/05/03/12:43:39.893743;32247;1714765419;893452784;world;0.188233674;3.39E-05;0.001964562;0.000443508;-0.001797833;0.002071258;0.999996185
2024/05/03/12:43:39.893807;32248;1714765419;893485775;world;0.189031363;6.92E-05;0.002029453;0.000694011;-0.001143758;0.002099558;0.999996901
2024/05/03/12:43:39.913527;32249;1714765419;913241160;world;0.189962626;5.79E-05;0.002119885;0.000919446;-0.001093018;0.001996651;0.99999702
2024/05/03/12:43:39.933439;32250;1714765419;933093824;world;0.190849423;6.18E-05;0.00215804;0.001107008;-0.001052057;0.001993726;0.999996901
2024/05/03/12:43:39.963480;32251;1714765419;963116299;world;0.191651866;8.80E-05;0.002086502;0.000871351;-0.000899518;0.001968446;0.999997258
2024/05/03/12:43:39.963516;32252;1714765419;963152287;world;0.192550421;0.000117115;0.001989121;0.000791708;-0.00092642;0.001988728;0.999997258
2024/05/03/12:43:39.983642;32253;1714765419;983337201;world;0.19296132;0.000116292;0.001981984;0.000630875;-0.001001146;0.002000862;0.999997377
2024/05/03/12:43:39.993352;32254;1714765419;993074737;world;0.193794757;0.000107347;0.001996984;0.000674981;-0.001260783;0.002003328;0.99999702
2024/05/03/12:43:40.003922;32255;1714765420;3405564;world;0.194667906;0.000150616;0.001992301;0.00063712;-0.001326979;0.001955188;0.99999702
2024/05/03/12:43:40.023664;32256;1714765420;23210885;world;0.195491821;0.000115812;0.001975037;0.000755294;-0.001335637;0.001877901;0.999997139
2024/05/03/12:43:40.033650;32257;1714765420;33309955;world;0.196341768;8.53E-05;0.002057893;0.000720651;-0.00177019;0.001811501;0.999996543
2024/05/03/12:43:40.063636;32258;1714765420;63379215;world;0.197212681;0.000139596;0.00211592;0.001108669;-0.001830713;0.00184204;0.999996066
2024/05/03/12:43:40.073517;32259;1714765420;73228314;world;0.198027;0.000161292;0.002166154;0.001191058;-0.001623082;0.001909212;0.999996185
2024/05/03/12:43:40.093417;32260;1714765420;93066431;world;0.198837474;0.000182885;0.002151521;0.001098929;-0.001447854;0.001940768;0.999996543
2024/05/03/12:43:40.103644;32261;1714765420;103389439;world;0.199655592;0.00017893;0.002037788;0.000542702;-0.001323135;0.002010365;0.99999702
2024/05/03/12:43:40.113346;32262;1714765420;113039200;world;0.2001037;0.000170189;0.002007641;0.000297639;-0.001243589;0.002017863;0.999997139
2024/05/03/12:43:40.133521;32263;1714765420;133230868;world;0.200998992;0.000152937;0.002121608;0.000609931;-0.001112526;0.00206621;0.999997139
2024/05/03/12:43:40.163291;32264;1714765420;163036500;world;0.202301219;0.000125093;0.002226931;0.000878081;-0.001241206;0.0020957;0.999996662
2024/05/03/12:43:40.163324;32265;1714765420;163072988;world;0.202722296;0.000118499;0.002212777;0.000678044;-0.001288948;0.002018971;0.999996901
2024/05/03/12:43:40.183506;32266;1714765420;183143720;world;0.203563765;0.000112861;0.00221033;0.000558418;-0.001297152;0.001976563;0.99999702
2024/05/03/12:43:40.203526;32267;1714765420;203214625;world;0.204341337;0.000122448;0.002253503;0.000638684;-0.001188739;0.002003773;0.999997139
2024/05/03/12:43:40.213154;32268;1714765420;212877569;world;0.205168635;0.000126324;0.002258013;0.000810316;-0.001067544;0.002012325;0.999997139
2024/05/03/12:43:40.233444;32269;1714765420;233158204;world;0.206045777;0.000137084;0.002271647;0.00094356;-0.001080569;0.001936128;0.999997139
2024/05/03/12:43:40.243518;32270;1714765420;243215945;world;0.206883773;0.000157417;0.002225623;0.000822193;-0.001061406;0.001959559;0.999997258
2024/05/03/12:43:40.263896;32271;1714765420;263453348;world;0.207293317;0.000154873;0.002204294;0.000624815;-0.001254573;0.001993753;0.99999702
2024/05/03/12:43:40.273244;32272;1714765420;272947991;world;0.208092958;0.000125941;0.002172963;0.000185806;-0.001610007;0.001850754;0.99999702
2024/05/03/12:43:40.303267;32273;1714765420;302879339;world;0.209006146;0.000166557;0.002186236;0.000453576;-0.001732819;0.001984851;0.999996424
2024/05/03/12:43:40.303309;32274;1714765420;302914595;world;0.20988895;0.000160362;0.00222032;0.000726112;-0.00156955;0.002030513;0.999996424
2024/05/03/12:43:40.323252;32275;1714765420;322993583;world;0.210673824;0.000170179;0.002093627;-4.28E-05;-0.001447726;0.002165986;0.999996662
2024/05/03/12:43:40.333524;32276;1714765420;333228105;world;0.211543009;0.000148602;0.002070666;3.57E-05;-0.001205928;0.002342782;0.999996543
2024/05/03/12:43:40.353434;32277;1714765420;353133097;world;0.212032437;0.000148349;0.002129182;0.000419124;-0.001119627;0.002368245;0.999996543
2024/05/03/12:43:40.373325;32278;1714765420;372990271;world;0.212883309;0.000163986;0.002139523;0.000589309;-0.00122905;0.00242519;0.999996185
2024/05/03/12:43:40.383674;32279;1714765420;383372556;world;0.213740692;0.000167804;0.002261285;0.000999121;-0.001517597;0.002452678;0.999995351
2024/05/03/12:43:40.403333;32280;1714765420;402933483;world;0.214576349;0.000141851;0.002320346;0.001197697;-0.001589344;0.002365997;0.999995232
2024/05/03/12:43:40.413228;32281;1714765420;412946235;world;0.215390325;0.000157448;0.00236072;0.001122314;-0.001663786;0.002348383;0.999995232
2024/05/03/12:43:40.433504;32282;1714765420;433128611;world;0.216222882;0.000183881;0.002386803;0.00120872;-0.00164997;0.002258992;0.999995351
2024/05/03/12:43:40.443539;32283;1714765420;443044397;world;0.217001721;0.000206634;0.002469948;0.00109247;-0.001386506;0.002285401;0.999995828
2024/05/03/12:43:40.473289;32284;1714765420;473002665;world;0.217823803;0.000224197;0.002404359;0.000861604;-0.001271429;0.002430015;0.999995947
2024/05/03/12:43:40.473313;32285;1714765420;473039013;world;0.218273595;0.000235968;0.002402129;0.000895985;-0.001419207;0.002383278;0.999995828
2024/05/03/12:43:40.493617;32286;1714765420;493325288;world;0.219123483;0.000227608;0.002386533;0.000800398;-0.001519267;0.002382827;0.999995708
2024/05/03/12:43:40.513416;32287;1714765420;513110136;world;0.220356539;0.000208811;0.002429208;0.000977094;-0.002190714;0.002495627;0.99999404
2024/05/03/12:43:40.523282;32288;1714765420;522992052;world;0.220744193;0.000186102;0.002366806;0.00073265;-0.002457983;0.002435161;0.999993801
2024/05/03/12:43:40.543362;32289;1714765420;543081628;world;0.221627086;0.000237819;0.002488493;0.001059069;-0.001943002;0.002509705;0.999994397
