time;.header.seq;.header.stamp.secs;.header.stamp.nsecs;.header.frame_id;.pose.position.x;.pose.position.y;.pose.position.z;.pose.orientation.x;.pose.orientation.y;.pose.orientation.z;.pose.orientation.w
2024/05/03/13:25:49.273501;192128;1714767949;273109596;world;5.18E-06;-1.44E-05;-1.56E-05;1.33E-05;-2.54E-05;-4.61E-05;1
2024/05/03/13:25:49.283959;192129;1714767949;283447351;world;8.36E-06;-1.04E-05;-1.81E-05;5.58E-05;-1.24E-05;-4.52E-05;1
2024/05/03/13:25:49.313895;192130;1714767949;313471843;world;6.50E-06;-1.42E-05;-1.10E-05;1.88E-05;1.28E-05;-5.66E-05;1
2024/05/03/13:25:49.323789;192131;1714767949;323473928;world;-9.08E-06;-8.20E-06;-5.43E-06;3.48E-05;-4.28E-05;-4.71E-05;1
2024/05/03/13:25:49.333424;192132;1714767949;333119897;world;7.46E-06;-6.35E-06;-6.24E-06;2.10E-05;-3.63E-05;-2.71E-05;1
2024/05/03/13:25:49.354040;192133;1714767949;353037942;world;5.01E-06;8.45E-07;-1.26E-05;1.38E-05;-1.24E-05;6.04E-07;1
2024/05/03/13:25:49.363578;192134;1714767949;363220049;world;-1.10E-06;-4.53E-06;-5.85E-06;-9.33E-06;-2.60E-06;-2.23E-05;1
2024/05/03/13:25:49.383511;192135;1714767949;383174385;world;8.31E-06;-1.25E-05;-9.98E-06;3.95E-05;-4.95E-05;-6.52E-05;1
2024/05/03/13:25:49.403411;192136;1714767949;403155904;world;-6.58E-06;-1.10E-05;-1.37E-05;3.54E-05;-3.95E-05;-5.28E-05;1
2024/05/03/13:25:49.423097;192137;1714767949;422881921;world;3.05E-06;-7.99E-06;-2.11E-05;5.28E-05;-2.07E-05;-6.33E-05;1
2024/05/03/13:25:49.433444;192138;1714767949;433112677;world;1.50E-05;-8.00E-06;-7.51E-06;4.29E-05;-4.04E-05;-8.14E-05;1
2024/05/03/13:25:49.443581;192139;1714767949;443281213;world;1.18E-05;9.30E-06;-1.38E-05;3.28E-05;1.81E-05;1.40E-05;1
2024/05/03/13:25:49.463557;192140;1714767949;463276957;world;3.73E-06;-2.08E-05;-1.36E-05;-1.70E-05;-1.85E-06;-4.99E-05;1
2024/05/03/13:25:49.473438;192141;1714767949;473108923;world;1.08E-05;-4.84E-06;-1.47E-05;1.07E-05;1.62E-05;-2.32E-05;1
2024/05/03/13:25:49.493281;192142;1714767949;492978743;world;-4.62E-06;-9.95E-06;-1.35E-05;3.39E-05;-2.83E-05;-7.00E-05;1
2024/05/03/13:25:49.513409;192143;1714767949;513062115;world;1.73E-05;-6.82E-06;-8.21E-06;-2.59E-06;-7.71E-06;-4.16E-06;1
2024/05/03/13:25:49.523579;192144;1714767949;523268273;world;1.98E-05;-7.80E-07;-1.72E-05;-1.95E-05;5.03E-06;-1.66E-05;1
2024/05/03/13:25:49.543792;192145;1714767949;543377331;world;2.03E-05;-4.08E-06;-2.31E-05;7.11E-05;1.05E-05;-1.66E-05;1
2024/05/03/13:25:49.553285;192146;1714767949;553021576;world;5.52E-06;-3.00E-06;-1.58E-05;4.80E-05;3.62E-05;-2.99E-05;1
2024/05/03/13:25:49.563328;192147;1714767949;563179202;world;2.12E-07;-1.19E-05;-9.92E-06;7.11E-05;-1.80E-05;-5.85E-05;1
2024/05/03/13:25:49.593968;192148;1714767949;593024009;world;8.81E-06;-9.54E-06;-1.28E-05;2.88E-05;1.27E-06;-1.66E-05;1
2024/05/03/13:25:49.603465;192149;1714767949;603237085;world;9.47E-06;-2.76E-06;-1.26E-05;-4.41E-07;8.42E-06;-3.85E-05;1
2024/05/03/13:25:49.613600;192150;1714767949;613270428;world;1.32E-05;-5.08E-07;-1.64E-05;2.52E-05;-1.52E-05;3.47E-06;1
2024/05/03/13:25:49.633320;192151;1714767949;633083833;world;1.36E-05;7.16E-06;-7.93E-06;-7.05E-06;1.16E-05;-7.98E-06;1
2024/05/03/13:25:49.653380;192152;1714767949;653138876;world;1.49E-05;8.92E-06;-1.70E-05;6.94E-06;-1.89E-05;1.78E-05;1
2024/05/03/13:25:49.663193;192153;1714767949;662916852;world;9.20E-06;4.69E-06;-2.26E-05;5.84E-05;1.73E-06;-7.98E-06;1
2024/05/03/13:25:49.683564;192154;1714767949;683339079;world;2.09E-05;7.95E-06;-2.71E-05;5.29E-05;-3.86E-05;-3.47E-05;1
2024/05/03/13:25:49.693167;192155;1714767949;692882796;world;2.62E-05;3.91E-06;-1.40E-05;5.62E-05;6.14E-06;-2.61E-05;1
2024/05/03/13:25:49.723359;192156;1714767949;723021603;world;1.88E-05;-8.08E-06;-2.22E-05;2.37E-05;2.21E-05;-8.93E-06;1
2024/05/03/13:25:49.723393;192157;1714767949;723059634;world;1.15E-05;-1.94E-06;-2.38E-05;6.61E-05;-1.50E-05;-4.52E-05;1
2024/05/03/13:25:49.744199;192158;1714767949;743185513;world;6.05E-06;-4.75E-06;-1.93E-05;2.51E-05;1.58E-05;-2.51E-05;1
2024/05/03/13:25:49.753180;192159;1714767949;753017400;world;-3.25E-06;-6.17E-06;-6.45E-06;6.99E-06;-2.70E-05;-3.28E-05;1
2024/05/03/13:25:49.773411;192160;1714767949;773133477;world;-8.40E-06;8.54E-06;-1.10E-05;2.25E-06;-2.18E-05;-2.42E-05;1
2024/05/03/13:25:49.793238;192161;1714767949;792985308;world;-2.37E-06;-9.16E-06;-2.07E-05;5.14E-05;-2.07E-05;-5.09E-05;1
2024/05/03/13:25:49.803363;192162;1714767949;803133826;world;-1.65E-06;1.38E-07;-1.72E-05;2.12E-05;1.78E-06;-9.89E-06;1
2024/05/03/13:25:49.823418;192163;1714767949;822963049;world;1.14E-05;-2.26E-06;-1.57E-05;2.49E-05;-2.16E-05;-5.76E-05;1
2024/05/03/13:25:49.833828;192164;1714767949;833517098;world;2.33E-05;1.46E-06;-1.55E-05;3.55E-07;2.98E-06;-3.18E-05;1
2024/05/03/13:25:49.853498;192165;1714767949;853215467;world;-8.12E-07;-5.77E-08;-2.29E-05;-1.58E-05;7.25E-06;-7.98E-06;1
2024/05/03/13:25:49.864020;192166;1714767949;863516034;world;6.91E-06;-1.09E-05;-1.53E-05;1.97E-05;4.06E-06;-4.90E-05;1
2024/05/03/13:25:49.883459;192167;1714767949;883145704;world;8.33E-06;-4.15E-06;-2.95E-05;7.29E-07;-2.01E-05;-6.90E-05;1
2024/05/03/13:25:49.903542;192168;1714767949;903222993;world;1.57E-05;1.02E-05;-3.02E-05;1.84E-05;8.81E-06;-2.23E-05;1
2024/05/03/13:25:49.923314;192169;1714767949;923000153;world;-1.50E-05;4.88E-06;-3.23E-05;-1.10E-05;-2.48E-05;-5.95E-05;1
2024/05/03/13:25:49.933878;192170;1714767949;933200364;world;-8.24E-06;1.16E-05;-2.31E-05;4.53E-05;-5.18E-05;-5.47E-05;1
2024/05/03/13:25:49.943384;192171;1714767949;943082996;world;-5.68E-06;-3.72E-06;-2.83E-05;4.68E-05;-1.98E-05;-7.47E-05;1
2024/05/03/13:25:49.963275;192172;1714767949;962969586;world;5.19E-06;9.39E-06;-2.16E-05;-7.24E-06;-2.22E-05;-2.32E-05;1
2024/05/03/13:25:49.973507;192173;1714767949;973166116;world;-3.41E-06;5.32E-06;-1.86E-05;5.80E-05;9.25E-06;-9.89E-06;1
2024/05/03/13:25:50.004036;192174;1714767950;3645198;world;-9.15E-06;1.33E-06;-1.01E-05;5.12E-05;3.17E-06;-4.16E-06;1
2024/05/03/13:25:50.004046;192175;1714767950;3684321;world;2.70E-06;-1.07E-06;-6.58E-06;1.45E-05;-4.61E-05;-4.61E-05;1
2024/05/03/13:25:50.023363;192176;1714767950;23011002;world;9.88E-06;-8.48E-06;-3.86E-06;6.10E-05;-1.96E-05;-2.99E-05;1
2024/05/03/13:25:50.033274;192177;1714767950;32944640;world;-1.89E-05;-3.61E-07;-1.97E-05;7.11E-05;7.29E-06;-6.90E-05;1
2024/05/03/13:25:50.053535;192178;1714767950;53051147;world;-2.12E-05;-5.01E-06;-7.66E-06;5.96E-05;-4.55E-05;-8.14E-05;1
2024/05/03/13:25:50.073685;192179;1714767950;73068438;world;-1.44E-05;-9.51E-06;-1.26E-05;0.000125853;-2.46E-05;-6.42E-05;1
2024/05/03/13:25:50.083526;192180;1714767950;83211435;world;-1.55E-05;-1.70E-05;-1.66E-05;8.15E-05;-9.90E-06;-5.85E-05;1
2024/05/03/13:25:50.103354;192181;1714767950;102990359;world;-1.24E-05;-5.27E-06;-1.20E-05;7.93E-05;-4.23E-05;-4.52E-05;1
2024/05/03/13:25:50.133215;192182;1714767950;132915825;world;-9.61E-06;-6.82E-06;2.00E-06;3.85E-05;-1.54E-05;-1.94E-05;1
2024/05/03/13:25:50.133240;192183;1714767950;132946423;world;-7.40E-06;7.59E-06;-1.02E-05;2.86E-05;-3.95E-05;-4.23E-05;1
2024/05/03/13:25:50.153552;192184;1714767950;153177300;world;-1.69E-05;2.07E-06;-1.96E-05;5.71E-05;-2.85E-05;-6.90E-05;1
2024/05/03/13:25:50.163383;192185;1714767950;163103803;world;-2.31E-05;-1.30E-06;-1.45E-05;9.64E-05;-3.42E-05;-6.71E-05;1
2024/05/03/13:25:50.183558;192186;1714767950;183274407;world;-1.69E-05;2.16E-05;-1.56E-05;9.28E-05;7.81E-06;-6.07E-06;1
2024/05/03/13:25:50.193488;192187;1714767950;193152906;world;-1.30E-05;1.53E-05;-3.41E-05;0.000114695;-2.69E-05;-1.37E-05;1
2024/05/03/13:25:50.213321;192188;1714767950;213043159;world;-2.44E-05;1.64E-05;-1.81E-05;0.000105557;-4.52E-05;-3.85E-05;1
2024/05/03/13:25:50.233521;192189;1714767950;233199857;world;-3.45E-05;2.55E-05;-2.24E-05;7.40E-05;-5.68E-05;0.00058235;0.999999881
2024/05/03/13:25:50.243213;192190;1714767950;242904494;world;-9.11E-06;4.64E-05;-2.24E-05;-0.000151243;2.96E-05;0.001812589;0.999998331
2024/05/03/13:25:50.253358;192191;1714767950;253046873;world;-1.38E-05;3.71E-05;-3.50E-05;-0.000131469;3.89E-05;0.002512585;0.999996901
2024/05/03/13:25:50.273388;192192;1714767950;273090076;world;-9.35E-06;4.86E-05;-2.86E-05;-8.72E-06;0.000119706;0.004390354;0.999990344
2024/05/03/13:25:50.283329;192193;1714767950;283026889;world;-2.68E-05;4.16E-05;-2.90E-05;0.00025432;0.000116161;0.006604722;0.999978185
2024/05/03/13:25:50.313434;192194;1714767950;313049848;world;-5.32E-05;9.32E-06;-1.31E-05;0.00027732;0.000135945;0.00884292;0.999960899
2024/05/03/13:25:50.333290;192195;1714767950;332994058;world;-6.44E-05;-5.29E-06;2.13E-06;0.000389594;0.000146059;0.01124222;0.9999367
2024/05/03/13:25:50.333314;192196;1714767950;333025647;world;-7.49E-05;-2.17E-05;-5.59E-06;0.000294512;0.000181105;0.013880835;0.999903679
2024/05/03/13:25:50.353449;192197;1714767950;353101994;world;-5.90E-05;-4.22E-05;1.34E-05;0.000321712;8.52E-05;0.016460251;0.999864459
2024/05/03/13:25:50.363181;192198;1714767950;362879166;world;-5.62E-05;-3.43E-05;-1.13E-05;0.000279698;0.000166627;0.019116746;0.999817193
2024/05/03/13:25:50.383467;192199;1714767950;383107479;world;-3.36E-05;-6.77E-06;-2.16E-06;0.000269598;3.61E-05;0.02178937;0.999762595
2024/05/03/13:25:50.393433;192200;1714767950;393110798;world;-3.56E-05;1.21E-06;2.08E-05;5.98E-05;-0.000105708;0.023118479;0.999732792
2024/05/03/13:25:50.413405;192201;1714767950;413088359;world;-2.67E-05;1.90E-05;3.98E-05;-0.000279294;-0.000114601;0.027013926;0.9996351
2024/05/03/13:25:50.433261;192202;1714767950;432950472;world;-2.11E-05;7.99E-06;2.94E-05;-6.92E-05;-0.0001518;0.028383849;0.999597132
2024/05/03/13:25:50.443734;192203;1714767950;443299005;world;-3.98E-05;-6.20E-05;3.46E-05;2.28E-05;-4.46E-05;0.03094049;0.999521255
2024/05/03/13:25:50.463393;192204;1714767950;463098476;world;3.52E-06;8.19E-06;5.06E-05;6.22E-05;-9.30E-05;0.033759031;0.99943006
2024/05/03/13:25:50.473244;192205;1714767950;472888515;world;-2.77E-05;-1.15E-05;2.15E-07;7.15E-05;3.26E-06;0.03631616;0.999340355
2024/05/03/13:25:50.493619;192206;1714767950;493264723;world;-5.54E-05;-5.83E-06;2.16E-05;-0.000147012;-0.000134897;0.038698655;0.999250948
2024/05/03/13:25:50.513380;192207;1714767950;513106245;world;-7.61E-05;-1.35E-05;3.14E-05;-0.000217401;-0.000257129;0.039850719;0.999205649
2024/05/03/13:25:50.523371;192208;1714767950;523080383;world;2.48E-05;1.56E-05;4.83E-05;-0.000142679;-0.000272675;0.042321526;0.999104083
2024/05/03/13:25:50.533252;192209;1714767950;532999703;world;5.54E-05;1.07E-05;7.24E-05;-0.000127922;-0.000405175;0.044589113;0.999005377
2024/05/03/13:25:50.553235;192210;1714767950;552982455;world;0.000100568;3.84E-05;6.45E-05;2.11E-05;-0.000446621;0.046798434;0.998904228
2024/05/03/13:25:50.573266;192211;1714767950;572995554;world;3.88E-05;-0.00010537;0.000118563;-0.000245137;-0.000624181;0.048554856;0.998820364
2024/05/03/13:25:50.583673;192212;1714767950;583428598;world;6.54E-05;-4.90E-05;3.67E-05;5.68E-05;-0.000321011;0.050961029;0.998700619
2024/05/03/13:25:50.603313;192213;1714767950;603032541;world;-2.65E-05;-9.93E-05;0.000100201;-0.000369797;-0.000636944;0.053114105;0.998588264
2024/05/03/13:25:50.613545;192214;1714767950;613295524;world;3.32E-05;-9.13E-05;4.65E-05;-0.000181194;-0.000435954;0.054096077;0.998535633
2024/05/03/13:25:50.643404;192215;1714767950;643134377;world;-5.54E-05;-4.45E-05;-1.57E-06;-0.000409606;-0.000712583;0.056732528;0.998389125
2024/05/03/13:25:50.643432;192216;1714767950;643172990;world;-4.16E-06;-4.53E-05;2.50E-05;-0.00024334;-0.000517466;0.057770494;0.998329818
2024/05/03/13:25:50.663316;192217;1714767950;662971516;world;-4.29E-05;-3.96E-05;2.18E-05;-0.000321083;-0.00056765;0.059537411;0.998225868
2024/05/03/13:25:50.683237;192218;1714767950;682989933;world;-8.11E-05;-5.07E-05;3.71E-05;-0.000458007;-0.000683588;0.061179366;0.998126447
2024/05/03/13:25:50.693442;192219;1714767950;693260293;world;-9.59E-05;-5.49E-05;3.13E-05;-0.000381657;-0.000679562;0.062845141;0.998023033
2024/05/03/13:25:50.723267;192220;1714767950;723000371;world;-8.41E-05;-5.97E-05;2.98E-05;-0.00043455;-0.000727587;0.064530618;0.997915447
2024/05/03/13:25:50.723289;192221;1714767950;723036058;world;-9.34E-05;-7.57E-05;1.43E-05;-0.000425483;-0.000697162;0.065350957;0.997862041
2024/05/03/13:25:50.753225;192222;1714767950;752905255;world;-0.000237178;-8.84E-05;-7.44E-05;-0.000818431;-0.000661153;0.067258582;0.997735023
2024/05/03/13:25:50.753249;192223;1714767950;752943076;world;-0.000145018;-1.44E-05;-3.52E-06;-0.000248186;-0.000986233;0.068676643;0.997638464
2024/05/03/13:25:50.773515;192224;1714767950;773270493;world;-0.00016221;-7.23E-05;-6.32E-06;-0.000573793;-0.001061929;0.071125016;0.997466683
2024/05/03/13:25:50.783515;192225;1714767950;783147684;world;-0.000178151;-8.33E-05;-2.30E-06;-0.000659432;-0.001118901;0.071910605;0.997410238
2024/05/03/13:25:50.803403;192226;1714767950;803146494;world;-0.000100721;-6.75E-05;1.78E-06;-0.000293977;-0.001014942;0.073485233;0.997295797
2024/05/03/13:25:50.823475;192227;1714767950;823148098;world;-0.000114616;-6.61E-05;1.10E-05;-0.00040466;-0.00093513;0.074957334;0.997186244
2024/05/03/13:25:50.843373;192228;1714767950;842867045;world;-0.000126567;-9.84E-05;8.06E-06;-0.000518523;-0.000921399;0.076421671;0.997075081
2024/05/03/13:25:50.853656;192229;1714767950;853384649;world;-0.000227705;-0.00014961;-9.32E-06;-0.000865445;-0.001218074;0.077870145;0.996962368
2024/05/03/13:25:50.863616;192230;1714767950;863352952;world;-0.000183098;-0.000134773;-3.85E-06;-0.000739981;-0.001023195;0.078558788;0.996908724
2024/05/03/13:25:50.883147;192231;1714767950;882934579;world;-0.000194192;-0.000119215;-7.67E-06;-0.000787895;-0.001148481;0.079934284;0.996799231
2024/05/03/13:25:50.893610;192232;1714767950;893357455;world;-0.000190541;-0.000104852;7.65E-06;-0.000677754;-0.001185314;0.08131177;0.996687829
2024/05/03/13:25:50.923831;192233;1714767950;923429611;world;-0.000174977;-8.62E-05;2.04E-05;-0.000743668;-0.001157032;0.082670867;0.996576011
2024/05/03/13:25:50.923852;192234;1714767950;923461772;world;-0.0001464;-5.94E-05;5.21E-05;-0.000685347;-0.001152234;0.084036596;0.996461809
2024/05/03/13:25:50.953462;192235;1714767950;953096808;world;-0.000170529;-5.61E-05;3.52E-05;-0.000759737;-0.001217321;0.085393406;0.996346295
2024/05/03/13:25:50.963396;192236;1714767950;963110730;world;-0.000176653;-5.63E-05;5.28E-05;-0.000681883;-0.001274911;0.086626761;0.996239781
2024/05/03/13:25:50.973285;192237;1714767950;972996459;world;-0.000168346;-4.07E-05;3.40E-05;-0.000634639;-0.001238459;0.088054761;0.996114731
2024/05/03/13:25:50.993680;192238;1714767950;993312672;world;-0.000267025;-8.23E-05;3.37E-05;-0.000859487;-0.001304042;0.088713638;0.996055961
2024/05/03/13:25:51.003640;192239;1714767951;3327562;world;-0.000188991;-4.34E-05;4.58E-05;-0.000674702;-0.001205014;0.090161547;0.995926261
2024/05/03/13:25:51.033765;192240;1714767951;33408699;world;-0.000204474;-5.73E-05;4.50E-05;-0.000779596;-0.00125159;0.091512851;0.99580282
2024/05/03/13:25:51.033787;192241;1714767951;33450057;world;-0.000226852;-7.76E-05;3.72E-05;-0.000825039;-0.001246199;0.092866935;0.995677412
2024/05/03/13:25:51.053506;192242;1714767951;53125711;world;-0.000247702;-4.54E-05;1.22E-05;-0.000866462;-0.001175884;0.094256975;0.995546818
2024/05/03/13:25:51.073392;192243;1714767951;73104075;world;-0.000275448;-6.86E-05;5.32E-06;-0.00099039;-0.001194156;0.095614381;0.995417237
2024/05/03/13:25:51.083585;192244;1714767951;83342176;world;-0.000313774;-9.76E-05;-1.08E-05;-0.00103065;-0.001162424;0.09686166;0.995296657
2024/05/03/13:25:51.103151;192245;1714767951;102861425;world;-0.000363164;-0.000105594;-3.02E-06;-0.001055502;-0.001141024;0.098217964;0.995163798
2024/05/03/13:25:51.113196;192246;1714767951;112906419;world;-0.000305943;-0.000115363;1.51E-05;-0.000945066;-0.001037063;0.098839797;0.995102406
2024/05/03/13:25:51.135540;192247;1714767951;135190949;world;-0.000279158;-0.000113465;7.04E-06;-0.000761605;-0.001012054;0.100160033;0.99497062
2024/05/03/13:25:51.163430;192248;1714767951;163097810;world;-0.000273313;-7.67E-05;5.38E-06;-0.000663228;-0.001051589;0.101430587;0.994841874
2024/05/03/13:25:51.163466;192249;1714767951;163135160;world;-0.000303973;-8.20E-05;2.33E-05;-0.000759899;-0.001243005;0.102711089;0.994710207
2024/05/03/13:25:51.173306;192250;1714767951;172967880;world;-0.000280928;-6.62E-05;3.42E-05;-0.000718472;-0.001302216;0.10396228;0.99458015
2024/05/03/13:25:51.193560;192251;1714767951;193107844;world;-0.000279017;-6.55E-05;1.92E-05;-0.000725236;-0.001334708;0.105358347;0.994433224
2024/05/03/13:25:51.213421;192252;1714767951;213093870;world;-0.000259329;-4.60E-05;1.39E-05;-0.000591503;-0.001271594;0.106879629;0.99427104
2024/05/03/13:25:51.233656;192253;1714767951;233349433;world;-0.000238702;-3.76E-05;2.43E-06;-0.000441004;-0.001277216;0.108220525;0.994125962
2024/05/03/13:25:51.243246;192254;1714767951;242954514;world;-0.00028969;-9.35E-05;-5.85E-06;-0.000605802;-0.001418427;0.108798549;0.994062722
2024/05/03/13:25:51.263381;192255;1714767951;263107536;world;-0.000310551;-9.81E-05;-1.82E-05;-0.000689189;-0.00144036;0.110085703;0.993920803
2024/05/03/13:25:51.273363;192256;1714767951;273060339;world;-0.000345614;-0.000131337;-3.09E-05;-0.000855023;-0.001567819;0.111339286;0.993780911
2024/05/03/13:25:51.283568;192257;1714767951;283265365;world;-0.00029945;-0.000102722;-3.60E-05;-0.0007998;-0.001433974;0.11272309;0.993625164
2024/05/03/13:25:51.304083;192258;1714767951;303765137;world;-0.000320431;-0.000112284;-4.78E-06;-0.001050892;-0.001596601;0.114014007;0.993477345
2024/05/03/13:25:51.323408;192259;1714767951;323108490;world;-0.000265304;-9.27E-05;3.59E-06;-0.000985262;-0.001541208;0.11538028;0.99331975
2024/05/03/13:25:51.333317;192260;1714767951;332979619;world;-0.000274491;-0.000109687;-1.27E-05;-0.00096929;-0.00155333;0.116710201;0.993164361
2024/05/03/13:25:51.363210;192261;1714767951;362897080;world;-0.000319608;-0.000119062;-2.12E-05;-0.001043992;-0.001498217;0.117984883;0.993013799
2024/05/03/13:25:51.363234;192262;1714767951;362933048;world;-0.000345331;-0.000121349;-1.82E-05;-0.001098999;-0.001612418;0.118615389;0.99293834
2024/05/03/13:25:51.383690;192263;1714767951;383377267;world;-0.000261474;-7.42E-05;-2.33E-05;-0.000907266;-0.001447647;0.119903594;0.992784142
2024/05/03/13:25:51.393370;192264;1714767951;393020345;world;-0.000309631;-8.48E-05;-5.43E-06;-0.001059105;-0.001628137;0.121205859;0.992625535
2024/05/03/13:25:51.413616;192265;1714767951;413314149;world;-0.000326954;-0.000100742;-1.09E-06;-0.001108464;-0.00166442;0.122485511;0.992468297
2024/05/03/13:25:51.433423;192266;1714767951;433132697;world;-0.000361905;-0.000117977;8.08E-06;-0.001353596;-0.001795313;0.123728447;0.992313564
2024/05/03/13:25:51.443589;192267;1714767951;443258899;world;-0.000356127;-0.000119156;-6.04E-06;-0.001329595;-0.001736401;0.125115797;0.992139757
2024/05/03/13:25:51.483539;192268;1714767951;483194877;world;-0.000462078;-0.000143469;-9.08E-05;-0.001605332;-0.001611794;0.12669532;0.991939127
2024/05/03/13:25:51.483570;192269;1714767951;483230093;world;-0.000454482;-0.000108184;-8.55E-05;-0.001665105;-0.001630593;0.127426356;0.99184531
2024/05/03/13:25:51.493475;192270;1714767951;493177336;world;-0.000418525;-0.000136158;-7.02E-05;-0.001508768;-0.001575154;0.128680944;0.991683722
2024/05/03/13:25:51.513533;192271;1714767951;513124871;world;-0.000404444;-0.000154086;-4.56E-05;-0.001372094;-0.001568411;0.130628288;0.991429269
2024/05/03/13:25:51.523293;192272;1714767951;522996460;world;-0.000392284;-0.000133863;-5.15E-05;-0.001350014;-0.001491055;0.131306306;0.991339862
2024/05/03/13:25:51.543235;192273;1714767951;542928408;world;-0.000356767;-0.000127987;-3.60E-05;-0.001370313;-0.001400149;0.132782951;0.991143227
2024/05/03/13:25:51.593306;192274;1714767951;592929810;world;-0.000340756;-9.36E-05;1.15E-05;-0.001100459;-0.001226155;0.133958429;0.990985632
2024/05/03/13:25:51.593339;192277;1714767951;592983571;world;-0.00044132;-0.000151005;-6.43E-05;-0.001514756;-0.001321084;0.137263671;0.990532517
2024/05/03/13:25:51.613297;192278;1714767951;612995638;world;-0.000451598;-0.000121874;-4.74E-05;-0.001493479;-0.001376924;0.138547316;0.990353823
2024/05/03/13:25:51.645433;192279;1714767951;644892030;world;-0.000497852;-0.000158791;-4.40E-05;-0.00162569;-0.001582222;0.139888763;0.990164697
2024/05/03/13:25:51.645456;192280;1714767951;644913190;world;-0.000398058;-0.000104739;-5.29E-05;-0.001394182;-0.001492616;0.141229168;0.989974916
2024/05/03/13:25:51.673663;192281;1714767951;673364903;world;-0.000414781;-6.60E-05;-8.49E-05;-0.001288156;-0.001396374;0.143421337;0.989659965
2024/05/03/13:25:51.673673;192282;1714767951;673404418;world;-0.000459276;-7.63E-05;-7.20E-05;-0.001295137;-0.001434211;0.144106463;0.989560366
2024/05/03/13:25:51.693441;192283;1714767951;693173387;world;-0.000424433;-7.49E-05;-7.48E-05;-0.001187819;-0.001297598;0.145339206;0.98938036
2024/05/03/13:25:51.703629;192284;1714767951;703317008;world;-0.000413112;-7.15E-05;-7.48E-05;-0.001177301;-0.001341407;0.145993024;0.989283979
2024/05/03/13:25:51.723685;192285;1714767951;723357667;world;-0.000413433;-9.39E-05;-5.47E-05;-0.001181923;-0.001389586;0.147880569;0.989003599
2024/05/03/13:25:51.743288;192286;1714767951;742998116;world;-0.000409368;-0.000108274;-2.07E-05;-0.001127842;-0.001410847;0.149238691;0.988799632
2024/05/03/13:25:51.783507;192287;1714767951;783161540;world;-0.000443846;-0.000138311;-3.16E-05;-0.001128953;-0.001422461;0.15060778;0.988591969
2024/05/03/13:25:51.783533;192289;1714767951;783198168;world;-0.000392258;-0.000149071;-3.57E-05;-0.001157854;-0.001387215;0.152543947;0.988295078
2024/05/03/13:25:51.803507;192290;1714767951;803200121;world;-0.000353046;-0.000119828;-1.79E-05;-0.001174076;-0.001399778;0.153818995;0.98809737
2024/05/03/13:25:51.823640;192291;1714767951;823333908;world;-0.000437517;-0.000172166;-4.03E-05;-0.00137792;-0.001621793;0.155091345;0.987897933
2024/05/03/13:25:51.843683;192292;1714767951;843382448;world;-0.000409037;-8.98E-05;-2.15E-05;-0.001207231;-0.00172387;0.156416103;0.987689018
2024/05/03/13:25:51.853478;192293;1714767951;852991557;world;-0.000346713;-7.43E-05;-4.37E-05;-0.00092441;-0.001447718;0.157845616;0.987462342
2024/05/03/13:25:51.873233;192294;1714767951;872942365;world;-0.000366386;-8.02E-05;-3.88E-05;-0.001025469;-0.001497611;0.158526257;0.987353086
2024/05/03/13:25:51.883159;192295;1714767951;882879403;world;-0.000356074;-5.68E-05;-9.87E-06;-0.0010713;-0.00148493;0.160505086;0.987033367
2024/05/03/13:25:51.893459;192296;1714767951;893204790;world;-0.00035651;-5.91E-05;-5.79E-06;-0.001052858;-0.001502227;0.161125407;0.986932337
2024/05/03/13:25:51.913948;192297;1714767951;913170012;world;-0.000352744;-9.03E-05;-2.61E-05;-0.000955923;-0.001433517;0.16249308;0.986708164
2024/05/03/13:25:51.933520;192298;1714767951;933268208;world;-0.000332601;-0.000105457;-2.48E-05;-0.000957568;-0.001496024;0.163805589;0.986491084
2024/05/03/13:25:51.944230;192299;1714767951;943571239;world;-0.000329971;-0.000108035;-2.35E-05;-0.001019298;-0.001498311;0.165095165;0.986276031
2024/05/03/13:25:51.983639;192300;1714767951;983266144;world;-0.000304107;-0.000123281;-5.15E-05;-0.001133939;-0.001452656;0.166431382;0.986051321
2024/05/03/13:25:51.983667;192301;1714767951;983300479;world;-0.000304289;-0.000105347;-5.78E-05;-0.001059304;-0.001442038;0.167765781;0.985825241
2024/05/03/13:25:51.993444;192302;1714767951;993240249;world;-0.000290334;-9.48E-05;-7.47E-05;-0.001059659;-0.001374361;0.16843237;0.985711753
2024/05/03/13:25:52.003914;192303;1714767952;3533753;world;-0.000294387;-0.000103576;-7.46E-05;-0.001027016;-0.0013241;0.169763416;0.985483408
2024/05/03/13:25:52.023790;192304;1714767952;23407488;world;-0.000317119;-9.46E-05;-8.43E-05;-0.00092447;-0.001168839;0.171705976;0.985147178
2024/05/03/13:25:52.033564;192305;1714767952;33239665;world;-0.000323951;-0.000105765;-9.14E-05;-0.001020531;-0.001210904;0.172400072;0.985025823
2024/05/03/13:25:52.053667;192306;1714767952;53316572;world;-0.000307918;-9.00E-05;-7.89E-05;-0.001021423;-0.001219885;0.173650265;0.98480612
2024/05/03/13:25:52.083778;192307;1714767952;83487075;world;-0.000309654;-0.000104072;-9.02E-05;-0.000939758;-0.001238296;0.174953803;0.984575391
2024/05/03/13:25:52.083784;192308;1714767952;83524275;world;-0.000331406;-0.000102044;-8.33E-05;-0.001036763;-0.001339526;0.17630364;0.984334409
2024/05/03/13:25:52.103694;192309;1714767952;103371282;world;-0.000302255;-4.01E-05;-9.14E-05;-0.000902539;-0.00129434;0.177656442;0.984091341
2024/05/03/13:25:52.113415;192310;1714767952;113090316;world;-0.000294402;-3.91E-05;-9.72E-05;-0.000863994;-0.001293897;0.178320006;0.983971298
2024/05/03/13:25:52.133214;192311;1714767952;132934528;world;-0.000287734;-3.12E-05;-0.000100334;-0.000829022;-0.001368676;0.179680541;0.98372376
2024/05/03/13:25:52.153793;192312;1714767952;153401045;world;-0.000346746;-4.53E-05;-8.97E-05;-0.001024332;-0.001450096;0.180941775;0.983492196
2024/05/03/13:25:52.183844;192313;1714767952;183373528;world;-0.000393152;-8.36E-05;-0.000139288;-0.000968642;-0.001270632;0.182186484;0.983262777
2024/05/03/13:25:52.183868;192314;1714767952;183408784;world;-0.000390857;-4.68E-05;-0.000157329;-0.001046031;-0.001125629;0.183551624;0.983008921
2024/05/03/13:25:52.193595;192315;1714767952;192989802;world;-0.00040124;-5.45E-05;-0.000127622;-0.001128011;-0.001306739;0.184825227;0.982769966
2024/05/03/13:25:52.213458;192316;1714767952;213056521;world;-0.0004091;-6.04E-05;-0.000118883;-0.001199095;-0.001296047;0.186122075;0.98252511
2024/05/03/13:25:52.223221;192317;1714767952;222898086;world;-0.00037235;-3.91E-05;-0.000103238;-0.001165408;-0.001316759;0.187470287;0.982268691
2024/05/03/13:25:52.243382;192318;1714767952;243080922;world;-0.000376288;-4.59E-05;-0.000127995;-0.001105211;-0.00128001;0.1881814;0.982132852
2024/05/03/13:25:52.253721;192319;1714767952;253246945;world;-0.000375383;-7.42E-05;-0.000134977;-0.001147021;-0.001344747;0.18947643;0.981883764
2024/05/03/13:25:52.283546;192320;1714767952;283118638;world;-0.000365473;-6.79E-05;-0.000111801;-0.001296988;-0.001464302;0.190827101;0.981621802
2024/05/03/13:25:52.283567;192321;1714767952;283152893;world;-0.000347268;-4.14E-05;-0.000120835;-0.001167949;-0.001438062;0.192135945;0.981366634
2024/05/03/13:25:52.303632;192322;1714767952;303368208;world;-0.000375666;-6.73E-05;-0.000110904;-0.001281774;-0.001437584;0.193566576;0.9810853
2024/05/03/13:25:52.313711;192323;1714767952;313323847;world;-0.000411864;-3.48E-05;-0.00013138;-0.001494659;-0.001585929;0.194912106;0.980818391
2024/05/03/13:25:52.333555;192324;1714767952;333225587;world;-0.000429131;-3.94E-05;-8.68E-05;-0.001823438;-0.001669573;0.196277604;0.980545282
2024/05/03/13:25:52.354209;192325;1714767952;353865981;world;-0.000403468;-1.37E-05;-1.00E-04;-0.001525734;-0.001551329;0.197629556;0.980274379
2024/05/03/13:25:52.364009;192326;1714767952;362884172;world;-0.000402953;-3.04E-05;-0.000108173;-0.001483796;-0.001600712;0.198243767;0.980150342
2024/05/03/13:25:52.383752;192327;1714767952;383438255;world;-0.000415385;-2.54E-05;-0.000101451;-0.001550707;-0.001652937;0.200238824;0.979744554
2024/05/03/13:25:52.393471;192328;1714767952;393059206;world;-0.000408173;-3.30E-05;-7.35E-05;-0.001730787;-0.001655201;0.200906441;0.979607582
2024/05/03/13:25:52.413279;192329;1714767952;412990569;world;-0.000414036;-4.31E-05;-7.33E-05;-0.001787576;-0.001717886;0.202121437;0.979357362
2024/05/03/13:25:52.423209;192330;1714767952;422897455;world;-0.000395421;-5.27E-05;-7.36E-05;-0.001909347;-0.0016159;0.203457594;0.979080617
2024/05/03/13:25:52.443615;192331;1714767952;443321780;world;-0.000381649;-4.29E-05;-8.66E-05;-0.001786306;-0.001517317;0.204789415;0.978803337
2024/05/03/13:25:52.463649;192332;1714767952;463350278;world;-0.000370312;-4.09E-05;-8.70E-05;-0.00178986;-0.001516595;0.205421254;0.978670895
2024/05/03/13:25:52.483249;192333;1714767952;483004372;world;-0.000374932;-4.25E-05;-6.70E-05;-0.00179059;-0.001531534;0.206761315;0.978388608
2024/05/03/13:25:52.493687;192334;1714767952;493402128;world;-0.000373282;-3.68E-05;-6.96E-05;-0.001749644;-0.001513178;0.208054498;0.978114486
2024/05/03/13:25:52.503489;192335;1714767952;503147183;world;-0.000372045;-5.38E-05;-6.02E-05;-0.001771655;-0.00156358;0.209294856;0.977849722
2024/05/03/13:25:52.523485;192336;1714767952;523129752;world;-0.000362851;-4.77E-05;-6.03E-05;-0.001752464;-0.001587022;0.210555479;0.977579057
2024/05/03/13:25:52.533692;192337;1714767952;533406563;world;-0.00034529;-1.95E-05;-4.04E-05;-0.001605615;-0.001550468;0.211858124;0.977297902
2024/05/03/13:25:52.563425;192338;1714767952;563141832;world;-0.000334211;1.46E-05;-3.64E-05;-0.00163456;-0.001610666;0.21322228;0.977001011
2024/05/03/13:25:52.563449;192339;1714767952;563186155;world;-0.000359148;-4.66E-05;-2.63E-05;-0.00187315;-0.001432831;0.214528948;0.97671479
2024/05/03/13:25:52.583393;192340;1714767952;583006412;world;-0.000360511;-6.77E-05;-2.92E-05;-0.001948573;-0.001507703;0.215890244;0.976414561
2024/05/03/13:25:52.603469;192341;1714767952;602959676;world;-0.000384308;-0.000118196;-1.85E-05;-0.001902813;-0.001501637;0.217131466;0.976139367
2024/05/03/13:25:52.623696;192342;1714767952;623361800;world;-0.000421189;-0.000148063;-3.20E-05;-0.001946651;-0.001488111;0.218355343;0.975866258
2024/05/03/13:25:52.633746;192343;1714767952;633373867;world;-0.000432931;-0.00014143;-3.14E-05;-0.001932957;-0.001475109;0.21900402;0.975721002
2024/05/03/13:25:52.643649;192344;1714767952;643382786;world;-0.000422195;-0.000145782;-4.51E-05;-0.00192364;-0.001408545;0.22035788;0.975416243
2024/05/03/13:25:52.663516;192345;1714767952;663148169;world;-0.000428036;-0.000162041;-3.47E-05;-0.001920064;-0.00151082;0.221549183;0.975146174
2024/05/03/13:25:52.703907;192346;1714767952;703617804;world;-0.000446331;-0.000166162;-5.21E-05;-0.002004351;-0.001547831;0.222749352;0.97487247
2024/05/03/13:25:52.703938;192347;1714767952;703653371;world;-0.00043346;-0.000158968;-7.34E-05;-0.001850688;-0.001517746;0.224012136;0.974583447
2024/05/03/13:25:52.713465;192348;1714767952;713127226;world;-0.000390589;-9.59E-05;-8.43E-05;-0.00172159;-0.001512906;0.225230753;0.974302828
2024/05/03/13:25:52.723725;192349;1714767952;723356688;world;-0.000379801;-7.07E-05;-9.71E-05;-0.00165584;-0.001413803;0.226603225;0.973984718
2024/05/03/13:25:52.743527;192350;1714767952;743199392;world;-0.000383832;-6.31E-05;-7.99E-05;-0.001594355;-0.001482367;0.227223769;0.973840237
2024/05/03/13:25:52.773250;192351;1714767952;772936409;world;-0.000409476;-7.47E-05;-5.33E-05;-0.00169371;-0.001551557;0.228552192;0.973528981
2024/05/03/13:25:52.773278;192352;1714767952;772969882;world;-0.000430308;-7.71E-05;-4.21E-05;-0.001713758;-0.001699687;0.229826495;0.973228633
2024/05/03/13:25:52.793187;192353;1714767952;792930623;world;-0.00041084;-8.30E-05;-2.86E-05;-0.001765269;-0.001785362;0.231119037;0.972922325
2024/05/03/13:25:52.803530;192354;1714767952;803192424;world;-0.000428863;-4.58E-05;-6.63E-05;-0.001730414;-0.001703263;0.232471749;0.972600102
2024/05/03/13:25:52.823693;192355;1714767952;823444118;world;-0.000438377;-4.47E-05;-7.24E-05;-0.001730408;-0.001694943;0.233720049;0.972300947
2024/05/03/13:25:52.833546;192356;1714767952;833330617;world;-0.000399791;-3.52E-05;-6.19E-05;-0.0017046;-0.001723337;0.235032871;0.971984386
2024/05/03/13:25:52.853622;192357;1714767952;853182532;world;-0.000394754;-3.47E-05;-5.40E-05;-0.001786378;-0.001755219;0.236373708;0.971659005
2024/05/03/13:25:52.873388;192358;1714767952;872986488;world;-0.000401057;-6.41E-05;-6.11E-05;-0.001799884;-0.00182785;0.237590119;0.971362174
2024/05/03/13:25:52.883745;192359;1714767952;883114409;world;-0.000407971;-6.60E-05;-7.18E-05;-0.001824334;-0.001817346;0.238230079;0.971205413
2024/05/03/13:25:52.903845;192360;1714767952;903412612;world;-0.000441387;-8.90E-05;-6.96E-05;-0.001969386;-0.001874339;0.239614084;0.970864475
2024/05/03/13:25:52.913528;192361;1714767952;913240492;world;-0.000443861;-9.88E-05;-8.13E-05;-0.002079991;-0.001835272;0.241021767;0.970515847
2024/05/03/13:25:52.933260;192362;1714767952;933023649;world;-0.000443075;-0.00012596;-6.24E-05;-0.002093482;-0.00190255;0.242155313;0.97023344
2024/05/03/13:25:52.943398;192363;1714767952;943146389;world;-0.000435509;-0.000117434;-9.75E-05;-0.002332512;-0.001634363;0.243529737;0.969889343
2024/05/03/13:25:52.963256;192364;1714767952;962975780;world;-0.000407048;-8.54E-05;-9.35E-05;-0.002245215;-0.001646138;0.244783089;0.969573915
2024/05/03/13:25:52.974067;192365;1714767952;973499237;world;-0.000392541;-0.000107357;-6.86E-05;-0.002303861;-0.001776458;0.246063128;0.969249487
2024/05/03/13:25:53.003694;192366;1714767953;3403954;world;-0.000409856;-0.000109483;-7.04E-05;-0.002342853;-0.001879476;0.246684015;0.969091356
2024/05/03/13:25:53.003721;192367;1714767953;3451453;world;-0.000380814;-5.62E-05;-6.33E-05;-0.002358616;-0.001738663;0.248607814;0.968599796
2024/05/03/13:25:53.023391;192368;1714767953;23140923;world;-0.00039861;-6.64E-05;-4.59E-05;-0.002412783;-0.001850954;0.249244839;0.968435764
2024/05/03/13:25:53.033336;192369;1714767953;33044075;world;-0.000370611;-4.47E-05;-3.89E-05;-0.002369007;-0.001834059;0.250548869;0.968099356
2024/05/03/13:25:53.053664;192370;1714767953;53244924;world;-0.000389144;-3.35E-05;-5.43E-05;-0.002326939;-0.001707967;0.251872867;0.967756033
2024/05/03/13:25:53.073471;192371;1714767953;73153901;world;-0.00036446;-2.01E-05;-6.40E-05;-0.00223073;-0.001662747;0.253260136;0.967394233
2024/05/03/13:25:53.083278;192372;1714767953;82961727;world;-0.000370748;-2.25E-05;-6.51E-05;-0.002193371;-0.00163773;0.253908783;0.96722436
2024/05/03/13:25:53.103463;192373;1714767953;103138511;world;-0.00036785;-4.57E-05;-6.75E-05;-0.002373576;-0.001767906;0.255782843;0.96672976
2024/05/03/13:25:53.113662;192374;1714767953;113353106;world;-0.000370003;-3.60E-05;-6.56E-05;-0.002440797;-0.001736588;0.256415099;0.966562212
2024/05/03/13:25:53.133230;192375;1714767953;132927613;world;-0.000397582;-5.09E-05;-6.04E-05;-0.002505618;-0.001843941;0.25778237;0.966197968
2024/05/03/13:25:53.153604;192376;1714767953;153293250;world;-0.00040295;-4.25E-05;-5.56E-05;-0.002551439;-0.001887148;0.259627283;0.965703666
2024/05/03/13:25:53.163606;192377;1714767953;163324617;world;-0.000402059;-4.45E-05;-6.38E-05;-0.002501397;-0.00185669;0.260245442;0.965537488
2024/05/03/13:25:53.173429;192378;1714767953;173165121;world;-0.00039294;-2.87E-05;-7.47E-05;-0.002460773;-0.001828847;0.261494935;0.965199947
2024/05/03/13:25:53.223569;192379;1714767953;223236271;world;-0.000408463;-3.57E-05;-7.37E-05;-0.002452953;-0.00174773;0.26280567;0.964844048
2024/05/03/13:25:53.223596;192381;1714767953;223289330;world;-0.000409611;-6.15E-05;-8.04E-05;-0.002386206;-0.001722073;0.264644802;0.964341521
2024/05/03/13:25:53.243215;192382;1714767953;242894647;world;-0.000413455;-5.47E-05;-7.89E-05;-0.002371401;-0.001682043;0.265998393;0.963969171
2024/05/03/13:25:53.253435;192383;1714767953;252946030;world;-0.000436626;-8.89E-05;-9.93E-05;-0.002415144;-0.001688004;0.267234504;0.9636271
2024/05/03/13:25:53.283686;192384;1714767953;283339033;world;-0.000489216;-0.000102685;-8.82E-05;-0.002504568;-0.00179452;0.269155085;0.963091969
2024/05/03/13:25:53.283712;192385;1714767953;283372065;world;-0.000488993;-5.91E-05;-0.000115546;-0.002409239;-0.001701299;0.269871026;0.962891996
2024/05/03/13:25:53.303608;192386;1714767953;303264328;world;-0.000484034;-7.19E-05;-0.000131107;-0.002511991;-0.001644221;0.271156996;0.962530494
2024/05/03/13:25:53.323573;192387;1714767953;323256137;world;-0.000454362;-6.21E-05;-0.000114767;-0.002508549;-0.001666358;0.272395968;0.962180614
2024/05/03/13:25:53.333230;192388;1714767953;332923907;world;-0.000492539;-5.07E-05;-0.000119364;-0.002433402;-0.001631374;0.273680776;0.961816192
2024/05/03/13:25:53.353569;192389;1714767953;353081551;world;-0.000496436;-4.34E-05;-0.000132017;-0.002333352;-0.001581718;0.274925619;0.961461365
2024/05/03/13:25:53.364320;192390;1714767953;364029524;world;-0.000471529;-2.90E-05;-0.000117703;-0.002312575;-0.001594077;0.275567442;0.961277604
2024/05/03/13:25:53.383747;192391;1714767953;383416252;world;-0.000453711;-2.68E-05;-9.47E-05;-0.002420613;-0.001577428;0.276836574;0.960912645
2024/05/03/13:25:53.433481;192392;1714767953;433207706;world;-0.000481851;-5.14E-05;-0.000122769;-0.002498297;-0.001668357;0.278191268;0.960520983
2024/05/03/13:25:53.433737;192394;1714767953;433252941;world;-0.000517134;-8.09E-05;-0.000171775;-0.002685857;-0.00167274;0.280736238;0.959779799
2024/05/03/13:25:53.443578;192395;1714767953;443288353;world;-0.000506695;-6.64E-05;-0.000147815;-0.002760515;-0.001725664;0.282044441;0.959395826
2024/05/03/13:25:53.463697;192396;1714767953;463371553;world;-0.000498135;-6.60E-05;-0.000141794;-0.002770476;-0.001722532;0.283286691;0.959029734
2024/05/03/13:25:53.493546;192397;1714767953;493245030;world;-0.000502057;-8.72E-05;-0.000125983;-0.002884968;-0.001783178;0.283923566;0.958840966
2024/05/03/13:25:53.493569;192398;1714767953;493278974;world;-0.000533167;-0.00012326;-0.000133367;-0.002950937;-0.001800751;0.285264462;0.958442628
2024/05/03/13:25:53.533695;192399;1714767953;533275161;world;-0.000505153;-0.00010725;-0.000116545;-0.002832926;-0.001873717;0.286549658;0.958059371
2024/05/03/13:25:53.533718;192401;1714767953;533438087;world;-0.000447664;-4.74E-05;-9.52E-05;-0.002698735;-0.0017779;0.28912133;0.957287073
2024/05/03/13:25:53.553569;192402;1714767953;553285579;world;-0.000392593;-4.53E-05;-8.54E-05;-0.002731423;-0.00178819;0.290438265;0.956888199
2024/05/03/13:25:53.573396;192403;1714767953;572996061;world;-0.000369906;-5.38E-05;-7.90E-05;-0.002750619;-0.001823423;0.291646153;0.956520557
2024/05/03/13:25:53.583331;192404;1714767953;583009290;world;-0.000402961;-5.83E-05;-5.94E-05;-0.002791201;-0.001890835;0.292912751;0.956133306
2024/05/03/13:25:53.623662;192405;1714767953;623357551;world;-0.00042744;-4.34E-05;-6.27E-05;-0.002844156;-0.001865981;0.29413411;0.955758154
2024/05/03/13:25:53.623679;192406;1714767953;623392246;world;-0.000420798;-3.56E-05;-6.54E-05;-0.002874193;-0.001907616;0.295362443;0.955379128
2024/05/03/13:25:53.633427;192407;1714767953;633126538;world;-0.000405367;-3.76E-05;-6.74E-05;-0.002855033;-0.001864836;0.295965642;0.955192566
2024/05/03/13:25:53.643733;192408;1714767953;643337638;world;-0.000403099;-2.97E-05;-5.30E-05;-0.002743456;-0.00175343;0.297227681;0.954801142
2024/05/03/13:25:53.663564;192409;1714767953;663300700;world;-0.000420284;-4.72E-05;-5.56E-05;-0.002793144;-0.001746001;0.298498422;0.954404533
2024/05/03/13:25:53.683169;192410;1714767953;682959160;world;-0.000440326;-4.46E-05;-7.09E-05;-0.00274462;-0.001734957;0.299752563;0.9540115
2024/05/03/13:25:53.693357;192411;1714767953;693100731;world;-0.000427909;-3.11E-06;-7.62E-05;-0.002667507;-0.001773855;0.301037192;0.953607023
2024/05/03/13:25:53.733238;192412;1714767953;732910954;world;-0.000417184;2.39E-05;-8.32E-05;-0.002690481;-0.001727404;0.302315533;0.953202605
2024/05/03/13:25:53.733264;192413;1714767953;732944036;world;-0.000426762;4.85E-05;-9.32E-05;-0.002675172;-0.001747428;0.303593427;0.9527964
2024/05/03/13:25:53.743433;192414;1714767953;743180901;world;-0.000425082;6.15E-05;-0.000118609;-0.002657829;-0.001697519;0.304232329;0.952592671
2024/05/03/13:25:53.753742;192415;1714767953;753304164;world;-0.000420813;7.05E-05;-0.000119904;-0.00271627;-0.001863425;0.305569679;0.952164054
2024/05/03/13:25:53.773243;192416;1714767953;772973878;world;-0.000412125;9.30E-05;-0.000123246;-0.002713209;-0.001864335;0.306775331;0.951776326
2024/05/03/13:25:53.793292;192417;1714767953;793024656;world;-0.000416499;8.52E-05;-0.000126186;-0.002733061;-0.001940775;0.307987571;0.951384485
2024/05/03/13:25:53.823659;192418;1714767953;823369244;world;-0.000408176;7.22E-05;-0.000123949;-0.002724881;-0.001832247;0.30925411;0.950973749
2024/05/03/13:25:53.833419;192419;1714767953;833009976;world;-0.000433814;7.41E-05;-0.000157777;-0.002807716;-0.001786044;0.310542315;0.950553715
2024/05/03/13:25:53.833486;192420;1714767953;833038670;world;-0.000425234;4.28E-05;-0.000152905;-0.002971455;-0.001819133;0.311831355;0.950131118
2024/05/03/13:25:53.853656;192421;1714767953;853277200;world;-0.000454359;1.03E-05;-0.000158796;-0.003015663;-0.001782333;0.31307593;0.949721634
2024/05/03/13:25:53.863272;192422;1714767953;863005603;world;-0.000440568;1.34E-05;-0.000141775;-0.003113842;-0.001797585;0.313697696;0.949516058
2024/05/03/13:25:53.883302;192423;1714767953;883033398;world;-0.000437722;3.57E-05;-0.000131435;-0.003007428;-0.001748087;0.315047145;0.949069738
2024/05/03/13:25:53.903640;192424;1714767953;903117068;world;-0.000433449;2.39E-05;-0.000134065;-0.003067239;-0.001782452;0.316244066;0.948671222
2024/05/03/13:25:53.934067;192425;1714767953;933615947;world;-0.000459116;6.21E-06;-0.000145127;-0.003202403;-0.001810482;0.317564934;0.948229373
2024/05/03/13:25:53.934078;192426;1714767953;933699293;world;-0.000476066;1.80E-05;-0.00014346;-0.003164497;-0.001741105;0.318771303;0.947824836
2024/05/03/13:25:53.943427;192427;1714767953;943146019;world;-0.000477068;1.20E-05;-0.000141527;-0.003215334;-0.00179833;0.319922328;0.94743669
2024/05/03/13:25:53.953118;192428;1714767953;952922823;world;-0.000468802;2.62E-05;-0.0001341;-0.00321897;-0.001811326;0.32055378;0.947223127
2024/05/03/13:25:53.974128;192429;1714767953;973839361;world;-0.000433411;7.72E-05;-0.000137045;-0.00317881;-0.001774245;0.322466612;0.946573913
2024/05/03/13:25:53.994298;192430;1714767953;993412327;world;-0.000420723;0.000120046;-0.000121194;-0.003055385;-0.001751784;0.323082775;0.946364164
2024/05/03/13:25:54.023501;192431;1714767954;23226229;world;-0.000408292;0.000113838;-0.000135216;-0.003110113;-0.001725161;0.324327826;0.945938051
2024/05/03/13:25:54.033749;192432;1714767954;33445373;world;-0.000366937;0.000138245;-0.000112452;-0.003174576;-0.001687456;0.325558752;0.945514977
2024/05/03/13:25:54.033774;192433;1714767954;33482863;world;-0.000383779;0.000155431;-0.000101431;-0.003129549;-0.001808129;0.326912791;0.945047677
2024/05/03/13:25:54.053553;192434;1714767954;53295785;world;-0.000371054;0.000160548;-9.74E-05;-0.00284497;-0.001743202;0.328119665;0.944630325
2024/05/03/13:25:54.073408;192435;1714767954;73123419;world;-0.000351936;0.000166236;-8.03E-05;-0.002961737;-0.001812791;0.329325974;0.944209874
2024/05/03/13:25:54.083596;192436;1714767954;83147223;world;-0.000383686;0.000162701;-9.22E-05;-0.003031409;-0.00177141;0.330598712;0.943764865
2024/05/03/13:25:54.103540;192437;1714767954;103237108;world;-0.000375528;0.000148322;-8.35E-05;-0.00306525;-0.001890115;0.331792474;0.943345547
2024/05/03/13:25:54.133244;192438;1714767954;132935466;world;-0.00037916;0.000127066;-7.67E-05;-0.003034787;-0.001854414;0.332979023;0.942927539
2024/05/03/13:25:54.133267;192439;1714767954;132969340;world;-0.000414398;7.46E-05;-6.85E-05;-0.003173202;-0.001983292;0.33360225;0.942706525
2024/05/03/13:25:54.143361;192440;1714767954;143065183;world;-0.000446785;4.00E-05;-8.09E-05;-0.003238475;-0.002058669;0.334900558;0.942245722
2024/05/03/13:25:54.163245;192441;1714767954;162953155;world;-0.00046828;-2.53E-05;-9.21E-05;-0.003409109;-0.002148807;0.336235493;0.941769361
2024/05/03/13:25:54.183726;192442;1714767954;183405026;world;-0.000489812;-4.46E-05;-8.13E-05;-0.003477693;-0.002162393;0.337564975;0.941293299
2024/05/03/13:25:54.203879;192443;1714767954;203376412;world;-0.000511423;-8.85E-05;-8.42E-05;-0.003657791;-0.002286445;0.338959396;0.94079107
2024/05/03/13:25:54.203911;192444;1714767954;203408652;world;-0.000521824;-8.61E-05;-9.93E-05;-0.003715474;-0.002211811;0.34028405;0.940312743
2024/05/03/13:25:54.233602;192445;1714767954;233323461;world;-0.000493381;-7.34E-05;-0.000107219;-0.003602208;-0.002169915;0.34155333;0.939853013
2024/05/03/13:25:54.243572;192446;1714767954;243179345;world;-0.000483133;-6.72E-05;-0.000111868;-0.003603957;-0.002134268;0.34271121;0.939431548
2024/05/03/13:25:54.263247;192447;1714767954;262975049;world;-0.000481535;-6.73E-05;-0.000119195;-0.003538661;-0.002098107;0.343925238;0.93898803
2024/05/03/13:25:54.273346;192448;1714767954;272989643;world;-0.00046749;-6.78E-05;-0.000126914;-0.003507859;-0.002104512;0.344502896;0.938776374
2024/05/03/13:25:54.303413;192449;1714767954;303065931;world;-0.000419095;5.32E-06;-0.000102177;-0.003470357;-0.001985766;0.346381783;0.938085139
2024/05/03/13:25:54.303440;192450;1714767954;303099173;world;-0.00039513;-7.50E-06;-0.000113372;-0.003428341;-0.001965436;0.347022563;0.937848449
2024/05/03/13:25:54.353300;192451;1714767954;353017179;world;-0.000397418;2.10E-05;-8.49E-05;-0.00330256;-0.002015975;0.34823826;0.937398136
2024/05/03/13:25:54.353322;192453;1714767954;353061102;world;-0.000394505;3.16E-05;-0.000111884;-0.003361038;-0.002003563;0.350671083;0.936490476
2024/05/03/13:25:54.373564;192454;1714767954;373296994;world;-0.000397086;4.55E-05;-9.69E-05;-0.003333849;-0.002059111;0.3520239;0.935982883
2024/05/03/13:25:54.383559;192455;1714767954;383207792;world;-0.000410266;2.92E-05;-6.61E-05;-0.00341253;-0.002210171;0.352617651;0.93575871
2024/05/03/13:25:54.403346;192456;1714767954;403050896;world;-0.000418738;-1.10E-05;-6.95E-05;-0.003381098;-0.002288571;0.354449958;0.935066104
2024/05/03/13:25:54.413495;192457;1714767954;413159455;world;-0.000421155;1.16E-05;-4.96E-05;-0.003430995;-0.002344602;0.355065793;0.934832156
2024/05/03/13:25:54.433297;192458;1714767954;433046336;world;-0.000478752;-7.26E-05;-8.58E-05;-0.003702006;-0.002540958;0.356457919;0.934300661
2024/05/03/13:25:54.443278;192459;1714767954;443072424;world;-0.000454031;-6.06E-05;-6.01E-05;-0.003830154;-0.002607677;0.357668608;0.933837056
2024/05/03/13:25:54.463686;192460;1714767954;463403878;world;-0.000459164;-4.81E-05;-6.45E-05;-0.003791261;-0.002537933;0.358951032;0.933345318
2024/05/03/13:25:54.473753;192461;1714767954;472986431;world;-0.000468101;-6.25E-05;-9.02E-05;-0.003826003;-0.002512088;0.360168278;0.93287617
2024/05/03/13:25:54.493530;192462;1714767954;493178355;world;-0.000461299;-1.83E-05;-8.65E-05;-0.0037293;-0.002449461;0.361437261;0.932385802
2024/05/03/13:25:54.513277;192463;1714767954;512922037;world;-0.000451196;1.15E-05;-9.01E-05;-0.003703806;-0.002365201;0.362051934;0.932147622
2024/05/03/13:25:54.543204;192464;1714767954;542913687;world;-0.000475377;-1.18E-05;-0.000129144;-0.003656547;-0.002304414;0.363334715;0.931648731
2024/05/03/13:25:54.543275;192465;1714767954;542946769;world;-0.000412781;8.40E-05;-6.14E-05;-0.003531929;-0.002174793;0.36452499;0.931184351
2024/05/03/13:25:54.553441;192466;1714767954;553159680;world;-0.000388045;0.000125594;-5.56E-05;-0.003446193;-0.002089945;0.365751624;0.930703759
2024/05/03/13:25:54.563498;192467;1714767954;563173768;world;-0.000403292;0.000118885;-7.17E-05;-0.003393953;-0.002038565;0.367054641;0.93019104
2024/05/03/13:25:54.583531;192468;1714767954;583170522;world;-0.000405826;0.00015063;-3.77E-05;-0.003297954;-0.002117346;0.368301004;0.929698348
2024/05/03/13:25:54.613493;192469;1714767954;613190160;world;-0.000397328;0.000120699;-5.27E-05;-0.003394308;-0.002235885;0.368930608;0.929448068
2024/05/03/13:25:54.613520;192470;1714767954;613225786;world;-0.00038014;0.000137849;-4.91E-05;-0.003382216;-0.00218598;0.370110244;0.928979099
2024/05/03/13:25:54.653517;192471;1714767954;653075817;world;-0.000383858;0.000163563;-4.93E-05;-0.003462337;-0.002223929;0.37136665;0.928477228
2024/05/03/13:25:54.653544;192472;1714767954;653109921;world;-0.000378896;0.000167537;-5.52E-05;-0.003361378;-0.002178957;0.372584373;0.927989662
2024/05/03/13:25:54.663626;192473;1714767954;663261086;world;-0.000398248;0.000174144;-6.06E-05;-0.003374112;-0.002199816;0.373814106;0.927494884
2024/05/03/13:25:54.673739;192474;1714767954;673342921;world;-0.000412405;0.000170467;-7.08E-05;-0.003495364;-0.002265546;0.375054181;0.926993608
2024/05/03/13:25:54.693168;192475;1714767954;692913683;world;-0.000404712;0.000143731;-7.32E-05;-0.003532163;-0.002239256;0.376215309;0.926522851
2024/05/03/13:25:54.713218;192476;1714767954;712931942;world;-0.000404231;0.000167992;-5.63E-05;-0.003478727;-0.002259086;0.377505273;0.925998151
2024/05/03/13:25:54.753685;192477;1714767954;753122096;world;-0.000397671;0.000163047;-6.39E-05;-0.003494962;-0.002235084;0.378148019;0.925735831
2024/05/03/13:25:54.753707;192479;1714767954;753171218;world;-0.000453357;4.38E-05;-7.72E-05;-0.003664711;-0.002236108;0.380733311;0.924674869
2024/05/03/13:25:54.773302;192480;1714767954;772863142;world;-0.000439208;6.31E-05;-6.97E-05;-0.003866803;-0.002132823;0.382132351;0.924097002
2024/05/03/13:25:54.783477;192481;1714767954;783162220;world;-0.000440415;2.13E-05;-7.05E-05;-0.003791369;-0.002128569;0.383294851;0.923615873
2024/05/03/13:25:54.813461;192482;1714767954;813176457;world;-0.000448737;1.24E-05;-8.68E-05;-0.003736536;-0.002102083;0.384543896;0.923096716
2024/05/03/13:25:54.823465;192483;1714767954;823222345;world;-0.000471432;-2.09E-05;-9.13E-05;-0.003713428;-0.002231578;0.38577944;0.922580838
2024/05/03/13:25:54.853728;192484;1714767954;853409110;world;-0.00045922;-3.16E-05;-9.25E-05;-0.003588266;-0.002245705;0.386930555;0.922099173
2024/05/03/13:25:54.853751;192485;1714767954;853441882;world;-0.000445493;-3.91E-05;-8.22E-05;-0.003555581;-0.002168312;0.388201267;0.921565175
2024/05/03/13:25:54.863295;192486;1714767954;862982753;world;-0.000459749;-3.27E-05;-9.01E-05;-0.003504057;-0.002154078;0.388849169;0.921292245
2024/05/03/13:25:54.883312;192487;1714767954;883026607;world;-0.000464808;6.21E-05;-9.38E-05;-0.003294486;-0.002227243;0.390746206;0.920489848
2024/05/03/13:25:54.893558;192488;1714767954;893271878;world;-0.000451736;7.16E-05;-8.71E-05;-0.003255608;-0.00225181;0.39129144;0.920258284
2024/05/03/13:25:54.913499;192489;1714767954;913112161;world;-0.000494272;-3.07E-05;-8.01E-05;-0.003398712;-0.002292057;0.392384768;0.919791996
2024/05/03/13:25:54.923462;192490;1714767954;923168700;world;-0.000447296;-2.47E-05;-5.08E-05;-0.003334399;-0.002171214;0.393605113;0.919270992
2024/05/03/13:25:54.953493;192491;1714767954;953172501;world;-0.000456776;2.99E-06;-1.02E-05;-0.003398186;-0.002293797;0.394818485;0.918749988
2024/05/03/13:25:54.963216;192492;1714767954;962956981;world;-0.000462022;-2.91E-05;-2.68E-06;-0.003281219;-0.002392813;0.395941883;0.918266594
2024/05/03/13:25:54.973689;192493;1714767954;973382900;world;-0.000475068;-4.90E-05;-6.85E-06;-0.003374716;-0.002363309;0.397203058;0.91772151
2024/05/03/13:25:54.993229;192494;1714767954;992930145;world;-0.000477746;-8.57E-05;-2.84E-06;-0.003425924;-0.002388434;0.39841193;0.917197049
2024/05/03/13:25:55.004651;192495;1714767955;3530873;world;-0.000500619;-8.09E-05;-3.63E-05;-0.003493984;-0.002242031;0.399108827;0.916894197
2024/05/03/13:25:55.023404;192496;1714767955;23057667;world;-0.000517555;-0.000115201;-3.55E-05;-0.003483751;-0.002233448;0.400916517;0.91610533
2024/05/03/13:25:55.073486;192497;1714767955;73180708;world;-0.000512406;-0.000149503;-3.61E-05;-0.003626964;-0.002222808;0.401506245;0.915846407
2024/05/03/13:25:55.073510;192499;1714767955;73226233;world;-0.000525191;-0.000145379;-2.11E-05;-0.00344485;-0.002205762;0.403935671;0.914778233
2024/05/03/13:25:55.093723;192500;1714767955;93420392;world;-0.000479624;-0.000172548;7.09E-05;-0.003545573;-0.002461666;0.405194074;0.914220572
2024/05/03/13:25:55.103596;192501;1714767955;103293812;world;-0.000472948;-0.000203924;6.29E-05;-0.00361356;-0.002457036;0.4064942;0.913642943
2024/05/03/13:25:55.123365;192502;1714767955;123045314;world;-0.000474866;-0.000148691;5.87E-05;-0.003596397;-0.00245255;0.40780434;0.913058996
2024/05/03/13:25:55.153784;192503;1714767955;153440461;world;-0.000517335;-0.000177583;-3.11E-05;-0.003368515;-0.002491357;0.408918858;0.912561178
2024/05/03/13:25:55.153811;192504;1714767955;153472691;world;-0.000513356;-0.000200875;-3.49E-05;-0.003400527;-0.002485722;0.409533054;0.912285566
2024/05/03/13:25:55.163504;192505;1714767955;163248037;world;-0.000498649;-0.00014372;-1.87E-06;-0.003387713;-0.002544823;0.411401898;0.911444187
2024/05/03/13:25:55.183417;192506;1714767955;183147195;world;-0.000507802;-0.000165315;-2.03E-05;-0.003481585;-0.002591817;0.411939293;0.911200941
2024/05/03/13:25:55.193439;192507;1714767955;192944008;world;-0.000513524;-0.000191286;-3.76E-05;-0.003663645;-0.002671838;0.413148314;0.910652459
2024/05/03/13:25:55.213233;192508;1714767955;212941364;world;-0.000506975;-0.000156088;-3.84E-05;-0.003636616;-0.0025908;0.414308548;0.910125554
2024/05/03/13:25:55.223520;192509;1714767955;223235868;world;-0.000519805;-0.000167184;-5.14E-05;-0.003608018;-0.00261418;0.415526986;0.909569979
2024/05/03/13:25:55.263421;192510;1714767955;263138773;world;-0.000522833;-0.00016452;-6.79E-05;-0.003673536;-0.002679611;0.416789114;0.908991814
2024/05/03/13:25:55.263444;192511;1714767955;263174480;world;-0.000540242;-0.000185864;-5.85E-05;-0.003658667;-0.002731185;0.417995393;0.908437669
2024/05/03/13:25:55.273556;192512;1714767955;273229931;world;-0.000536676;-0.000201838;-4.81E-05;-0.003760039;-0.002834868;0.418623567;0.908147633
2024/05/03/13:25:55.283354;192513;1714767955;283136092;world;-0.000561673;-0.000181261;-4.10E-05;-0.003723914;-0.002822079;0.41987583;0.907569528
2024/05/03/13:25:55.303882;192514;1714767955;303567915;world;-0.000526335;-0.000158722;-2.21E-05;-0.003731027;-0.002806003;0.42110616;0.90699929
2024/05/03/13:25:55.323198;192515;1714767955;322923910;world;-0.000524417;-0.000167232;-2.15E-05;-0.00365746;-0.002710805;0.422320813;0.906435013
2024/05/03/13:25:55.333470;192516;1714767955;332906768;world;-0.000543188;-0.000124631;-1.10E-05;-0.003594375;-0.002718774;0.423518896;0.90587604
2024/05/03/13:25:55.353290;192517;1714767955;352984138;world;-0.000545453;-0.000170758;-4.86E-06;-0.003617401;-0.002784613;0.424687177;0.905328691
2024/05/03/13:25:55.363473;192518;1714767955;363141771;world;-0.000547536;-0.00017424;-5.15E-05;-0.003754643;-0.002632135;0.425900251;0.904758513
2024/05/03/13:25:55.383742;192519;1714767955;383471319;world;-0.000515807;-0.000141593;-3.49E-05;-0.003688181;-0.002667438;0.426496685;0.904477656
2024/05/03/13:25:55.393618;192520;1714767955;393337633;world;-0.000490658;-0.000140635;-4.32E-05;-0.003621352;-0.00264437;0.427618146;0.903948307
2024/05/03/13:25:55.413326;192521;1714767955;413022239;world;-0.0005242;-0.0002167;-6.12E-05;-0.003511271;-0.002881582;0.428642273;0.903462887
2024/05/03/13:25:55.433203;192522;1714767955;432914902;world;-0.000515882;-0.000222608;-4.74E-05;-0.003630394;-0.002829884;0.429779559;0.902922153
2024/05/03/13:25:55.473644;192523;1714767955;473287377;world;-0.000520095;-0.000246095;-5.73E-05;-0.003649393;-0.002859646;0.43096742;0.902355611
2024/05/03/13:25:55.473672;192525;1714767955;473328574;world;-0.000488561;-0.000288859;-5.38E-05;-0.003702902;-0.002931447;0.43338272;0.901197612
2024/05/03/13:25:55.493547;192526;1714767955;493239801;world;-0.000481144;-0.00028455;-5.02E-05;-0.003702296;-0.00295297;0.434557259;0.900631726
2024/05/03/13:25:55.513154;192527;1714767955;512886252;world;-0.000456434;-0.000234538;-4.16E-05;-0.003767848;-0.002994597;0.435891926;0.899986148
2024/05/03/13:25:55.533416;192528;1714767955;533081931;world;-0.000456169;-0.000237104;-2.88E-05;-0.003713973;-0.002994169;0.436491251;0.899695873
2024/05/03/13:25:55.533433;192529;1714767955;533119442;world;-0.000474147;-0.000244669;-1.73E-05;-0.003715902;-0.003121559;0.437708229;0.899103999
2024/05/03/13:25:55.583596;192530;1714767955;583228484;world;-0.00045174;-0.000198789;1.20E-05;-0.003840132;-0.003041293;0.438985616;0.898480773
2024/05/03/13:25:55.583617;192532;1714767955;583280983;world;-0.000441574;-0.000136398;2.07E-06;-0.003757964;-0.002993562;0.441435188;0.897280276
2024/05/03/13:25:55.603294;192533;1714767955;602932078;world;-0.000461288;-0.000120026;-1.50E-05;-0.003835358;-0.002884242;0.442652971;0.896680176
2024/05/03/13:25:55.613661;192534;1714767955;613337965;world;-0.000442337;-0.000110794;-2.75E-05;-0.003779308;-0.002788886;0.443895608;0.896066189
2024/05/03/13:25:55.633658;192535;1714767955;633360228;world;-0.000417002;-6.44E-05;-2.46E-05;-0.003693904;-0.002694165;0.444442272;0.895795882
2024/05/03/13:25:55.653496;192536;1714767955;653047366;world;-0.000403989;-9.86E-05;-1.43E-05;-0.003808308;-0.002669635;0.445704579;0.895168006
2024/05/03/13:25:55.663421;192537;1714767955;663053771;world;-0.000425357;-0.000135301;-3.17E-05;-0.003844854;-0.00262674;0.446922272;0.894560695
2024/05/03/13:25:55.683887;192538;1714767955;683559719;world;-0.000394668;-0.000176834;-3.22E-05;-0.003940806;-0.002634687;0.44813785;0.893951952
2024/05/03/13:25:55.693588;192539;1714767955;693248991;world;-0.000447202;-0.000217797;-4.91E-05;-0.003890924;-0.002665406;0.449265718;0.893385768
2024/05/03/13:25:55.713547;192540;1714767955;713170929;world;-0.00046185;-0.000275681;-5.40E-05;-0.004006153;-0.002591457;0.450492382;0.892767549
2024/05/03/13:25:55.723615;192541;1714767955;723352232;world;-0.000448689;-0.000291351;-5.28E-05;-0.004024127;-0.002611633;0.451109469;0.892455697
2024/05/03/13:25:55.743311;192542;1714767955;742940241;world;-0.000440661;-0.000309715;-4.42E-05;-0.004094174;-0.002667166;0.452260166;0.891872644
2024/05/03/13:25:55.773765;192543;1714767955;773239788;world;-0.000479758;-0.000295307;-4.25E-05;-0.004106239;-0.002783702;0.453445196;0.891270339
2024/05/03/13:25:55.773793;192544;1714767955;773274053;world;-0.000505697;-0.000321439;-5.17E-05;-0.004271651;-0.002734316;0.454815596;0.890571177
2024/05/03/13:25:55.783716;192545;1714767955;783378630;world;-0.0004883;-0.000282631;-4.90E-05;-0.004208093;-0.002694723;0.456022501;0.889954209
2024/05/03/13:25:55.803725;192546;1714767955;803384965;world;-0.000481274;-0.000283417;-5.15E-05;-0.004179803;-0.002788233;0.457174718;0.889362752
2024/05/03/13:25:55.813920;192547;1714767955;813625337;world;-0.000478562;-0.000285649;-6.40E-05;-0.004092793;-0.002795163;0.458353013;0.888756394
2024/05/03/13:25:55.843729;192548;1714767955;843342361;world;-0.000469547;-0.000290477;-6.03E-05;-0.00406131;-0.002776949;0.459510744;0.888158679
2024/05/03/13:25:55.853570;192549;1714767955;853277923;world;-0.000470433;-0.000297598;-5.07E-05;-0.00406128;-0.002891576;0.460082978;0.887861907
2024/05/03/13:25:55.873366;192550;1714767955;873058775;world;-0.000462111;-0.000300496;-3.68E-05;-0.003999964;-0.002870164;0.461264223;0.887249172
2024/05/03/13:25:55.883302;192551;1714767955;883012880;world;-0.000443317;-0.000320406;-3.47E-05;-0.004037073;-0.00288771;0.462429523;0.886642098
2024/05/03/13:25:55.893797;192552;1714767955;893484948;world;-0.000424925;-0.00031432;-2.67E-05;-0.003903264;-0.002829515;0.463530183;0.886068046
2024/05/03/13:25:55.913355;192553;1714767955;913101103;world;-0.000385683;-0.000315479;-4.78E-05;-0.004068756;-0.002801012;0.464687347;0.885461032
2024/05/03/13:25:55.923409;192554;1714767955;923125931;world;-0.00038667;-0.000302909;-2.45E-05;-0.004026513;-0.002825137;0.46585843;0.884845614
2024/05/03/13:25:55.943541;192555;1714767955;943150057;world;-0.000429891;-0.000318142;-2.74E-05;-0.004065796;-0.002818825;0.467087239;0.884197414
2024/05/03/13:25:55.973337;192556;1714767955;973007536;world;-0.000442356;-0.000307819;-2.00E-05;-0.004047969;-0.002913728;0.4681831;0.883617461
2024/05/03/13:25:55.973364;192557;1714767955;973051358;world;-0.000433713;-0.000269357;-4.79E-06;-0.003978583;-0.002865071;0.469323456;0.883012772
2024/05/03/13:25:55.993374;192558;1714767955;993052954;world;-0.000428546;-0.000262782;-1.06E-05;-0.003947517;-0.002858619;0.470470995;0.882402062
2024/05/03/13:25:56.013723;192559;1714767956;13439873;world;-0.000427678;-0.000221491;-7.74E-06;-0.003870648;-0.002891069;0.471683621;0.881754637
2024/05/03/13:25:56.023227;192560;1714767956;22968440;world;-0.000427917;-0.000229804;-6.61E-06;-0.00397294;-0.002959348;0.47222355;0.881464899
2024/05/03/13:25:56.043472;192561;1714767956;43179561;world;-0.000438914;-0.000212962;-8.53E-06;-0.003949652;-0.002981633;0.473448873;0.8808074
2024/05/03/13:25:56.063355;192562;1714767956;63091198;world;-0.000429556;-0.000225015;-3.90E-05;-0.003958715;-0.002994765;0.474659652;0.880155385
2024/05/03/13:25:56.083380;192563;1714767956;83028333;world;-0.000435069;-0.000229992;-2.67E-05;-0.003967278;-0.00304229;0.475788146;0.879545689
