time;.header.seq;.header.stamp.secs;.header.stamp.nsecs;.header.frame_id;.pose.position.x;.pose.position.y;.pose.position.z;.pose.orientation.x;.pose.orientation.y;.pose.orientation.z;.pose.orientation.w
2024/05/03/12:36:47.043612;8245;1714765007;43224844;world;6.58E-07;-1.97E-05;1.43E-05;-3.89E-05;-2.16E-05;-1.49E-05;1
2024/05/03/12:36:47.043673;8247;1714765007;43270147;world;-1.03E-05;-3.32E-05;5.47E-06;-7.62E-05;6.83E-05;-3.46E-05;1
2024/05/03/12:36:47.063476;8248;1714765007;63132051;world;-6.26E-06;-3.08E-05;-3.50E-06;-9.59E-05;2.97E-05;9.37E-06;1
2024/05/03/12:36:47.083730;8249;1714765007;83120798;world;-7.76E-06;-2.90E-05;9.90E-06;-7.77E-06;-1.65E-05;-1.10E-05;1
2024/05/03/12:36:47.093592;8250;1714765007;93270666;world;-7.89E-06;-2.69E-05;1.99E-05;-4.34E-05;-1.59E-05;-1.48E-05;1
2024/05/03/12:36:47.133603;8251;1714765007;133305373;world;-1.19E-05;-1.95E-05;6.47E-06;5.84E-07;-4.04E-06;2.79E-06;1
2024/05/03/12:36:47.133626;8252;1714765007;133343924;world;-4.79E-06;-2.60E-05;4.10E-07;-6.38E-05;2.92E-05;-3.33E-05;1
2024/05/03/12:36:47.143510;8253;1714765007;143194644;world;-8.63E-06;-2.36E-05;8.15E-06;-7.20E-05;4.43E-06;-1.70E-05;1
2024/05/03/12:36:47.153205;8254;1714765007;152953656;world;-1.09E-05;-2.76E-05;9.83E-06;-3.12E-05;1.48E-05;-4.53E-06;1
2024/05/03/12:36:47.173475;8255;1714765007;173164319;world;-1.11E-05;-2.54E-05;1.62E-05;5.42E-06;-1.78E-05;-1.85E-05;1
2024/05/03/12:36:47.183336;8256;1714765007;183013655;world;-3.73E-06;-2.68E-05;5.98E-06;-0.000103943;6.79E-05;-2.83E-05;1
2024/05/03/12:36:47.203686;8257;1714765007;203385904;world;-3.34E-06;-2.59E-05;1.33E-05;-2.64E-05;1.22E-06;-2.45E-05;1
2024/05/03/12:36:47.243351;8258;1714765007;243064469;world;-1.19E-05;-2.29E-05;1.61E-05;-1.39E-06;2.06E-05;-9.34E-06;1
2024/05/03/12:36:47.243377;8259;1714765007;243105173;world;-7.32E-06;-2.77E-05;1.37E-05;-3.54E-05;1.06E-05;3.92E-06;1
2024/05/03/12:36:47.253324;8260;1714765007;253026895;world;-1.38E-05;-2.88E-05;2.95E-06;-2.68E-07;-2.83E-05;-5.04E-06;1
2024/05/03/12:36:47.263657;8261;1714765007;263350971;world;-2.72E-06;-2.78E-05;1.02E-05;-4.06E-05;7.40E-06;-1.57E-05;1
2024/05/03/12:36:47.293264;8262;1714765007;292962710;world;2.20E-06;-2.74E-05;1.48E-05;9.23E-06;1.16E-05;-1.48E-05;1
2024/05/03/12:36:47.303222;8263;1714765007;302940072;world;-5.12E-09;-2.72E-05;2.09E-06;-4.26E-05;4.50E-05;-3.43E-05;1
2024/05/03/12:36:47.343406;8264;1714765007;343038726;world;1.05E-05;-2.22E-05;3.06E-06;-2.58E-05;-1.60E-05;-2.50E-05;1
2024/05/03/12:36:47.343445;8266;1714765007;343083618;world;1.35E-06;-2.45E-05;1.28E-05;-4.18E-05;1.98E-05;3.22E-07;1
2024/05/03/12:36:47.363256;8267;1714765007;362984013;world;-5.71E-06;-2.77E-05;1.37E-05;-3.82E-05;9.50E-06;-1.08E-05;1
2024/05/03/12:36:47.373423;8268;1714765007;373107261;world;-3.18E-06;-2.16E-05;7.72E-06;-3.31E-05;-5.04E-06;-8.34E-07;1
2024/05/03/12:36:47.393477;8269;1714765007;393096610;world;-3.78E-06;-2.91E-05;1.00E-05;-1.01E-05;3.20E-05;-3.13E-05;1
2024/05/03/12:36:47.403581;8270;1714765007;403235917;world;-3.47E-06;-2.82E-05;1.01E-05;-3.67E-05;3.20E-05;1.38E-05;1
2024/05/03/12:36:47.433507;8271;1714765007;432956145;world;-1.54E-05;-2.53E-05;1.44E-05;-4.04E-05;-2.49E-05;8.69E-06;1
2024/05/03/12:36:47.433527;8272;1714765007;432992171;world;-7.76E-06;-3.14E-05;-1.07E-06;-3.31E-05;9.21E-06;-4.25E-05;1
2024/05/03/12:36:47.453430;8273;1714765007;453104884;world;1.92E-06;-2.02E-05;3.19E-06;-1.94E-07;1.05E-06;-2.10E-05;1
2024/05/03/12:36:47.474945;8274;1714765007;473528588;world;-2.43E-06;-3.08E-05;3.29E-06;-7.29E-05;6.21E-05;-1.59E-05;1
2024/05/03/12:36:47.493643;8275;1714765007;493089249;world;-1.36E-05;-3.03E-05;1.76E-05;-4.94E-05;2.15E-05;1.31E-05;1
2024/05/03/12:36:47.503643;8276;1714765007;503347676;world;-7.90E-06;-2.61E-05;4.86E-06;-7.41E-05;4.34E-05;-3.93E-06;1
2024/05/03/12:36:47.533417;8277;1714765007;533076540;world;-4.21E-06;-2.92E-05;4.36E-06;-1.17E-05;5.00E-05;-4.37E-06;1
2024/05/03/12:36:47.533441;8278;1714765007;533110753;world;-5.61E-06;-3.21E-05;1.16E-05;-3.99E-05;1.51E-05;-1.42E-05;1
2024/05/03/12:36:47.553449;8279;1714765007;553135824;world;5.96E-06;-2.08E-05;6.28E-06;3.97E-06;1.81E-05;-3.75E-05;1
2024/05/03/12:36:47.564193;8280;1714765007;563440816;world;-7.82E-06;-3.75E-05;2.80E-06;-0.000100129;4.32E-05;-1.32E-05;1
2024/05/03/12:36:47.583395;8281;1714765007;583040491;world;-1.18E-05;-2.37E-05;8.42E-06;1.66E-05;1.35E-05;-1.48E-05;1
2024/05/03/12:36:47.604286;8282;1714765007;603440490;world;-1.20E-05;-2.70E-05;1.26E-05;-7.20E-05;4.38E-06;-2.09E-06;1
2024/05/03/12:36:47.613290;8283;1714765007;613101092;world;-2.63E-06;-2.71E-05;9.14E-06;-3.02E-05;1.71E-06;1.24E-05;1
2024/05/03/12:36:47.633213;8284;1714765007;632921900;world;-1.58E-05;-3.62E-05;1.32E-05;-6.31E-05;3.86E-05;1.23E-05;1
2024/05/03/12:36:47.643610;8285;1714765007;643308838;world;-1.71E-05;-2.08E-05;8.77E-06;-7.41E-05;3.72E-05;-2.43E-05;1
2024/05/03/12:36:47.663308;8286;1714765007;663000864;world;-2.54E-06;-2.04E-05;4.91E-06;-9.26E-07;7.73E-06;-1.46E-05;1
2024/05/03/12:36:47.673302;8287;1714765007;673000137;world;-1.38E-05;-1.83E-05;1.40E-05;-1.79E-05;2.10E-05;2.03E-05;1
2024/05/03/12:36:47.703676;8288;1714765007;703372628;world;-1.63E-05;-3.18E-05;2.44E-06;-9.04E-05;7.03E-05;-3.33E-06;1
2024/05/03/12:36:47.703703;8289;1714765007;703409175;world;-9.49E-06;-3.02E-05;3.86E-06;-6.61E-05;3.08E-05;-2.11E-05;1
2024/05/03/12:36:47.743394;8290;1714765007;743110973;world;-7.82E-06;-2.53E-05;8.45E-06;-4.41E-05;2.43E-05;1.79E-05;1
2024/05/03/12:36:47.743478;8291;1714765007;743154152;world;-1.26E-05;-2.96E-05;9.83E-06;-5.97E-05;3.31E-05;-1.84E-05;1
2024/05/03/12:36:47.753386;8292;1714765007;753097001;world;-2.29E-05;-3.14E-05;1.45E-05;-4.22E-05;1.28E-05;9.18E-06;1
2024/05/03/12:36:47.763471;8293;1714765007;763128461;world;3.41E-07;-1.57E-05;1.03E-05;1.94E-05;-2.71E-05;9.49E-06;1
2024/05/03/12:36:47.783584;8294;1714765007;783110435;world;-2.10E-06;-2.28E-05;2.56E-06;-5.90E-05;9.03E-06;1.62E-05;1
2024/05/03/12:36:47.803198;8295;1714765007;802926842;world;-6.42E-06;-2.09E-05;1.59E-05;7.36E-06;-2.23E-05;-7.23E-07;1
2024/05/03/12:36:47.813549;8296;1714765007;813157764;world;-9.13E-06;-2.48E-05;8.22E-06;1.07E-06;-8.45E-06;-4.01E-06;1
2024/05/03/12:36:47.853737;8297;1714765007;853277816;world;-1.78E-05;-1.89E-05;2.02E-06;-5.76E-05;2.67E-05;-5.75E-06;1
2024/05/03/12:36:47.853765;8298;1714765007;853325834;world;-1.38E-05;-2.72E-05;3.34E-06;-5.76E-05;5.04E-05;-1.05E-05;1
2024/05/03/12:36:47.863639;8299;1714765007;863364420;world;-2.41E-06;-1.83E-05;2.69E-06;-2.74E-05;-9.85E-06;-1.26E-05;1
2024/05/03/12:36:47.873404;8300;1714765007;872999553;world;-1.88E-05;-2.07E-05;1.68E-05;-8.84E-06;3.25E-05;-4.51E-06;1
2024/05/03/12:36:47.893152;8301;1714765007;892851990;world;-2.53E-06;-3.14E-05;-2.33E-06;-6.99E-06;1.24E-05;-2.02E-05;1
2024/05/03/12:36:47.903358;8302;1714765007;902965882;world;-1.42E-05;-2.42E-05;1.56E-06;-5.48E-05;3.23E-06;1.16E-05;1
2024/05/03/12:36:47.923438;8303;1714765007;923110723;world;-3.54E-06;-2.62E-05;6.63E-06;-6.32E-05;5.77E-05;-1.65E-05;1
2024/05/03/12:36:47.943786;8304;1714765007;943398918;world;2.40E-06;-2.01E-05;1.74E-05;-7.99E-06;-1.22E-05;1.57E-06;1
2024/05/03/12:36:47.953394;8305;1714765007;953117747;world;-9.18E-06;-1.66E-05;2.36E-05;-2.87E-05;-5.36E-06;4.80E-06;1
2024/05/03/12:36:47.973460;8306;1714765007;973130436;world;-6.77E-06;-2.97E-05;6.78E-06;-4.39E-06;2.15E-05;-3.86E-05;1
2024/05/03/12:36:47.983418;8307;1714765007;983169251;world;-1.73E-05;-3.00E-05;1.57E-05;-3.67E-05;8.03E-06;-1.77E-05;1
2024/05/03/12:36:48.003443;8308;1714765008;3139673;world;-1.41E-05;-2.26E-05;2.09E-05;-3.21E-05;-3.20E-06;1.60E-06;1
2024/05/03/12:36:48.013439;8309;1714765008;13105054;world;-1.67E-05;-1.19E-05;6.98E-06;-5.45E-05;3.70E-05;7.56E-06;1
2024/05/03/12:36:48.044098;8310;1714765008;43694397;world;-1.34E-05;-2.81E-05;3.49E-07;-8.38E-05;4.33E-05;-1.71E-05;1
2024/05/03/12:36:48.053224;8311;1714765008;52966289;world;-7.91E-06;-2.47E-05;1.68E-05;5.19E-06;-1.33E-05;-3.20E-05;1
2024/05/03/12:36:48.063679;8312;1714765008;63366278;world;4.24E-07;-1.75E-05;1.51E-05;-5.14E-05;2.92E-05;5.61E-06;1
2024/05/03/12:36:48.083624;8313;1714765008;83316517;world;-1.40E-05;-2.13E-05;8.47E-06;-3.38E-05;1.51E-05;-5.22E-06;1
2024/05/03/12:36:48.093376;8314;1714765008;93046047;world;-1.45E-05;-2.14E-05;5.62E-06;-2.04E-05;1.19E-05;-1.28E-05;1
2024/05/03/12:36:48.113373;8315;1714765008;113078605;world;-1.05E-05;-1.42E-05;1.05E-05;-2.37E-05;1.04E-05;-9.39E-06;1
2024/05/03/12:36:48.133312;8316;1714765008;132959517;world;-6.87E-06;-2.72E-05;2.82E-05;2.01E-05;-1.54E-05;-2.65E-05;1
2024/05/03/12:36:48.153284;8317;1714765008;152911500;world;-1.14E-05;-2.43E-05;1.68E-05;-3.98E-05;8.93E-06;-1.62E-05;1
2024/05/03/12:36:48.153311;8318;1714765008;152948388;world;1.41E-06;-2.11E-05;1.38E-05;-1.78E-06;-3.62E-05;-1.37E-05;1
2024/05/03/12:36:48.174093;8319;1714765008;173764642;world;-2.70E-06;-1.70E-05;1.22E-05;-2.43E-06;2.78E-05;-3.14E-07;1
2024/05/03/12:36:48.183295;8320;1714765008;182941359;world;-9.03E-06;-2.25E-05;1.81E-05;-4.10E-05;1.44E-05;-9.37E-06;1
2024/05/03/12:36:48.213613;8321;1714765008;213105886;world;-1.51E-05;-3.00E-05;1.26E-05;-5.90E-05;2.30E-05;1.48E-05;1
2024/05/03/12:36:48.213645;8322;1714765008;213143024;world;-2.03E-05;-2.67E-05;6.55E-06;-2.05E-05;-2.88E-06;-4.49E-06;1
2024/05/03/12:36:48.253246;8323;1714765008;252893066;world;-1.13E-05;-2.21E-05;2.09E-06;-4.14E-05;5.67E-05;-3.07E-05;1
2024/05/03/12:36:48.253286;8324;1714765008;252929643;world;-8.24E-06;-3.03E-05;1.28E-05;-6.92E-05;4.85E-05;-1.37E-05;1
2024/05/03/12:36:48.263687;8325;1714765008;262974591;world;-3.92E-06;-2.94E-05;9.99E-06;-6.89E-05;5.81E-05;-3.20E-05;1
2024/05/03/12:36:48.283671;8326;1714765008;283362771;world;-5.57E-06;-3.27E-05;4.57E-06;-3.56E-05;8.35E-06;-3.88E-05;1
2024/05/03/12:36:48.293277;8327;1714765008;293005317;world;-8.36E-06;-2.53E-05;1.63E-05;-6.96E-05;-1.43E-05;6.34E-07;1
2024/05/03/12:36:48.313203;8328;1714765008;312895240;world;-1.26E-05;-2.79E-05;1.45E-05;-6.10E-05;2.92E-05;2.83E-05;1
2024/05/03/12:36:48.333925;8329;1714765008;333409525;world;-8.78E-08;-2.23E-05;8.38E-06;2.15E-05;-2.07E-06;-2.35E-05;1
2024/05/03/12:36:48.353508;8330;1714765008;353113640;world;-6.89E-06;-3.09E-05;-2.09E-06;-5.71E-05;4.71E-05;-1.47E-05;1
2024/05/03/12:36:48.363666;8331;1714765008;363354623;world;-4.52E-06;-2.49E-05;1.45E-05;1.85E-06;-2.70E-05;-4.62E-06;1
2024/05/03/12:36:48.373614;8332;1714765008;373308798;world;-8.55E-06;-3.36E-05;1.60E-05;-3.81E-05;2.14E-05;-2.09E-05;1
2024/05/03/12:36:48.393680;8333;1714765008;393072195;world;-1.36E-05;-2.43E-05;1.30E-05;-5.57E-05;-4.58E-06;-1.50E-05;1
2024/05/03/12:36:48.413273;8334;1714765008;412888808;world;-5.62E-06;-3.39E-05;7.13E-07;-4.35E-05;4.98E-05;-2.00E-05;1
2024/05/03/12:36:48.423569;8335;1714765008;422937272;world;-5.84E-06;-3.81E-05;3.50E-06;-7.43E-05;4.60E-05;-3.64E-05;1
2024/05/03/12:36:48.453323;8336;1714765008;452986929;world;-8.78E-06;-2.60E-05;2.09E-05;1.77E-05;-1.26E-05;7.00E-06;1
2024/05/03/12:36:48.453350;8337;1714765008;453030809;world;-1.38E-05;-3.12E-05;7.71E-06;-5.88E-05;7.00E-06;-1.63E-05;1
2024/05/03/12:36:48.473297;8338;1714765008;472986777;world;-1.42E-05;-1.66E-05;2.01E-05;-7.83E-05;1.68E-05;8.00E-06;1
2024/05/03/12:36:48.483319;8339;1714765008;483033349;world;1.45E-06;-4.06E-05;5.57E-06;-9.68E-05;4.24E-05;-6.95E-06;1
2024/05/03/12:36:48.503828;8340;1714765008;503118815;world;-1.74E-06;-3.53E-05;-5.43E-06;-7.43E-05;3.35E-05;-1.56E-05;1
2024/05/03/12:36:48.523500;8341;1714765008;523190197;world;-1.19E-06;-3.30E-05;1.47E-05;-1.12E-05;-3.02E-06;-3.12E-05;1
2024/05/03/12:36:48.533653;8342;1714765008;533338872;world;-5.09E-06;-3.27E-05;1.27E-05;-3.93E-05;8.10E-06;1.10E-05;1
2024/05/03/12:36:48.553286;8343;1714765008;552978784;world;-1.39E-06;-2.26E-05;3.94E-06;1.79E-05;3.71E-06;-6.28E-07;1
2024/05/03/12:36:48.563536;8344;1714765008;563223036;world;-2.13E-06;-3.45E-05;7.96E-06;-2.77E-05;-1.95E-05;-8.20E-06;1
2024/05/03/12:36:48.583673;8345;1714765008;583324342;world;-8.24E-06;-4.05E-05;1.15E-05;-5.54E-05;2.62E-05;2.88E-06;1
2024/05/03/12:36:48.593487;8346;1714765008;593172579;world;2.05E-07;-2.66E-05;1.41E-05;2.20E-05;-2.82E-05;-1.32E-05;1
2024/05/03/12:36:48.623435;8347;1714765008;623080325;world;4.17E-06;-3.43E-05;-3.05E-06;-5.57E-05;2.77E-05;-3.39E-05;1
2024/05/03/12:36:48.623465;8348;1714765008;623117373;world;2.98E-06;-2.76E-05;9.26E-06;-2.93E-05;-1.83E-05;-2.45E-05;1
2024/05/03/12:36:48.663710;8349;1714765008;663393339;world;-1.98E-05;-3.31E-05;1.08E-05;-2.19E-05;6.68E-06;-2.08E-05;1
2024/05/03/12:36:48.663722;8350;1714765008;663431208;world;-1.75E-05;-3.81E-05;1.20E-05;-5.40E-05;5.01E-05;-3.80E-05;1
2024/05/03/12:36:48.673629;8351;1714765008;673177347;world;-1.16E-06;-3.62E-05;6.81E-07;-6.42E-05;1.62E-05;-1.56E-05;1
2024/05/03/12:36:48.694236;8352;1714765008;693838680;world;-4.82E-06;-3.01E-05;9.80E-06;-5.27E-05;2.91E-07;-1.09E-05;1
2024/05/03/12:36:48.703404;8353;1714765008;703103658;world;-1.17E-05;-3.99E-05;1.52E-06;-9.40E-05;4.07E-05;-8.81E-06;1
2024/05/03/12:36:48.723840;8354;1714765008;723449657;world;-1.72E-06;-2.76E-05;1.10E-05;-8.62E-05;2.66E-05;-2.44E-05;1
2024/05/03/12:36:48.733694;8355;1714765008;733337681;world;5.70E-06;-3.23E-05;1.42E-05;-4.01E-05;2.48E-06;-2.67E-05;1
2024/05/03/12:36:48.764145;8356;1714765008;763473206;world;1.10E-06;-2.95E-05;4.66E-06;-2.54E-05;3.84E-05;-1.18E-05;1
2024/05/03/12:36:48.764168;8357;1714765008;763532975;world;-7.65E-06;-2.96E-05;6.60E-06;-1.38E-05;-4.52E-06;-5.34E-06;1
2024/05/03/12:36:48.783511;8358;1714765008;783157292;world;-1.18E-05;-3.79E-05;1.17E-05;-8.98E-05;6.98E-05;-2.48E-05;1
2024/05/03/12:36:48.803640;8359;1714765008;803309536;world;1.21E-05;-3.14E-05;2.60E-05;2.11E-05;-3.68E-05;-8.44E-06;1
2024/05/03/12:36:48.814192;8360;1714765008;813576540;world;-7.39E-06;-3.22E-05;1.53E-05;-6.34E-05;4.34E-05;-6.44E-06;1
2024/05/03/12:36:48.833715;8361;1714765008;833407336;world;-1.16E-05;-2.80E-05;3.11E-06;-1.24E-05;8.66E-06;1.43E-05;1
2024/05/03/12:36:48.873478;8362;1714765008;873129207;world;1.82E-06;-2.90E-05;2.27E-05;-5.81E-05;1.21E-05;-2.38E-05;1
2024/05/03/12:36:48.873503;8364;1714765008;873171484;world;-1.39E-06;-3.15E-05;1.07E-05;-4.66E-05;-9.43E-06;-1.76E-06;1
2024/05/03/12:36:48.893441;8365;1714765008;893034760;world;2.57E-06;-2.25E-05;2.57E-06;1.67E-05;1.21E-05;-1.35E-05;1
2024/05/03/12:36:48.903900;8366;1714765008;903468583;world;2.96E-06;-2.26E-05;1.66E-05;-2.33E-05;-1.36E-05;-6.92E-06;1
2024/05/03/12:36:48.933286;8367;1714765008;932906955;world;-1.95E-06;-3.13E-05;2.31E-05;-3.01E-05;-8.13E-06;-1.73E-05;1
2024/05/03/12:36:48.943354;8368;1714765008;942996784;world;4.12E-06;-2.75E-05;8.80E-06;-6.10E-05;2.60E-05;-2.52E-05;1
2024/05/03/12:36:48.963674;8369;1714765008;963322005;world;5.89E-06;-3.35E-05;5.47E-06;3.68E-05;-1.70E-05;-7.43E-06;1
2024/05/03/12:36:48.973481;8370;1714765008;973150529;world;1.33E-06;-3.08E-05;1.64E-05;-5.76E-05;5.89E-05;-2.29E-05;1
2024/05/03/12:36:48.983371;8371;1714765008;983021309;world;-2.55E-06;-2.73E-05;1.41E-05;-3.80E-05;-1.96E-05;-5.93E-06;1
2024/05/03/12:36:49.003498;8372;1714765009;3120872;world;-1.03E-05;-4.57E-05;-3.02E-06;-5.96E-05;2.17E-06;-7.80E-06;1
2024/05/03/12:36:49.013671;8373;1714765009;13161634;world;-1.12E-05;-3.57E-05;-1.24E-05;-6.61E-05;4.23E-05;-6.24E-06;1
2024/05/03/12:36:49.033442;8374;1714765009;33048341;world;3.38E-06;-3.14E-05;1.35E-06;-1.06E-05;3.57E-06;-1.21E-05;1
2024/05/03/12:36:49.063622;8375;1714765009;63283510;world;-1.24E-05;-3.47E-05;1.95E-05;-0.000104069;6.95E-05;-1.35E-05;1
2024/05/03/12:36:49.063647;8376;1714765009;63323483;world;-6.31E-06;-2.56E-05;-1.97E-06;-0.000109779;5.77E-05;-7.57E-06;1
2024/05/03/12:36:49.083401;8377;1714765009;83052411;world;-4.90E-06;-3.86E-05;-3.58E-06;-9.09E-05;2.93E-05;-4.35E-05;1
2024/05/03/12:36:49.093453;8378;1714765009;93113830;world;1.52E-05;-2.55E-05;6.01E-06;2.49E-05;-1.97E-05;4.01E-05;1
2024/05/03/12:36:49.113528;8379;1714765009;113185216;world;2.58E-06;-2.50E-05;1.93E-05;-5.12E-05;2.57E-06;3.33E-06;1
2024/05/03/12:36:49.133462;8380;1714765009;133092112;world;-7.90E-06;-2.70E-05;1.10E-05;-4.86E-05;1.62E-05;-1.12E-05;1
2024/05/03/12:36:49.144029;8381;1714765009;143687279;world;-5.26E-06;-3.11E-05;9.22E-07;-3.39E-05;1.58E-05;5.74E-06;1
2024/05/03/12:36:49.173249;8382;1714765009;172967130;world;4.30E-06;-2.57E-05;1.97E-05;-5.30E-06;-8.51E-06;-2.93E-05;1
2024/05/03/12:36:49.173276;8383;1714765009;173005981;world;-1.22E-05;-2.93E-05;2.85E-05;-2.40E-05;1.14E-05;1.13E-06;1
2024/05/03/12:36:49.193292;8384;1714765009;193006189;world;9.10E-06;-3.49E-05;3.94E-06;-8.51E-05;2.31E-05;-1.44E-05;1
2024/05/03/12:36:49.203327;8385;1714765009;203072979;world;-8.67E-06;-3.07E-05;1.41E-06;-3.30E-05;7.00E-06;-2.28E-06;1
2024/05/03/12:36:49.223347;8386;1714765009;223022268;world;2.45E-06;-2.61E-05;1.65E-05;-4.36E-05;-2.93E-05;1.10E-05;1
2024/05/03/12:36:49.233450;8387;1714765009;233167252;world;4.05E-06;-3.10E-05;2.66E-05;-2.33E-05;-5.08E-06;6.47E-07;1
2024/05/03/12:36:49.253390;8388;1714765009;253077259;world;8.71E-06;-3.19E-05;1.34E-05;-3.97E-05;5.25E-06;1.09E-05;1
2024/05/03/12:36:49.273349;8389;1714765009;272937658;world;-3.02E-06;-2.84E-05;6.63E-06;-4.90E-05;1.56E-05;-1.03E-05;1
2024/05/03/12:36:49.283320;8390;1714765009;283017790;world;2.79E-06;-3.03E-05;1.43E-05;-1.66E-05;2.22E-05;1.65E-05;1
2024/05/03/12:36:49.294883;8391;1714765009;294579117;world;-2.53E-06;-3.18E-05;9.80E-06;-5.06E-05;2.81E-05;-3.60E-05;1
2024/05/03/12:36:49.313615;8392;1714765009;313123159;world;5.77E-06;-3.07E-05;2.83E-05;-1.74E-05;-1.50E-06;-6.46E-06;1
2024/05/03/12:36:49.333493;8393;1714765009;333196296;world;7.56E-06;-3.20E-05;1.30E-05;-3.83E-05;1.74E-05;-1.44E-05;1
2024/05/03/12:36:49.343676;8394;1714765009;343301559;world;-4.71E-07;-3.77E-05;1.58E-05;-3.99E-05;-2.12E-05;2.41E-05;1
2024/05/03/12:36:49.393229;8395;1714765009;392972982;world;8.01E-06;-3.38E-05;2.72E-05;-7.43E-05;-2.20E-05;-6.56E-06;1
2024/05/03/12:36:49.393260;8397;1714765009;393007355;world;6.85E-07;-3.09E-05;1.28E-05;-3.65E-05;4.56E-05;-1.35E-05;1
2024/05/03/12:36:49.403644;8398;1714765009;403314183;world;8.77E-06;-3.49E-05;6.57E-06;-5.08E-05;8.54E-06;-2.44E-05;1
2024/05/03/12:36:49.424152;8399;1714765009;423221737;world;5.71E-06;-3.09E-05;2.11E-05;-4.21E-05;1.94E-05;-1.84E-05;1
2024/05/03/12:36:49.443670;8400;1714765009;443165167;world;-7.85E-06;-4.82E-05;1.27E-05;-0.000150575;5.63E-05;-1.37E-05;1
2024/05/03/12:36:49.453235;8401;1714765009;452906098;world;3.46E-06;-3.63E-05;1.02E-05;-6.56E-05;5.73E-05;8.47E-06;1
2024/05/03/12:36:49.483739;8402;1714765009;483226928;world;6.65E-06;-2.65E-05;1.68E-05;-5.40E-05;2.55E-05;-2.03E-05;1
2024/05/03/12:36:49.483769;8403;1714765009;483266380;world;-7.22E-06;-4.26E-05;1.34E-05;-3.00E-05;2.77E-05;7.46E-06;1
2024/05/03/12:36:49.503723;8404;1714765009;503265520;world;1.35E-06;-3.59E-05;1.99E-05;-3.26E-05;-3.74E-06;-1.59E-05;1
2024/05/03/12:36:49.513604;8405;1714765009;513281697;world;8.56E-06;-3.22E-05;9.76E-06;-7.92E-05;3.74E-05;-9.65E-06;1
2024/05/03/12:36:49.533551;8406;1714765009;533237258;world;-2.40E-06;-2.62E-05;6.23E-06;-2.10E-05;-3.53E-05;-2.75E-05;1
2024/05/03/12:36:49.543322;8407;1714765009;543012733;world;8.98E-07;-2.66E-05;2.26E-05;-9.31E-06;2.12E-06;-6.18E-06;1
2024/05/03/12:36:49.583596;8408;1714765009;583270552;world;-6.36E-06;-3.30E-05;2.73E-05;9.14E-06;-3.32E-05;-3.28E-08;1
2024/05/03/12:36:49.583624;8409;1714765009;583305206;world;-9.32E-06;-4.02E-05;1.28E-05;-2.09E-05;2.60E-05;-9.37E-07;1
2024/05/03/12:36:49.593447;8410;1714765009;593144499;world;1.24E-05;-3.09E-05;8.96E-07;-3.45E-05;-1.56E-05;-5.01E-05;1
2024/05/03/12:36:49.613564;8411;1714765009;613241551;world;5.12E-06;-2.88E-05;2.22E-05;-4.47E-06;-8.30E-06;2.53E-05;1
2024/05/03/12:36:49.623660;8412;1714765009;623102211;world;-1.75E-05;-2.73E-05;1.89E-05;-9.40E-05;3.14E-05;-5.96E-06;1
2024/05/03/12:36:49.643268;8413;1714765009;642965997;world;8.90E-06;-2.99E-05;3.26E-06;-2.87E-05;3.35E-05;-1.06E-05;1
2024/05/03/12:36:49.663596;8414;1714765009;663228139;world;-3.31E-06;-3.53E-05;5.04E-06;-6.96E-05;2.44E-05;-2.07E-06;1
2024/05/03/12:36:49.693185;8415;1714765009;692877368;world;1.07E-05;-3.39E-05;2.12E-05;-2.65E-05;-2.20E-05;-4.72E-05;1
2024/05/03/12:36:49.693208;8416;1714765009;692913955;world;-4.19E-06;-2.01E-05;1.31E-05;-3.67E-05;3.14E-05;-1.02E-05;1
2024/05/03/12:36:49.703233;8417;1714765009;702947924;world;-1.50E-05;-3.77E-05;1.36E-05;-9.30E-05;5.65E-05;-1.40E-05;1
2024/05/03/12:36:49.723101;8418;1714765009;722839438;world;-3.29E-06;-2.78E-05;1.00E-06;-8.96E-05;-2.95E-05;-1.88E-05;1
2024/05/03/12:36:49.743332;8419;1714765009;743043145;world;2.75E-06;-3.49E-05;1.19E-05;-2.25E-05;-2.95E-05;-1.47E-05;1
2024/05/03/12:36:49.753630;8420;1714765009;753216919;world;-1.60E-05;-2.94E-05;1.75E-05;-2.62E-05;3.38E-05;-7.90E-06;1
2024/05/03/12:36:49.793803;8421;1714765009;793511355;world;5.35E-06;-2.90E-05;1.56E-05;-4.80E-06;2.00E-05;-7.60E-06;1
2024/05/03/12:36:49.793827;8422;1714765009;793551148;world;1.52E-05;-2.53E-05;3.04E-06;-8.27E-05;-2.29E-05;-1.92E-05;1
2024/05/03/12:36:49.803595;8423;1714765009;803292972;world;0.000925931;-3.15E-05;-9.32E-06;-6.66E-05;-0.000107359;-0.000149154;1
2024/05/03/12:36:49.813629;8424;1714765009;813365047;world;0.001536803;-4.84E-05;3.83E-06;3.16E-05;-0.000145342;-0.000189769;1
2024/05/03/12:36:49.823227;8425;1714765009;822905556;world;0.002981132;-5.39E-05;5.54E-05;0.000179179;-0.000193698;-5.51E-05;1
2024/05/03/12:36:49.853740;8426;1714765009;853250107;world;0.004567629;-7.63E-05;5.06E-05;0.000187923;-0.000211893;-0.00010272;1
2024/05/03/12:36:49.853769;8427;1714765009;853394271;world;0.006368581;-5.57E-05;2.23E-05;0.000141619;-2.41E-05;-8.88E-05;1
2024/05/03/12:36:49.893568;8428;1714765009;893152375;world;0.008419766;-3.28E-05;0.00010964;0.000162327;0.000262941;-0.00011258;1
2024/05/03/12:36:49.893588;8429;1714765009;893187159;world;0.010571677;-3.32E-05;0.000107291;0.000159735;2.80E-05;-0.000133738;1
2024/05/03/12:36:49.903565;8430;1714765009;902940153;world;0.011600284;-1.21E-05;0.000114138;0.000165085;5.89E-05;-0.000179739;1
2024/05/03/12:36:49.923371;8431;1714765009;923119535;world;0.014595197;-3.04E-05;0.000122679;2.67E-05;0.000194836;-0.000171712;1
2024/05/03/12:36:49.933381;8432;1714765009;933009941;world;0.015628101;-2.80E-05;0.000116148;3.05E-05;0.000191232;-0.000112184;1
2024/05/03/12:36:49.953207;8433;1714765009;952892088;world;0.017772339;-2.50E-05;0.000163043;6.11E-05;0.000239401;9.73E-05;1
2024/05/03/12:36:49.993593;8434;1714765009;992896412;world;0.019871827;-7.50E-07;0.000167455;0.000226524;4.72E-05;-2.55E-05;1
2024/05/03/12:36:49.993622;8435;1714765009;992930815;world;0.021998001;-5.28E-05;0.000184146;0.000176964;4.05E-05;1.36E-05;1
2024/05/03/12:36:50.003829;8436;1714765010;3568982;world;0.024012286;-7.57E-05;0.000248504;0.000212132;5.61E-05;1.91E-05;1
2024/05/03/12:36:50.023326;8437;1714765010;23008631;world;0.026038246;-0.000107583;0.000309268;0.000302286;-2.21E-05;6.72E-05;1
2024/05/03/12:36:50.033663;8438;1714765010;33269998;world;0.028002884;-0.000122023;0.000298536;0.000201086;0.000173971;0.000103958;1
2024/05/03/12:36:50.053375;8439;1714765010;53035356;world;0.029829929;-0.000122443;0.000305701;0.000331826;0.00033535;0.000206097;0.999999881
2024/05/03/12:36:50.063193;8440;1714765010;62902290;world;0.030738115;-0.000121436;0.000329525;0.000194374;0.000510624;0.00027217;0.999999881
2024/05/03/12:36:50.103344;8441;1714765010;103067588;world;0.032424513;-0.000116013;0.000334872;0.000311646;0.000258013;0.000191336;0.999999881
2024/05/03/12:36:50.103392;8442;1714765010;103106459;world;0.034046769;-9.45E-05;0.000312549;0.00043164;0.000142215;0.000197791;0.999999881
2024/05/03/12:36:50.113502;8443;1714765010;113070641;world;0.035535492;-8.42E-05;0.000387066;0.000344698;0.000104961;0.000234989;0.999999881
2024/05/03/12:36:50.123325;8444;1714765010;123017802;world;0.036835015;-0.000101134;0.000428301;0.000385296;0.00021454;0.000269324;0.999999881
2024/05/03/12:36:50.143776;8445;1714765010;143266905;world;0.038072933;-0.000134042;0.000459598;0.000325826;0.000328802;0.000360494;0.999999881
2024/05/03/12:36:50.163644;8446;1714765010;163354573;world;0.03925414;-0.000121958;0.000449998;0.000416185;0.000284673;0.000536089;0.999999762
2024/05/03/12:36:50.193252;8447;1714765010;192906396;world;0.039801575;-0.000132322;0.00043757;0.0004385;0.00011995;0.000578208;0.999999762
2024/05/03/12:36:50.193276;8448;1714765010;192940138;world;0.040832855;-0.000160263;0.000423937;0.000480555;-4.27E-05;0.000678182;0.999999642
2024/05/03/12:36:50.203724;8449;1714765010;203437637;world;0.04178299;-0.000144992;0.000425255;0.00049805;4.24E-05;0.000742661;0.999999642
2024/05/03/12:36:50.223268;8450;1714765010;222905209;world;0.042635724;-0.000115188;0.000422511;0.000375756;0.000179967;0.000731356;0.999999642
2024/05/03/12:36:50.233491;8451;1714765010;233207231;world;0.04345838;-0.000122609;0.000429313;0.000452605;0.000240221;0.000661057;0.999999642
2024/05/03/12:36:50.263359;8452;1714765010;263053585;world;0.044224285;-0.000121322;0.000466274;0.000500268;0.000275118;0.000597595;0.999999642
2024/05/03/12:36:50.263384;8453;1714765010;263092577;world;0.044945095;-0.000153912;0.000482951;0.000554877;0.000227094;0.000532869;0.999999762
2024/05/03/12:36:50.303605;8454;1714765010;303277717;world;0.045286957;-0.00014104;0.000487446;0.00050845;0.000191117;0.00043021;0.999999762
2024/05/03/12:36:50.303630;8455;1714765010;303312080;world;0.046214242;-0.000149533;0.000467857;0.000297876;0.000184921;0.000405366;0.999999881
2024/05/03/12:36:50.313319;8456;1714765010;312989978;world;0.046518873;-0.000158743;0.000484973;0.000224451;0.000180755;0.000446515;0.999999881
2024/05/03/12:36:50.323786;8457;1714765010;323480155;world;0.047113173;-0.000171835;0.000508596;0.000242117;0.00015752;0.00046343;0.999999881
2024/05/03/12:36:50.343258;8458;1714765010;342983082;world;0.0477257;-0.000177431;0.000527856;0.000456685;0.000120184;0.000526002;0.999999762
2024/05/03/12:36:50.363501;8459;1714765010;363249116;world;0.048282005;-0.000199772;0.000534082;0.000475006;0.00015721;0.000560676;0.999999762
2024/05/03/12:36:50.373326;8460;1714765010;372866943;world;0.048859682;-0.000207659;0.000551352;0.000580234;1.37E-05;0.000691802;0.999999642
2024/05/03/12:36:50.413632;8461;1714765010;413275546;world;0.049407683;-0.000215722;0.000567949;0.000589376;5.67E-05;0.000740851;0.999999523
2024/05/03/12:36:50.413668;8462;1714765010;413308617;world;0.049981195;-0.000209711;0.000562675;0.00073174;6.90E-05;0.000786806;0.999999404
2024/05/03/12:36:50.423595;8463;1714765010;423306280;world;0.050541755;-0.000199597;0.00057181;0.000689077;2.89E-05;0.000856349;0.999999404
2024/05/03/12:36:50.433211;8464;1714765010;432904682;world;0.050830051;-0.000201997;0.00058262;0.000700501;1.82E-05;0.000853377;0.999999404
2024/05/03/12:36:50.463463;8465;1714765010;463180483;world;0.051425535;-0.000199738;0.000598669;0.00076426;-1.14E-05;0.000897388;0.999999285
2024/05/03/12:36:50.473246;8466;1714765010;472943527;world;0.052051932;-0.000186889;0.000603268;0.000737137;1.97E-07;0.000957628;0.999999285
2024/05/03/12:36:50.523723;8467;1714765010;523410134;world;0.052735005;-0.000221069;0.000610142;0.00061881;2.95E-05;0.000941718;0.999999404
2024/05/03/12:36:50.523888;8469;1714765010;523454585;world;0.054149512;-0.000214253;0.000597198;0.000649253;0.000262892;0.000852824;0.999999404
2024/05/03/12:36:50.533381;8470;1714765010;533084997;world;0.054891411;-0.000226575;0.000610284;0.000757671;0.00024587;0.000842198;0.999999404
2024/05/03/12:36:50.543351;8471;1714765010;543110331;world;0.055272166;-0.000224595;0.000608552;0.000692564;0.000223875;0.000828042;0.999999404
2024/05/03/12:36:50.563279;8472;1714765010;562954793;world;0.056039728;-0.000220596;0.000631307;0.000731025;0.000204542;0.000850722;0.999999404
2024/05/03/12:36:50.583374;8473;1714765010;583062447;world;0.056883138;-0.000200772;0.000619234;0.000866808;-2.41E-05;0.000758103;0.999999404
2024/05/03/12:36:50.603659;8474;1714765010;603328730;world;0.057633955;-0.000213152;0.000629082;0.00077554;2.17E-05;0.000770572;0.999999404
2024/05/03/12:36:50.613428;8475;1714765010;613134053;world;0.058457173;-0.000212905;0.000629741;0.000654565;-0.000119128;0.00074613;0.999999523
2024/05/03/12:36:50.623597;8476;1714765010;623270631;world;0.059293538;-0.000229903;0.000662731;0.00074012;-0.00024573;0.000768907;0.999999404
2024/05/03/12:36:50.643805;8477;1714765010;643095216;world;0.060122885;-0.000227634;0.00069939;0.000861057;-0.000214419;0.00087487;0.999999285
2024/05/03/12:36:50.673298;8478;1714765010;672886639;world;0.060933962;-0.000252815;0.000700518;0.000687986;-2.85E-05;0.000899644;0.999999404
2024/05/03/12:36:50.673326;8479;1714765010;672920541;world;0.061361741;-0.000295996;0.00069112;0.000627618;-4.14E-05;0.000946117;0.999999404
2024/05/03/12:36:50.713171;8480;1714765010;712855675;world;0.062258456;-0.000320185;0.000689064;0.000783837;1.85E-06;0.000958086;0.999999285
2024/05/03/12:36:50.713197;8481;1714765010;712889557;world;0.063125335;-0.000330519;0.000723547;0.000898357;-5.33E-05;0.000992141;0.999999166
2024/05/03/12:36:50.723451;8482;1714765010;722987104;world;0.06407892;-0.000322882;0.000791971;0.0011331;-0.000122319;0.00107938;0.999998808
2024/05/03/12:36:50.733196;8483;1714765010;732855662;world;0.06497217;-0.000328851;0.000787022;0.001045342;-0.000187318;0.001076751;0.999998927
2024/05/03/12:36:50.753397;8484;1714765010;753086503;world;0.065829918;-0.000366642;0.000770853;0.000843031;-0.000108799;0.001135253;0.999999046
2024/05/03/12:36:50.773347;8485;1714765010;773005997;world;0.066705316;-0.000347155;0.000774191;0.000866019;-5.83E-05;0.001115331;0.999999046
2024/05/03/12:36:50.783182;8486;1714765010;782879327;world;0.067579918;-0.000341976;0.000761498;0.001014655;5.79E-05;0.001195987;0.999998808
2024/05/03/12:36:50.813493;8487;1714765010;813185994;world;0.068032131;-0.000334846;0.000777034;0.001137307;3.94E-05;0.00121756;0.999998689
2024/05/03/12:36:50.813521;8488;1714765010;813220648;world;0.068978496;-0.00032049;0.000734956;0.000971246;-0.000220919;0.00101933;0.999999046
2024/05/03/12:36:50.823600;8489;1714765010;823295934;world;0.06989222;-0.000363252;0.000760971;0.00087922;-0.000237553;0.000930091;0.999999166
2024/05/03/12:36:50.843351;8490;1714765010;843044419;world;0.070814721;-0.00032959;0.000790728;0.001022532;-0.000431113;0.000998263;0.999998927
2024/05/03/12:36:50.853772;8491;1714765010;853208665;world;0.071717739;-0.00030653;0.000815316;0.001105963;-0.000430121;0.001073462;0.999998808
2024/05/03/12:36:50.873265;8492;1714765010;872953829;world;0.072635956;-0.000316299;0.000862842;0.001077793;-0.000318062;0.00109773;0.999998808
2024/05/03/12:36:50.903224;8493;1714765010;902915142;world;0.073486336;-0.000318364;0.000878036;0.000896576;-0.000230159;0.001139644;0.999998927
2024/05/03/12:36:50.923879;8494;1714765010;923115577;world;0.073913187;-0.000308844;0.000886423;0.000999849;-0.000259499;0.001131451;0.999998808
2024/05/03/12:36:50.923907;8495;1714765010;923151763;world;0.074813955;-0.000269697;0.000889971;0.001237809;-0.000430222;0.00109892;0.999998569
2024/05/03/12:36:50.933407;8496;1714765010;933111558;world;0.076107204;-0.000282638;0.00091156;0.001335155;-0.000291159;0.001010678;0.999998569
2024/05/03/12:36:50.954206;8497;1714765010;953445806;world;0.07658273;-0.000294282;0.000899489;0.00133105;-0.000305247;0.001056719;0.999998569
2024/05/03/12:36:50.973280;8498;1714765010;972971836;world;0.077462785;-0.000334925;0.000877193;0.00096523;-0.000233199;0.00115365;0.999998927
2024/05/03/12:36:50.983558;8499;1714765010;983255303;world;0.078365758;-0.000340318;0.000911159;0.001064352;-0.000343953;0.00124532;0.999998569
2024/05/03/12:36:51.013337;8500;1714765011;12919976;world;0.079214096;-0.000346593;0.00092597;0.001133587;-0.000347618;0.001249417;0.999998569
2024/05/03/12:36:51.013368;8501;1714765011;12958106;world;0.080033161;-0.000361917;0.000895204;0.00101147;-0.000318471;0.001250349;0.999998689
2024/05/03/12:36:51.033387;8502;1714765011;33079288;world;0.080520764;-0.000341084;0.000836548;0.00099239;-0.000543714;0.001161756;0.999998689
2024/05/03/12:36:51.053560;8503;1714765011;53269001;world;0.081816241;-0.000326571;0.000880874;0.001190741;-0.000527815;0.001239106;0.99999845
2024/05/03/12:36:51.063257;8504;1714765011;62959257;world;0.082273543;-0.000291828;0.00092313;0.001300287;-0.000485026;0.001262972;0.999998212
2024/05/03/12:36:51.083285;8505;1714765011;83001967;world;0.083140463;-0.000274689;0.00097207;0.001557376;-0.000651547;0.001226334;0.999997854
2024/05/03/12:36:51.123709;8506;1714765011;123163362;world;0.083985537;-0.000281186;0.00096012;0.001478025;-0.000645006;0.001190981;0.999997973
2024/05/03/12:36:51.123735;8508;1714765011;123208735;world;0.085665494;-0.000319542;0.001006059;0.001373232;-0.000611649;0.001198112;0.999998212
2024/05/03/12:36:51.143771;8509;1714765011;143177118;world;0.086459562;-0.000352347;0.000993757;0.001412633;-0.000580129;0.001243554;0.999998093
2024/05/03/12:36:51.163616;8510;1714765011;163351568;world;0.087271348;-0.000353824;0.000999247;0.001453725;-0.000531441;0.001300699;0.999997973
2024/05/03/12:36:51.183620;8511;1714765011;183339580;world;0.08764223;-0.000354786;0.001016854;0.001438966;-0.000501086;0.001277196;0.999998093
2024/05/03/12:36:51.183656;8512;1714765011;183378121;world;0.088441379;-0.000374022;0.001041128;0.001422145;-0.00042104;0.001367761;0.999997973
2024/05/03/12:36:51.233748;8513;1714765011;233414162;world;0.089296781;-0.000382864;0.001041425;0.001404141;-0.000396056;0.001404358;0.999997973
2024/05/03/12:36:51.233775;8515;1714765011;233458734;world;0.090942375;-0.000373718;0.001066848;0.00146809;-0.000166254;0.001371261;0.999997973
2024/05/03/12:36:51.253495;8516;1714765011;253154967;world;0.091766872;-0.000375148;0.001068279;0.001383899;-0.000152628;0.001388518;0.999998093
2024/05/03/12:36:51.263514;8517;1714765011;263222260;world;0.092663921;-0.000364971;0.001019495;0.00129353;-0.000222336;0.001319479;0.999998331
2024/05/03/12:36:51.283408;8518;1714765011;283119792;world;0.093084939;-0.000371849;0.001006998;0.001268271;-0.000206603;0.001376937;0.999998212
2024/05/03/12:36:51.303464;8519;1714765011;302877858;world;0.09433993;-0.000386735;0.001041976;0.001305833;-0.000270717;0.001339854;0.999998212
2024/05/03/12:36:51.323202;8520;1714765011;322863684;world;0.094748154;-0.000387594;0.001056162;0.001307518;-0.000301581;0.001320205;0.999998212
2024/05/03/12:36:51.333145;8521;1714765011;332863313;world;0.095557824;-0.000366541;0.00107549;0.001289572;-0.000312466;0.001273596;0.999998331
2024/05/03/12:36:51.343352;8522;1714765011;343056446;world;0.096445419;-0.000310502;0.001068065;0.001650578;-0.000403208;0.001273087;0.999997735
2024/05/03/12:36:51.353528;8523;1714765011;353257846;world;0.097279556;-0.000313933;0.001113306;0.001765925;-0.000557587;0.001269275;0.999997497
2024/05/03/12:36:51.383220;8524;1714765011;382968085;world;0.098078631;-0.00030197;0.0011157;0.00182113;-0.000776365;0.001258309;0.999997258
2024/05/03/12:36:51.393413;8525;1714765011;393113079;world;0.098879479;-0.000305385;0.001112177;0.00171313;-0.000677919;0.00128816;0.999997497
2024/05/03/12:36:51.424136;8526;1714765011;423182907;world;0.099694058;-0.000317258;0.001104732;0.00148148;-0.000673255;0.001352585;0.999997735
2024/05/03/12:36:51.424161;8527;1714765011;423216759;world;0.100117512;-0.000330209;0.001095587;0.001465879;-0.000604974;0.001435266;0.999997735
2024/05/03/12:36:51.433265;8528;1714765011;432962172;world;0.100955963;-0.000350734;0.001143357;0.001372661;-0.000634003;0.001469194;0.999997854
2024/05/03/12:36:51.453959;8529;1714765011;453213404;world;0.101775043;-0.00036507;0.001168837;0.001327785;-0.00062776;0.00139624;0.999997973
2024/05/03/12:36:51.473262;8530;1714765011;472996556;world;0.102621786;-0.000396203;0.0011472;0.001301627;-0.000602698;0.00147194;0.999997973
2024/05/03/12:36:51.483484;8531;1714765011;483181545;world;0.103475735;-0.000376581;0.001133299;0.001308244;-0.000604828;0.001556525;0.999997735
2024/05/03/12:36:51.503625;8532;1714765011;503353059;world;0.104360983;-0.000347163;0.001101139;0.001391299;-0.00071403;0.001579222;0.999997616
2024/05/03/12:36:51.543438;8533;1714765011;543155476;world;0.105151668;-0.000313154;0.001093364;0.001348225;-0.000702122;0.001613941;0.999997616
2024/05/03/12:36:51.543466;8535;1714765011;543198145;world;0.106788345;-0.000305789;0.001103743;0.001087107;-0.000674543;0.001718748;0.999997735
2024/05/03/12:36:51.563554;8536;1714765011;563284806;world;0.10764917;-0.000320323;0.001151105;0.001141386;-0.000750612;0.001716221;0.999997616
2024/05/03/12:36:51.583850;8537;1714765011;583386641;world;0.108083054;-0.000326826;0.001173208;0.001208488;-0.000773582;0.001727021;0.999997497
2024/05/03/12:36:51.593364;8538;1714765011;593062868;world;0.108927637;-0.000311976;0.001182512;0.001288583;-0.000840288;0.001656656;0.999997497
2024/05/03/12:36:51.633187;8539;1714765011;632911290;world;0.109833695;-0.000301963;0.001178915;0.001520791;-0.000885797;0.001605532;0.999997139
2024/05/03/12:36:51.633211;8540;1714765011;632946204;world;0.110644117;-0.000310539;0.001191804;0.001550808;-0.000827076;0.001620678;0.999997139
2024/05/03/12:36:51.643491;8541;1714765011;643200340;world;0.111457877;-0.000301113;0.00120544;0.00144328;-0.000868315;0.001614904;0.999997258
2024/05/03/12:36:51.653320;8542;1714765011;652975487;world;0.111859366;-0.000274051;0.001201055;0.001498829;-0.000897351;0.001647726;0.999997139
2024/05/03/12:36:51.673622;8543;1714765011;673302498;world;0.113063656;-0.000277945;0.001232327;0.001275378;-0.001059745;0.001559369;0.999997497
2024/05/03/12:36:51.693675;8544;1714765011;693344895;world;0.113866769;-0.000280027;0.001269888;0.001109915;-0.001097322;0.00168088;0.999997377
2024/05/03/12:36:51.703407;8545;1714765011;703084488;world;0.114280783;-0.000263504;0.001250063;0.001119618;-0.001005428;0.00178117;0.999997258
2024/05/03/12:36:51.733242;8546;1714765011;732969707;world;0.115120895;-0.000243423;0.001230787;0.001059932;-0.000934503;0.001829813;0.999997377
2024/05/03/12:36:51.733267;8547;1714765011;733003880;world;0.115971833;-0.000243708;0.001233105;0.001101233;-0.00097161;0.001899229;0.999997139
2024/05/03/12:36:51.743817;8548;1714765011;743336489;world;0.116893664;-0.000242291;0.001249018;0.001283818;-0.001188823;0.001865121;0.999996781
2024/05/03/12:36:51.763519;8549;1714765011;763225787;world;0.117703848;-0.000257405;0.001275102;0.001263339;-0.001232877;0.001867564;0.999996781
2024/05/03/12:36:51.783577;8550;1714765011;783320809;world;0.118115522;-0.000268204;0.001253457;0.001208997;-0.001146704;0.001865626;0.999996901
2024/05/03/12:36:51.793415;8551;1714765011;793178116;world;0.119358882;-0.000269122;0.001266316;0.001259859;-0.000999156;0.001827857;0.99999702
2024/05/03/12:36:51.823499;8552;1714765011;822899088;world;0.120198235;-0.000249231;0.001294784;0.001322531;-0.000976178;0.00182016;0.99999702
2024/05/03/12:36:51.843570;8553;1714765011;843051367;world;0.120618418;-0.000243796;0.001306821;0.001475477;-0.001070362;0.001851817;0.999996662
2024/05/03/12:36:51.843596;8554;1714765011;843093504;world;0.1215076;-0.000207364;0.001298747;0.001507564;-0.001296314;0.001822866;0.999996424
2024/05/03/12:36:51.863373;8555;1714765011;862967362;world;0.122360647;-0.00018598;0.001307887;0.001529683;-0.001186635;0.001910421;0.999996305
2024/05/03/12:36:51.873607;8556;1714765011;873343382;world;0.123184994;-0.000212651;0.001316251;0.001467529;-0.001266108;0.001988417;0.999996185
2024/05/03/12:36:51.893599;8557;1714765011;893214626;world;0.124007896;-0.00022221;0.001300749;0.001255974;-0.001224609;0.00208205;0.999996305
2024/05/03/12:36:51.903517;8558;1714765011;903254708;world;0.1244471;-0.000221278;0.001319025;0.001332883;-0.001171618;0.002150755;0.999996185
2024/05/03/12:36:51.943836;8559;1714765011;943399935;world;0.125662372;-0.000210407;0.001320873;0.001169595;-0.001140584;0.002246729;0.999996185
2024/05/03/12:36:51.943850;8560;1714765011;943440199;world;0.126097366;-0.000191095;0.001328235;0.001177012;-0.001251488;0.002143785;0.999996305
2024/05/03/12:36:51.953770;8561;1714765011;953474989;world;0.126896843;-0.00019201;0.001334057;0.001137204;-0.001156628;0.002107106;0.999996543
2024/05/03/12:36:51.963654;8562;1714765011;963315110;world;0.127749905;-0.000175115;0.001374156;0.001159982;-0.001285872;0.002037124;0.999996424
2024/05/03/12:36:51.983490;8563;1714765011;983168401;world;0.128605053;-0.000131061;0.001405687;0.001245301;-0.001179809;0.002057126;0.999996424
2024/05/03/12:36:52.003642;8564;1714765012;3315029;world;0.129446462;-0.000125619;0.001412415;0.001331751;-0.001086982;0.002092999;0.999996305
2024/05/03/12:36:52.023804;8565;1714765012;23390927;world;0.130274326;-0.000134182;0.001428505;0.001429863;-0.001093867;0.002109227;0.999996185
2024/05/03/12:36:52.053555;8566;1714765012;53280931;world;0.130681187;-0.000124844;0.001436553;0.001343013;-0.00112485;0.002058347;0.999996424
2024/05/03/12:36:52.053578;8567;1714765012;53313521;world;0.131983235;-0.00010312;0.001427598;0.001400124;-0.001172302;0.002113384;0.999996185
2024/05/03/12:36:52.063694;8568;1714765012;63386175;world;0.132458389;-7.58E-05;0.001441754;0.001457261;-0.001277582;0.001997017;0.999996185
2024/05/03/12:36:52.073245;8569;1714765012;72985389;world;0.133256704;-7.13E-05;0.001418329;0.001330025;-0.001315488;0.00194165;0.999996424
2024/05/03/12:36:52.103374;8570;1714765012;103086366;world;0.134091109;-6.21E-05;0.001408689;0.001277034;-0.001439052;0.001851917;0.999996424
2024/05/03/12:36:52.113506;8571;1714765012;113238146;world;0.134963527;-6.63E-05;0.001457904;0.001189727;-0.001407285;0.001864678;0.999996543
2024/05/03/12:36:52.123478;8572;1714765012;123232247;world;0.135797516;-4.53E-05;0.001458437;0.001089195;-0.001257215;0.001972394;0.999996662
2024/05/03/12:36:52.153404;8573;1714765012;153129403;world;0.136596695;-2.74E-05;0.001476097;0.001083407;-0.001145247;0.002009147;0.999996781
2024/05/03/12:36:52.153431;8574;1714765012;153164217;world;0.137420818;-5.14E-06;0.001497944;0.001098444;-0.001150064;0.002006114;0.999996781
2024/05/03/12:36:52.174497;8575;1714765012;174227990;world;0.137845367;-1.02E-05;0.001508398;0.001058651;-0.001106711;0.00198281;0.999996901
2024/05/03/12:36:52.183228;8576;1714765012;182981698;world;0.138703093;-1.80E-05;0.001512792;0.001130593;-0.001239905;0.001966577;0.999996662
2024/05/03/12:36:52.203267;8577;1714765012;203004512;world;0.139609128;-1.22E-05;0.001536807;0.001413293;-0.001548803;0.00182271;0.999996185
2024/05/03/12:36:52.213475;8578;1714765012;212897699;world;0.140443638;-2.24E-05;0.001547002;0.00136554;-0.001447034;0.001888867;0.999996305
2024/05/03/12:36:52.233479;8579;1714765012;233201489;world;0.141257867;-3.01E-05;0.001546946;0.001397754;-0.001314121;0.001955862;0.999996305
2024/05/03/12:36:52.253662;8580;1714765012;253045186;world;0.14206934;-5.27E-06;0.001536339;0.001336894;-0.001308575;0.001976854;0.999996305
2024/05/03/12:36:52.263373;8581;1714765012;263105199;world;0.142935067;3.07E-06;0.001505888;0.001340351;-0.001345418;0.001996264;0.999996185
2024/05/03/12:36:52.283273;8582;1714765012;282993055;world;0.143338472;-1.12E-05;0.001513205;0.001309926;-0.001343437;0.001956173;0.999996305
2024/05/03/12:36:52.313207;8583;1714765012;312907823;world;0.144148439;-1.22E-06;0.001522616;0.001234396;-0.001351173;0.002109491;0.999996185
2024/05/03/12:36:52.313237;8584;1714765012;312942357;world;0.145011425;1.68E-05;0.001520189;0.001231751;-0.001302173;0.002181547;0.999996066
2024/05/03/12:36:52.324279;8585;1714765012;323850242;world;0.145805568;-1.63E-05;0.001533113;0.001074672;-0.001266313;0.002195042;0.999996185
2024/05/03/12:36:52.353663;8586;1714765012;353118777;world;0.146668434;8.75E-06;0.001546628;0.001033492;-0.001328065;0.002147284;0.999996305
2024/05/03/12:36:52.363419;8587;1714765012;363056123;world;0.14756754;5.88E-06;0.001558167;0.001198183;-0.001461334;0.002099102;0.999996066
2024/05/03/12:36:52.373322;8588;1714765012;373052550;world;0.14840892;8.63E-06;0.001574126;0.00124675;-0.00146411;0.002132811;0.999995947
2024/05/03/12:36:52.393779;8589;1714765012;393384979;world;0.149259239;1.28E-05;0.001612398;0.001259019;-0.00145403;0.002116396;0.999995947
2024/05/03/12:36:52.413435;8590;1714765012;413147718;world;0.149698511;2.15E-05;0.001609858;0.001240871;-0.001386979;0.002109172;0.999996066
2024/05/03/12:36:52.423615;8591;1714765012;423342774;world;0.150978014;3.89E-05;0.001618039;0.001202025;-0.001568738;0.002030532;0.999996066
2024/05/03/12:36:52.443417;8592;1714765012;443156831;world;0.151407287;4.36E-05;0.001600703;0.001150854;-0.001563155;0.002010677;0.999996066
2024/05/03/12:36:52.453381;8593;1714765012;453008559;world;0.152254254;1.70E-05;0.001606356;0.001073257;-0.00154637;0.001995819;0.999996305
2024/05/03/12:36:52.463806;8594;1714765012;463445592;world;0.153071061;5.55E-06;0.001587515;0.000850204;-0.001467776;0.001951445;0.999996662
2024/05/03/12:36:52.483435;8595;1714765012;483160540;world;0.15388982;3.43E-05;0.001574622;0.00087056;-0.0013455;0.002053259;0.999996662
2024/05/03/12:36:52.513744;8596;1714765012;513455478;world;0.1547205;4.04E-05;0.00156797;0.000856167;-0.001235305;0.00212591;0.999996662
2024/05/03/12:36:52.513777;8597;1714765012;513490752;world;0.155569196;3.15E-05;0.001554836;0.000998411;-0.001273645;0.002230267;0.999996185
2024/05/03/12:36:52.533606;8598;1714765012;533326675;world;0.155990347;2.80E-05;0.00156568;0.000986186;-0.001233718;0.002308863;0.999996066
2024/05/03/12:36:52.553629;8599;1714765012;553304147;world;0.157308161;3.61E-05;0.001655713;0.001122022;-0.001360983;0.002276776;0.999995828
2024/05/03/12:36:52.563231;8600;1714765012;562934683;world;0.157725349;5.16E-05;0.00167924;0.001167951;-0.001433371;0.002279415;0.999995708
2024/05/03/12:36:52.583279;8601;1714765012;582973577;world;0.158565521;7.13E-05;0.001692208;0.000972656;-0.001389505;0.002333304;0.999995828
2024/05/03/12:36:52.593682;8602;1714765012;593432279;world;0.1594356;8.74E-05;0.001668095;0.000962507;-0.001498119;0.002236823;0.999995947
2024/05/03/12:36:52.613684;8603;1714765012;613313915;world;0.16027613;7.81E-05;0.001677151;0.001003765;-0.001505628;0.002201116;0.999995947
2024/05/03/12:36:52.623597;8604;1714765012;623238469;world;0.161121964;8.31E-05;0.001696497;0.001042965;-0.001562041;0.002097075;0.999996066
2024/05/03/12:36:52.663715;8605;1714765012;663412485;world;0.16196163;8.94E-05;0.001684872;0.001113198;-0.001451855;0.002199145;0.999995947
2024/05/03/12:36:52.663735;8606;1714765012;663453270;world;0.16236189;8.02E-05;0.001694939;0.00106495;-0.001459986;0.002275631;0.999995828
2024/05/03/12:36:52.673750;8607;1714765012;673254936;world;0.163667619;7.88E-05;0.00172141;0.001124303;-0.001539178;0.00239229;0.999995351
2024/05/03/12:36:52.693363;8608;1714765012;693054262;world;0.164508268;5.22E-05;0.001708098;0.001098244;-0.001481311;0.002559824;0.999995112
2024/05/03/12:36:52.703653;8609;1714765012;703285577;world;0.164943635;4.55E-05;0.001718743;0.001039172;-0.001445644;0.002556352;0.999995232
2024/05/03/12:36:52.713498;8610;1714765012;713196496;world;0.165785491;4.56E-05;0.001745349;0.000990833;-0.00132888;0.002611994;0.999995232
2024/05/03/12:36:52.733303;8611;1714765012;733009172;world;0.166612387;5.84E-05;0.001749121;0.001010744;-0.001307285;0.002654129;0.999995112
2024/05/03/12:36:52.763498;8612;1714765012;762990667;world;0.167412922;6.19E-05;0.001771191;0.000998422;-0.001280863;0.00274697;0.999994993
2024/05/03/12:36:52.763523;8613;1714765012;763019760;world;0.168277889;4.10E-05;0.001763494;0.000996234;-0.001291212;0.002685936;0.999995112
2024/05/03/12:36:52.783610;8614;1714765012;783286632;world;0.168701798;5.28E-05;0.00177232;0.000977429;-0.001218629;0.002681612;0.999995232
2024/05/03/12:36:52.803483;8615;1714765012;803213061;world;0.169994563;8.68E-05;0.001806993;0.00096893;-0.001101736;0.00259871;0.999995589
2024/05/03/12:36:52.823452;8616;1714765012;823142484;world;0.170389026;7.61E-05;0.001808563;0.000897498;-0.001154753;0.002668564;0.999995351
2024/05/03/12:36:52.823480;8617;1714765012;823175364;world;0.171235427;7.80E-05;0.001814279;0.000721576;-0.001311506;0.002647286;0.999995351
2024/05/03/12:36:52.863502;8618;1714765012;863215144;world;0.172130793;0.000108919;0.001803887;0.000958972;-0.001557821;0.002617032;0.999994874
2024/05/03/12:36:52.863530;8619;1714765012;863250840;world;0.1729725;0.000150958;0.001834353;0.001009571;-0.001679635;0.002580695;0.999994755
2024/05/03/12:36:52.873868;8620;1714765012;873599651;world;0.173769608;0.000164162;0.001854506;0.000903163;-0.00165698;0.002574284;0.999994993
2024/05/03/12:36:52.893428;8621;1714765012;893097304;world;0.174626797;0.000170269;0.001847467;0.001013099;-0.001792948;0.00261292;0.999994516
2024/05/03/12:36:52.923384;8622;1714765012;923086759;world;0.175471589;0.000184291;0.001869667;0.001204552;-0.001687736;0.00258921;0.999994516
2024/05/03/12:36:52.923412;8623;1714765012;923119799;world;0.176318139;0.000181751;0.001873534;0.001080916;-0.001568887;0.002633134;0.999994755
2024/05/03/12:36:52.943728;8624;1714765012;943378967;world;0.176743001;0.000164806;0.001885458;0.001088505;-0.001437624;0.00264981;0.999994874
2024/05/03/12:36:52.963603;8625;1714765012;963349443;world;0.177539393;0.00016727;0.001906474;0.001003365;-0.001247489;0.002715803;0.999995112
2024/05/03/12:36:52.973430;8626;1714765012;973135186;world;0.178375468;0.000187183;0.001915064;0.000966044;-0.001241138;0.00282603;0.999994755
2024/05/03/12:36:52.983503;8627;1714765012;983194047;world;0.179227129;0.00018623;0.001903091;0.00088672;-0.001272155;0.002882492;0.999994636
2024/05/03/12:36:52.993683;8628;1714765012;993367947;world;0.180057034;0.000197455;0.001910267;0.000826301;-0.001349564;0.002962135;0.999994397
2024/05/03/12:36:53.023514;8629;1714765013;23223892;world;0.180890471;0.000202625;0.001920159;0.000711157;-0.001384892;0.003025426;0.999994278
2024/05/03/12:36:53.033664;8630;1714765013;33411098;world;0.181698292;0.000196657;0.001937653;0.000722908;-0.001341084;0.002971637;0.999994397
2024/05/03/12:36:53.063653;8631;1714765013;63333425;world;0.182557449;0.000221153;0.001960655;0.000798108;-0.001279359;0.002986424;0.999994397
2024/05/03/12:36:53.063680;8632;1714765013;63367007;world;0.182995468;0.000241498;0.001975022;0.000851571;-0.001297491;0.002993155;0.999994397
2024/05/03/12:36:53.073489;8633;1714765013;73240586;world;0.183844268;0.000262371;0.001998203;0.000927044;-0.001281573;0.002994345;0.999994278
2024/05/03/12:36:53.093344;8634;1714765013;93071126;world;0.184701681;0.000246927;0.002001916;0.000956404;-0.001431658;0.00294284;0.999994159
2024/05/03/12:36:53.113738;8635;1714765013;113240901;world;0.185570002;0.00024183;0.001996281;0.0009802;-0.001449417;0.002977605;0.99999404
2024/05/03/12:36:53.133441;8636;1714765013;133145333;world;0.18645145;0.000242;0.002013439;0.001263239;-0.001610447;0.003003828;0.999993443
2024/05/03/12:36:53.133469;8637;1714765013;133176731;world;0.187344149;0.000226363;0.002050769;0.001394239;-0.001637196;0.003027987;0.999993086
2024/05/03/12:36:53.163715;8638;1714765013;163394631;world;0.188156098;0.000249556;0.002045618;0.001018688;-0.001481021;0.003132364;0.999993563
2024/05/03/12:36:53.174019;8639;1714765013;173368877;world;0.188541323;0.000239331;0.002048283;0.000944035;-0.001456145;0.003145698;0.999993563
2024/05/03/12:36:53.193612;8640;1714765013;192980071;world;0.18982625;0.000292582;0.002033407;0.001055;-0.001475404;0.00321905;0.999993205
2024/05/03/12:36:53.203395;8641;1714765013;203068216;world;0.190233305;0.000303615;0.002030733;0.001098486;-0.001348825;0.003298077;0.999993086
2024/05/03/12:36:53.233651;8642;1714765013;233294906;world;0.191070139;0.000293505;0.00207396;0.001272529;-0.00150935;0.003238064;0.999992847
2024/05/03/12:36:53.233685;8643;1714765013;233337985;world;0.191861197;0.000295077;0.002085578;0.001188852;-0.001434167;0.003229136;0.999993086
2024/05/03/12:36:53.263736;8644;1714765013;263420270;world;0.1926613;0.000276175;0.002093841;0.000964236;-0.001387595;0.003224821;0.999993443
2024/05/03/12:36:53.263744;8645;1714765013;263462006;world;0.193531752;0.000220906;0.002140398;0.000923863;-0.001195692;0.003295141;0.999993443
2024/05/03/12:36:53.283573;8646;1714765013;283289527;world;0.193979949;0.000223053;0.002148272;0.000956359;-0.001287742;0.003276179;0.999993324
2024/05/03/12:36:53.303270;8647;1714765013;302975568;world;0.195287585;0.000232532;0.002166357;0.000843355;-0.001467231;0.003202882;0.999993443
2024/05/03/12:36:53.313332;8648;1714765013;313039248;world;0.196136922;0.000274444;0.002170994;0.000917038;-0.00157597;0.003122743;0.999993443
2024/05/03/12:36:53.333427;8649;1714765013;333116766;world;0.197009921;0.000291121;0.002153856;0.001056424;-0.001641745;0.003172228;0.999993086
2024/05/03/12:36:53.343618;8650;1714765013;343282550;world;0.197491944;0.000325919;0.002156652;0.001215175;-0.00180683;0.00312903;0.999992728
2024/05/03/12:36:53.383593;8651;1714765013;383262700;world;0.198373094;0.000306563;0.002173677;0.001306067;-0.001717374;0.00317389;0.999992609
2024/05/03/12:36:53.383618;8652;1714765013;383295090;world;0.199179143;0.000309732;0.00220256;0.001363766;-0.001686235;0.003062751;0.999992967
2024/05/03/12:36:53.393220;8653;1714765013;393022935;world;0.199961454;0.0003303;0.002197332;0.001229948;-0.001612094;0.003146486;0.999992967
2024/05/03/12:36:53.403144;8654;1714765013;402860340;world;0.200361818;0.000322682;0.00219367;0.0010997;-0.001638653;0.003187592;0.999992967
2024/05/03/12:36:53.433418;8655;1714765013;433115477;world;0.201662242;0.000316742;0.002177724;0.001112764;-0.001568469;0.003418723;0.999992371
2024/05/03/12:36:53.433441;8656;1714765013;433150581;world;0.202091828;0.00029773;0.002175794;0.000940151;-0.00155279;0.003403328;0.999992609
2024/05/03/12:36:53.453700;8657;1714765013;453339365;world;0.202909157;0.000273918;0.002203611;0.000892034;-0.001612091;0.003395047;0.999992609
2024/05/03/12:36:53.473481;8658;1714765013;473188805;world;0.203727201;0.000271167;0.002237886;0.000902787;-0.001510056;0.003366451;0.999992847
2024/05/03/12:36:53.483617;8659;1714765013;483298831;world;0.204612046;0.00024136;0.002262581;0.001127497;-0.001458139;0.003503698;0.999992251
2024/05/03/12:36:53.504227;8660;1714765013;503220683;world;0.205424458;0.000243847;0.002273154;0.000994906;-0.00145567;0.003600928;0.999992013
2024/05/03/12:36:53.513200;8661;1714765013;512945703;world;0.206199408;0.000244477;0.002291722;0.000806157;-0.001483017;0.003562196;0.999992251
2024/05/03/12:36:53.533243;8662;1714765013;532943946;world;0.207026988;0.000238179;0.002314233;0.000848613;-0.001645839;0.003489545;0.999992251
2024/05/03/12:36:53.543207;8663;1714765013;542882537;world;0.207460985;0.000235602;0.002345889;0.000845033;-0.001719925;0.003460546;0.999992251
2024/05/03/12:36:53.563408;8664;1714765013;563143898;world;0.208344042;0.000239169;0.002343399;0.001015328;-0.001699234;0.003549022;0.999991775
2024/05/03/12:36:53.573543;8665;1714765013;573331269;world;0.209219709;0.000236696;0.002335766;0.001031065;-0.001807174;0.003530799;0.999991655
2024/05/03/12:36:53.593169;8666;1714765013;592886421;world;0.210173562;0.000245616;0.002309888;0.001254253;-0.002131605;0.003362853;0.999991298
2024/05/03/12:36:53.603651;8667;1714765013;603384833;world;0.211013719;0.000255931;0.002331401;0.001408902;-0.002074076;0.003413397;0.999991059
2024/05/03/12:36:53.623578;8668;1714765013;623281371;world;0.211831495;0.000242283;0.002356719;0.00130864;-0.001960139;0.003439572;0.999991298
2024/05/03/12:36:53.643692;8669;1714765013;643375432;world;0.212658152;0.000242655;0.00235937;0.001228555;-0.001823034;0.00345737;0.999991655
2024/05/03/12:36:53.653560;8670;1714765013;653292296;world;0.213044345;0.000231018;0.002362062;0.001195285;-0.001753475;0.003449888;0.999991775
2024/05/03/12:36:53.673445;8671;1714765013;673185130;world;0.214246377;0.00025606;0.002404314;0.001040467;-0.001721958;0.003448545;0.999992013
2024/05/03/12:36:53.683419;8672;1714765013;683127361;world;0.214646325;0.000257105;0.00238614;0.00097009;-0.001662919;0.003430147;0.999992251
2024/05/03/12:36:53.703440;8673;1714765013;703121758;world;0.215498254;0.000254399;0.002412722;0.000904637;-0.001653921;0.003533398;0.999992013
2024/05/03/12:36:53.723477;8674;1714765013;723189549;world;0.216330901;0.000248335;0.002441489;0.00093902;-0.00153495;0.003658924;0.999991775
2024/05/03/12:36:53.743432;8675;1714765013;743129625;world;0.217174694;0.000265115;0.002471692;0.001021118;-0.00159858;0.003620301;0.999991655
2024/05/03/12:36:53.753433;8676;1714765013;753139938;world;0.217980564;0.000250124;0.002479801;0.001094293;-0.001777986;0.003588789;0.999991417
2024/05/03/12:36:53.763374;8677;1714765013;763113753;world;0.218859106;0.000235734;0.002459989;0.00118149;-0.001774721;0.003510862;0.999991536
2024/05/03/12:36:53.783581;8678;1714765013;783269875;world;0.219733194;0.000255047;0.002447913;0.001202076;-0.001748382;0.003564736;0.999991417
2024/05/03/12:36:53.803394;8679;1714765013;803087398;world;0.220569044;0.000258182;0.002471193;0.001210599;-0.001863647;0.003519558;0.999991417
2024/05/03/12:36:53.813160;8680;1714765013;812861697;world;0.221432909;0.000283387;0.002474491;0.001195437;-0.002030208;0.003411603;0.999991417
2024/05/03/12:36:53.833158;8681;1714765013;832861634;world;0.221817404;0.000304376;0.002472937;0.001191375;-0.001996347;0.003381335;0.999991655
2024/05/03/12:36:53.843443;8682;1714765013;843131392;world;0.222728223;0.000331591;0.002503197;0.001292925;-0.002170831;0.003401807;0.999991059
2024/05/03/12:36:53.863428;8683;1714765013;862971795;world;0.223594993;0.000360552;0.002527158;0.001406828;-0.002093773;0.003529161;0.999990582
2024/05/03/12:36:53.883446;8684;1714765013;883124342;world;0.224465996;0.0003275;0.002542611;0.001427645;-0.001923228;0.003741982;0.999990106
2024/05/03/12:36:53.893281;8685;1714765013;892975541;world;0.225309461;0.000319764;0.002560426;0.00142577;-0.001896083;0.00379435;0.999989986
2024/05/03/12:36:53.913260;8686;1714765013;912964890;world;0.226167649;0.000311676;0.00256039;0.001425981;-0.001928741;0.003738804;0.999990106
2024/05/03/12:36:53.923533;8687;1714765013;923279967;world;0.226988077;0.000248371;0.002565991;0.001113515;-0.001914931;0.003756407;0.999990463
2024/05/03/12:36:53.943442;8688;1714765013;942843266;world;0.227365136;0.000240444;0.002570397;0.00107524;-0.001893418;0.003758593;0.999990582
2024/05/03/12:36:53.953566;8689;1714765013;953252430;world;0.22816667;0.000241218;0.002567962;0.000978101;-0.001886747;0.003752781;0.999990702
2024/05/03/12:36:53.973539;8690;1714765013;973250412;world;0.229020879;0.000249237;0.002567193;0.001198222;-0.001939547;0.003727424;0.999990463
2024/05/03/12:36:53.983607;8691;1714765013;983341914;world;0.229870498;0.000250242;0.00258858;0.001239731;-0.001954497;0.003790243;0.999990225
2024/05/03/12:36:54.003670;8692;1714765014;3242017;world;0.230718106;0.000295398;0.002594449;0.001194502;-0.001972844;0.003831252;0.999989986
2024/05/03/12:36:54.013263;8693;1714765014;12992376;world;0.231531039;0.000315596;0.002607917;0.001050236;-0.002007262;0.00385835;0.999989986
2024/05/03/12:36:54.033452;8694;1714765014;33065468;world;0.232450962;0.000322757;0.002632643;0.001168356;-0.002278191;0.003786697;0.999989629
2024/05/03/12:36:54.043673;8695;1714765014;43371156;world;0.232885301;0.000334198;0.002661308;0.00120264;-0.002272506;0.003789605;0.99998951
2024/05/03/12:36:54.063438;8696;1714765014;63145840;world;0.233749092;0.00035024;0.002703387;0.001286472;-0.002282872;0.003761103;0.99998951
2024/05/03/12:36:54.083361;8697;1714765014;83107270;world;0.234636664;0.000371863;0.002664916;0.001279375;-0.002528074;0.003748261;0.999989033
2024/05/03/12:36:54.093169;8698;1714765014;92863858;world;0.235527068;0.000356262;0.002679997;0.001334104;-0.002441005;0.003641056;0.99998951
2024/05/03/12:36:54.113369;8699;1714765014;112997674;world;0.236323118;0.000374033;0.002637752;0.001252565;-0.00234295;0.003643899;0.999989867
2024/05/03/12:36:54.123252;8700;1714765014;122883830;world;0.237145498;0.000392187;0.002654403;0.001325465;-0.002278544;0.003676973;0.999989748
2024/05/03/12:36:54.153494;8701;1714765014;153193953;world;0.238012597;0.000398988;0.002680825;0.001401079;-0.002293741;0.003757749;0.99998939
