time;.header.seq;.header.stamp.secs;.header.stamp.nsecs;.header.frame_id;.pose.position.x;.pose.position.y;.pose.position.z;.pose.orientation.x;.pose.orientation.y;.pose.orientation.z;.pose.orientation.w
2024/05/03/12:55:34.653615;77814;1714766134;653262705;world;-0.00075743;0.000854312;-0.000402865;-0.001808003;-0.001666605;-0.003461339;-0.999991059
2024/05/03/12:55:34.673672;77815;1714766134;673234285;world;-0.000754278;0.000847017;-0.000428199;-0.001792787;-0.001752247;-0.00348825;-0.999990821
2024/05/03/12:55:34.683163;77816;1714766134;682868685;world;-0.000758961;0.00087216;-0.000429888;-0.001774871;-0.001748442;-0.003484586;-0.999990821
2024/05/03/12:55:34.693617;77817;1714766134;693338446;world;-0.000741165;0.000833914;-0.000410596;-0.001823726;-0.00169188;-0.003491372;-0.999990821
2024/05/03/12:55:34.723853;77818;1714766134;723410513;world;-0.000743486;0.000803074;-0.000391624;-0.001902314;-0.001678035;-0.003477691;-0.999990821
2024/05/03/12:55:34.733150;77819;1714766134;732869513;world;-0.000768624;0.000851271;-0.000419061;-0.001918801;-0.001719385;-0.003479114;-0.999990702
2024/05/03/12:55:34.783221;77820;1714766134;782851274;world;-0.000755984;0.000845456;-0.000421741;-0.001882791;-0.001733801;-0.003517413;-0.999990582
2024/05/03/12:55:34.783254;77822;1714766134;782900777;world;-0.000765041;0.000823781;-0.000406788;-0.001923253;-0.00172736;-0.003512593;-0.999990463
2024/05/03/12:55:34.793511;77823;1714766134;792969444;world;-0.000772126;0.000813017;-0.000392089;-0.001918615;-0.001728101;-0.003489206;-0.999990582
2024/05/03/12:55:34.803609;77824;1714766134;803345687;world;-0.00074802;0.000842268;-0.000397303;-0.001903855;-0.001667731;-0.003463591;-0.999990821
2024/05/03/12:55:34.823804;77825;1714766134;823318657;world;-0.000749934;0.000829918;-0.000420066;-0.001817334;-0.001700372;-0.003464253;-0.99999094
2024/05/03/12:55:34.844351;77826;1714766134;842886413;world;-0.000752535;0.000817205;-0.000389828;-0.001864165;-0.001706562;-0.00351318;-0.999990702
2024/05/03/12:55:34.853200;77827;1714766134;852941064;world;-0.000761013;0.000844177;-0.000395948;-0.001883927;-0.001667148;-0.003470455;-0.999990821
2024/05/03/12:55:34.873282;77828;1714766134;872916611;world;-0.000766691;0.000841332;-0.000410978;-0.00189018;-0.001692064;-0.003450293;-0.999990821
2024/05/03/12:55:34.883178;77829;1714766134;882876323;world;-0.000755992;0.000823727;-0.000397853;-0.001840263;-0.00175409;-0.003503815;-0.999990702
2024/05/03/12:55:34.903463;77830;1714766134;903190238;world;-0.000784334;0.00080486;-0.000372507;-0.001914625;-0.001707218;-0.003527929;-0.999990463
2024/05/03/12:55:34.913928;77831;1714766134;913672608;world;-0.000779934;0.000817142;-0.000370386;-0.001919225;-0.00167076;-0.003504645;-0.999990702
2024/05/03/12:55:34.933509;77832;1714766134;933157318;world;-0.000741698;0.000831087;-0.000406713;-0.001845531;-0.0016475;-0.003448988;-0.999991059
2024/05/03/12:55:34.953540;77833;1714766134;953238525;world;-0.000740509;0.000843886;-0.000427135;-0.00180603;-0.001729905;-0.003454526;-0.99999094
2024/05/03/12:55:34.963788;77834;1714766134;962943397;world;-0.000760652;0.000829964;-0.000401204;-0.001856415;-0.001763862;-0.003531522;-0.999990463
2024/05/03/12:55:34.983665;77835;1714766134;983290334;world;-0.000757799;0.000835016;-0.000406104;-0.00187905;-0.001735066;-0.003481102;-0.999990702
2024/05/03/12:55:34.993316;77836;1714766134;993028449;world;-0.000764668;0.00085318;-0.000414239;-0.001814147;-0.001718614;-0.003514744;-0.999990702
2024/05/03/12:55:35.013230;77837;1714766135;12980118;world;-0.000764411;0.000853967;-0.000408607;-0.001816825;-0.001677134;-0.003476238;-0.99999094
2024/05/03/12:55:35.033487;77838;1714766135;33166960;world;-0.00084614;0.000768827;-0.000305571;-0.002228196;-0.002182578;-0.003780544;-0.99998796
2024/05/03/12:55:35.043494;77839;1714766135;43143081;world;-0.000846229;0.00080155;-0.000336217;-0.002129463;-0.001907099;-0.00368611;-0.999989152
2024/05/03/12:55:35.063151;77840;1714766135;62948740;world;-0.000718761;0.000847905;-0.000424386;-0.001804793;-0.001596159;-0.003374656;-0.999991417
2024/05/03/12:55:35.073288;77841;1714766135;72972141;world;-0.000725597;0.000862814;-0.000453788;-0.001694761;-0.001706352;-0.003438642;-0.999991179
2024/05/03/12:55:35.093385;77842;1714766135;93041847;world;-0.000760265;0.000856289;-0.000421584;-0.001795557;-0.001767569;-0.003515366;-0.999990702
2024/05/03/12:55:35.103663;77843;1714766135;103357935;world;-0.000760194;0.000833863;-0.000391528;-0.001876595;-0.001699687;-0.003483541;-0.999990702
2024/05/03/12:55:35.133716;77844;1714766135;133222714;world;-0.000743628;0.000832445;-0.000402929;-0.001913797;-0.001720954;-0.003450389;-0.999990821
2024/05/03/12:55:35.133728;77845;1714766135;133274091;world;-0.000750095;0.00083025;-0.000422423;-0.001824389;-0.001770404;-0.003487424;-0.999990702
2024/05/03/12:55:35.173967;77846;1714766135;173497200;world;-0.000758294;0.00081973;-0.000399274;-0.001874342;-0.001794054;-0.003548694;-0.999990344
2024/05/03/12:55:35.173995;77847;1714766135;173539119;world;-0.000758182;0.000833369;-0.000388437;-0.00187219;-0.001741026;-0.003536291;-0.999990463
2024/05/03/12:55:35.183298;77848;1714766135;182996325;world;-0.000765953;0.000832206;-0.000392647;-0.001835464;-0.001703433;-0.003496886;-0.999990821
2024/05/03/12:55:35.203672;77849;1714766135;203197417;world;-0.000768632;0.000835668;-0.000417533;-0.001787607;-0.001713882;-0.003512992;-0.999990821
2024/05/03/12:55:35.213140;77850;1714766135;212879767;world;-0.000762239;0.000844533;-0.000398142;-0.001904564;-0.001711661;-0.003491628;-0.999990702
2024/05/03/12:55:35.243461;77851;1714766135;243133105;world;-0.000744369;0.000827431;-0.000386736;-0.001878152;-0.001686605;-0.003452939;-0.99999094
2024/05/03/12:55:35.243486;77852;1714766135;243168101;world;-0.00075325;0.000840198;-0.000396266;-0.001820346;-0.001700752;-0.003457126;-0.99999094
2024/05/03/12:55:35.283250;77853;1714766135;282911726;world;-0.000761613;0.000856907;-0.000413097;-0.001815039;-0.001733636;-0.003524813;-0.999990702
2024/05/03/12:55:35.283278;77854;1714766135;282950068;world;-0.000738781;0.00085533;-0.000412122;-0.001892228;-0.001726185;-0.003488741;-0.999990702
2024/05/03/12:55:35.293420;77855;1714766135;293112160;world;-0.000750955;0.0008468;-0.000408386;-0.001913764;-0.001732842;-0.003472307;-0.999990702
2024/05/03/12:55:35.313592;77856;1714766135;313266816;world;-0.000763688;0.00083919;-0.000397181;-0.001856322;-0.001649505;-0.00347338;-0.99999094
2024/05/03/12:55:35.323492;77857;1714766135;323180392;world;-0.000762586;0.000832261;-0.000386199;-0.001856391;-0.001714697;-0.003512367;-0.999990702
2024/05/03/12:55:35.343440;77858;1714766135;343102839;world;-0.000758495;0.000855889;-0.000430607;-0.001851487;-0.001789347;-0.003524828;-0.999990463
2024/05/03/12:55:35.373396;77859;1714766135;373005067;world;-0.00075449;0.000837728;-0.000406183;-0.001884652;-0.001770789;-0.003506484;-0.999990582
2024/05/03/12:55:35.373403;77860;1714766135;373052196;world;-0.000741418;0.000817825;-0.000383003;-0.001909193;-0.001673314;-0.00348342;-0.999990702
2024/05/03/12:55:35.383546;77861;1714766135;383213396;world;-0.00078949;0.000847862;-0.000392177;-0.001838053;-0.001664508;-0.003504228;-0.999990821
2024/05/03/12:55:35.403555;77862;1714766135;403243706;world;-0.000756606;0.000806807;-0.000386811;-0.001794115;-0.001733451;-0.003481878;-0.999990821
2024/05/03/12:55:35.413501;77863;1714766135;413170596;world;-0.000741884;0.000809527;-0.000379654;-0.001829306;-0.001715526;-0.003461305;-0.99999094
2024/05/03/12:55:35.443645;77864;1714766135;443257120;world;-0.000762641;0.000820508;-0.000413575;-0.001859339;-0.001711244;-0.003470387;-0.999990821
2024/05/03/12:55:35.454040;77865;1714766135;453366654;world;-0.000760671;0.000820437;-0.000383127;-0.001829036;-0.001669866;-0.003481372;-0.99999094
2024/05/03/12:55:35.473531;77866;1714766135;473172794;world;-0.000751533;0.000838304;-0.000384999;-0.001870342;-0.001661115;-0.00349417;-0.999990821
2024/05/03/12:55:35.483604;77867;1714766135;483197598;world;-0.000774577;0.000840516;-0.000403839;-0.001793346;-0.001722992;-0.003500591;-0.999990821
2024/05/03/12:55:35.493666;77868;1714766135;493346214;world;-0.000782508;0.000840501;-0.000403992;-0.001814702;-0.001753063;-0.003510735;-0.999990702
2024/05/03/12:55:35.513462;77869;1714766135;513172001;world;-0.000736505;0.00082725;-0.000413459;-0.001815358;-0.001752884;-0.003523711;-0.999990582
2024/05/03/12:55:35.523473;77870;1714766135;522869249;world;-0.00076158;0.000860953;-0.000419221;-0.001824605;-0.001728168;-0.003529817;-0.999990702
2024/05/03/12:55:35.543470;77871;1714766135;543062816;world;-0.000862304;0.000790255;-0.000305563;-0.002125689;-0.002127934;-0.003740779;-0.999988556
2024/05/03/12:55:35.554228;77872;1714766135;553893998;world;-0.000823524;0.000783831;-0.00032305;-0.002060453;-0.001918452;-0.003708425;-0.999989152
2024/05/03/12:55:35.583486;77873;1714766135;583123939;world;-0.000707798;0.000852203;-0.000421227;-0.001823978;-0.001577781;-0.003347721;-0.999991536
2024/05/03/12:55:35.593602;77874;1714766135;593254572;world;-0.000713985;0.000860777;-0.000437395;-0.001778985;-0.001620361;-0.003402265;-0.999991298
2024/05/03/12:55:35.603424;77875;1714766135;603067047;world;-0.000746448;0.000839682;-0.000409223;-0.001897288;-0.001791026;-0.003496693;-0.999990463
2024/05/03/12:55:35.623246;77876;1714766135;622944992;world;-0.000755064;0.000845524;-0.000410764;-0.001923846;-0.001709773;-0.003457945;-0.999990702
2024/05/03/12:55:35.643736;77877;1714766135;643339058;world;-0.000749528;0.000845736;-0.00040766;-0.001879888;-0.001685679;-0.003458088;-0.999990821
2024/05/03/12:55:35.653279;77878;1714766135;653030355;world;-0.000740189;0.000832731;-0.000413387;-0.001860808;-0.001644949;-0.003431037;-0.999991059
2024/05/03/12:55:35.684634;77879;1714766135;683152124;world;-0.000750773;0.000828601;-0.000416145;-0.001861733;-0.001784171;-0.003511287;-0.999990582
2024/05/03/12:55:35.684668;77880;1714766135;683189855;world;-0.000757415;0.000841607;-0.000409861;-0.001896162;-0.001739722;-0.003474703;-0.999990702
2024/05/03/12:55:35.703456;77881;1714766135;703174761;world;-0.000743676;0.000849357;-0.000424231;-0.001861152;-0.001709589;-0.003476822;-0.999990821
2024/05/03/12:55:35.713590;77882;1714766135;712957208;world;-0.000739031;0.000842721;-0.000415468;-0.001808903;-0.001702766;-0.003462552;-0.99999094
2024/05/03/12:55:35.733747;77883;1714766135;733376883;world;-0.000755262;0.000855171;-0.000420424;-0.001873516;-0.00169671;-0.003501603;-0.999990702
2024/05/03/12:55:35.743343;77884;1714766135;742990649;world;-0.000758778;0.000840117;-0.000405318;-0.001888266;-0.001649801;-0.003467892;-0.999990821
2024/05/03/12:55:35.763791;77885;1714766135;763315505;world;-0.000743896;0.00083272;-0.000393391;-0.001923167;-0.00166413;-0.003477297;-0.999990702
2024/05/03/12:55:35.783264;77886;1714766135;782852843;world;-0.000749078;0.000858018;-0.000420723;-0.001830867;-0.001708086;-0.003465922;-0.99999094
2024/05/03/12:55:35.793863;77887;1714766135;793435787;world;-0.000732321;0.000861772;-0.000448639;-0.001850634;-0.001804696;-0.003511498;-0.999990582
2024/05/03/12:55:35.803444;77888;1714766135;803074665;world;-0.000751875;0.000842061;-0.000420814;-0.001858578;-0.001746742;-0.003523385;-0.999990582
2024/05/03/12:55:35.823731;77889;1714766135;823181990;world;-0.00086496;0.000774105;-0.000299998;-0.002190761;-0.002197034;-0.003779139;-0.999988079
2024/05/03/12:55:35.853278;77890;1714766135;852911773;world;-0.000820212;0.000858325;-0.000301421;-0.002200103;-0.002194234;-0.003721015;-0.999988317
2024/05/03/12:55:35.853306;77891;1714766135;852933224;world;-0.000701822;0.00083337;-0.000407961;-0.001815239;-0.001629698;-0.003344362;-0.999991417
2024/05/03/12:55:35.873306;77892;1714766135;872953746;world;-0.000677437;0.000882261;-0.000471617;-0.001734913;-0.001582036;-0.003305248;-0.999991775
2024/05/03/12:55:35.883410;77893;1714766135;882986501;world;-0.000719287;0.000868944;-0.000455157;-0.001693352;-0.001721307;-0.003443058;-0.999991179
2024/05/03/12:55:35.903465;77894;1714766135;903115533;world;-0.000757143;0.000832479;-0.000397474;-0.001880362;-0.001724654;-0.003522206;-0.999990582
2024/05/03/12:55:35.913603;77895;1714766135;913185702;world;-0.000745002;0.000838101;-0.000413439;-0.001865885;-0.00170605;-0.003493097;-0.999990702
2024/05/03/12:55:35.933376;77896;1714766135;932985105;world;-0.000753999;0.000834344;-0.000424026;-0.001845579;-0.001754183;-0.00348083;-0.999990702
2024/05/03/12:55:35.963677;77897;1714766135;963345507;world;-0.000746578;0.000817269;-0.000398332;-0.001927455;-0.001690439;-0.003468755;-0.999990702
2024/05/03/12:55:35.963701;77898;1714766135;963383018;world;-0.000740133;0.000846472;-0.000417963;-0.001866524;-0.001738232;-0.00347986;-0.999990702
2024/05/03/12:55:35.993312;77899;1714766135;992980462;world;-0.000761442;0.000834505;-0.000419667;-0.00180572;-0.001713869;-0.003507143;-0.999990821
2024/05/03/12:55:35.993336;77900;1714766135;993019365;world;-0.000752937;0.000823516;-0.000403235;-0.001876641;-0.001707385;-0.00348388;-0.999990702
2024/05/03/12:55:36.013398;77901;1714766136;12985797;world;-0.000739262;0.000816231;-0.000394384;-0.001908957;-0.001691645;-0.00345008;-0.999990821
2024/05/03/12:55:36.023455;77902;1714766136;23116891;world;-0.000815388;0.000854754;-0.000305676;-0.002234332;-0.002120441;-0.003658151;-0.999988556
2024/05/03/12:55:36.043537;77903;1714766136;43144086;world;-0.000815772;0.000807856;-0.000364637;-0.002033868;-0.001905577;-0.003634617;-0.99998951
2024/05/03/12:55:36.053326;77904;1714766136;53019118;world;-0.00069296;0.000860304;-0.000441896;-0.001835159;-0.001618951;-0.003346307;-0.999991417
2024/05/03/12:55:36.073457;77905;1714766136;73104201;world;-0.000720907;0.000846119;-0.000427149;-0.001769322;-0.001702952;-0.003408891;-0.999991179
2024/05/03/12:55:36.093567;77906;1714766136;93189516;world;-0.000758119;0.000844824;-0.000408678;-0.001854052;-0.001747467;-0.003486331;-0.999990702
2024/05/03/12:55:36.103688;77907;1714766136;103243706;world;-0.000763413;0.000842583;-0.000406691;-0.001884795;-0.001734794;-0.003503343;-0.999990582
2024/05/03/12:55:36.123724;77908;1714766136;123351632;world;-0.000741269;0.000840333;-0.000401644;-0.001897973;-0.00169882;-0.003518682;-0.999990582
2024/05/03/12:55:36.133420;77909;1714766136;132988613;world;-0.000732426;0.000838288;-0.000425124;-0.001903946;-0.001725761;-0.003468328;-0.999990702
2024/05/03/12:55:36.163540;77910;1714766136;163240572;world;-0.000746347;0.000847743;-0.000428576;-0.001771328;-0.001797051;-0.003527652;-0.999990582
2024/05/03/12:55:36.163552;77911;1714766136;163280026;world;-0.000734258;0.000866517;-0.000427518;-0.001818885;-0.001773582;-0.003516927;-0.999990582
2024/05/03/12:55:36.203520;77912;1714766136;203220132;world;-0.000745848;0.00086099;-0.000419671;-0.001854645;-0.001705095;-0.003431485;-0.99999094
2024/05/03/12:55:36.203550;77913;1714766136;203260308;world;-0.000747174;0.000831005;-0.0003997;-0.001899058;-0.001666454;-0.003434936;-0.99999094
2024/05/03/12:55:36.213220;77914;1714766136;212942565;world;-0.000727892;0.000843689;-0.000408468;-0.001833454;-0.001705355;-0.003446756;-0.99999094
2024/05/03/12:55:36.233332;77915;1714766136;232981323;world;-0.000750341;0.000843415;-0.000429247;-0.001866099;-0.001724855;-0.003455329;-0.999990821
2024/05/03/12:55:36.243306;77916;1714766136;242972934;world;-0.00074362;0.000848612;-0.000414021;-0.00179905;-0.001709705;-0.003485492;-0.999990821
2024/05/03/12:55:36.263241;77917;1714766136;262903308;world;-0.000758611;0.000836353;-0.000404177;-0.001828529;-0.001713114;-0.003481869;-0.999990821
2024/05/03/12:55:36.273291;77918;1714766136;272947448;world;-0.000771798;0.000846017;-0.000409122;-0.001867008;-0.001751632;-0.00350684;-0.999990582
2024/05/03/12:55:36.293587;77919;1714766136;293229311;world;-0.000756733;0.000853486;-0.000402501;-0.001836417;-0.001684002;-0.003504527;-0.999990821
2024/05/03/12:55:36.313470;77920;1714766136;313112892;world;-0.000736669;0.000847264;-0.000421238;-0.001813515;-0.001703222;-0.003490843;-0.999990821
2024/05/03/12:55:36.323432;77921;1714766136;323078910;world;-0.000777178;0.000845746;-0.000403066;-0.001894528;-0.001747466;-0.003525419;-0.999990463
2024/05/03/12:55:36.333279;77922;1714766136;332987595;world;-0.000820857;0.000816451;-0.000281161;-0.002272525;-0.002219763;-0.003677947;-0.999988198
2024/05/03/12:55:36.363525;77923;1714766136;363237221;world;-0.00082802;0.000792224;-0.000361605;-0.002036124;-0.00194514;-0.003673311;-0.999989271
2024/05/03/12:55:36.363565;77924;1714766136;363281054;world;-0.000772692;0.000835653;-0.000402756;-0.001857454;-0.001706743;-0.003511173;-0.999990702
2024/05/03/12:55:36.394609;77925;1714766136;394202943;world;-0.00070861;0.000834754;-0.000410955;-0.001693499;-0.001616055;-0.003403093;-0.999991536
2024/05/03/12:55:36.403472;77926;1714766136;403126586;world;-0.000736985;0.000838304;-0.000417111;-0.001865141;-0.001767941;-0.003503636;-0.999990582
2024/05/03/12:55:36.413255;77927;1714766136;412990407;world;-0.000787046;0.000811543;-0.000389251;-0.00194419;-0.00185117;-0.003577216;-0.999989986
2024/05/03/12:55:36.433552;77928;1714766136;433153177;world;-0.00076418;0.000812086;-0.000366957;-0.001880737;-0.001710283;-0.003511146;-0.999990582
2024/05/03/12:55:36.453507;77929;1714766136;453186182;world;-0.00075106;0.000849057;-0.000409018;-0.001865008;-0.001718221;-0.003452814;-0.999990821
2024/05/03/12:55:36.463333;77930;1714766136;463042860;world;-0.000765067;0.000828831;-0.00040789;-0.001906036;-0.00174074;-0.003476661;-0.999990702
2024/05/03/12:55:36.483257;77931;1714766136;482910115;world;-0.00074606;0.000828055;-0.000403561;-0.001913756;-0.001732718;-0.003475821;-0.999990702
2024/05/03/12:55:36.513262;77932;1714766136;512927207;world;-0.00075765;0.000841085;-0.000413876;-0.001917593;-0.00170662;-0.00347802;-0.999990702
2024/05/03/12:55:36.513864;77933;1714766136;512964397;world;-0.00075794;0.000848025;-0.000405838;-0.001889799;-0.001678714;-0.003458933;-0.999990821
2024/05/03/12:55:36.523457;77934;1714766136;523158439;world;-0.000744596;0.000823658;-0.00041191;-0.001882612;-0.001725895;-0.003435526;-0.999990821
2024/05/03/12:55:36.543291;77935;1714766136;542981070;world;-0.000756077;0.000828528;-0.000408047;-0.001899027;-0.001709081;-0.003489574;-0.999990702
2024/05/03/12:55:36.593779;77936;1714766136;593469984;world;-0.000758577;0.000843113;-0.000406942;-0.001909694;-0.001715631;-0.003529563;-0.999990463
2024/05/03/12:55:36.593802;77938;1714766136;593517222;world;-0.00075458;0.000822223;-0.000407272;-0.001850605;-0.001686077;-0.003482424;-0.999990821
2024/05/03/12:55:36.603812;77939;1714766136;603355582;world;-0.000751413;0.000839569;-0.000408414;-0.001978731;-0.00177102;-0.003501356;-0.999990344
2024/05/03/12:55:36.623518;77940;1714766136;623208544;world;-0.000746168;0.000866204;-0.000427632;-0.001914437;-0.001689233;-0.003500694;-0.999990702
2024/05/03/12:55:36.643318;77941;1714766136;642983976;world;-0.000753369;0.00084349;-0.000425966;-0.001888753;-0.001716075;-0.003477714;-0.999990702
2024/05/03/12:55:36.653272;77942;1714766136;652954053;world;-0.000754613;0.000840417;-0.000407757;-0.001949964;-0.001719203;-0.003486066;-0.999990582
2024/05/03/12:55:36.673701;77943;1714766136;673123560;world;-0.000760347;0.00084633;-0.000410286;-0.001893041;-0.001750307;-0.003483724;-0.999990582
2024/05/03/12:55:36.693354;77944;1714766136;693015792;world;-0.000749312;0.000842598;-0.000421987;-0.00189845;-0.001714846;-0.003442115;-0.999990821
2024/05/03/12:55:36.713386;77945;1714766136;713103075;world;-0.000739485;0.000846679;-0.00041937;-0.001902886;-0.001652263;-0.003477337;-0.999990821
2024/05/03/12:55:36.713417;77946;1714766136;713136648;world;-0.000754282;0.000835325;-0.000414461;-0.001895218;-0.001748879;-0.003488256;-0.999990582
2024/05/03/12:55:36.733618;77947;1714766136;733285287;world;-0.000758987;0.000847133;-0.0004131;-0.001992431;-0.001744935;-0.003490496;-0.999990463
2024/05/03/12:55:36.743549;77948;1714766136;743176878;world;-0.000746515;0.000843668;-0.00042204;-0.001934275;-0.001728812;-0.00347365;-0.999990582
2024/05/03/12:55:36.773621;77949;1714766136;773180156;world;-0.000760395;0.001007841;-0.00039222;-0.001894529;-0.001709774;-0.003377193;-0.999991059
2024/05/03/12:55:36.773654;77950;1714766136;773389309;world;-0.000757899;0.001299417;-0.000351457;-0.002037179;-0.001697235;-0.003300762;-0.999991059
2024/05/03/12:55:36.813158;77951;1714766136;812888416;world;-0.000724368;0.002323019;-0.000369257;-0.002254682;-0.001763259;-0.003200501;-0.999990821
2024/05/03/12:55:36.813188;77952;1714766136;812922981;world;-0.000395488;0.003693285;-0.000521151;-0.002059697;-0.001584081;-0.002775951;-0.999992847
2024/05/03/12:55:36.823607;77953;1714766136;823343709;world;-0.000216544;0.005264815;-0.000566353;-0.001526191;-0.001411376;-0.002512241;-0.999994755
2024/05/03/12:55:36.843483;77954;1714766136;843252671;world;-0.00012587;0.006497137;-0.000510812;-0.001550846;-0.001189129;-0.000840633;-0.999997735
2024/05/03/12:55:36.853686;77955;1714766136;853365562;world;-6.89E-05;0.008166878;-0.000260368;-0.001652273;-0.000973421;-0.000144279;-0.999998212
2024/05/03/12:55:36.874514;77956;1714766136;874191479;world;-6.75E-05;0.010041046;4.60E-05;-0.000493657;-0.00049038;6.03E-05;-0.999999762
2024/05/03/12:55:36.883410;77957;1714766136;883040802;world;0.000172965;0.011016819;0.000152924;-0.000594971;-7.29E-05;-0.000223277;-0.999999881
2024/05/03/12:55:36.904032;77958;1714766136;903390763;world;0.000246916;0.013073577;0.000192777;-0.000348493;-0.000242442;-0.000181677;-0.999999881
2024/05/03/12:55:36.913474;77959;1714766136;913163413;world;0.000132395;0.015190557;0.000105929;-0.000164819;-0.000325209;-0.000351456;-0.999999881
2024/05/03/12:55:36.933413;77960;1714766136;933015710;world;5.18E-05;0.017380992;0.000190104;-9.69E-05;-0.000573511;-0.000573719;-0.999999642
2024/05/03/12:55:36.943279;77961;1714766136;943040363;world;9.88E-05;0.01947074;8.53E-05;-0.000505477;-0.000336201;-0.000747672;-0.999999523
2024/05/03/12:55:36.993591;77962;1714766136;993285228;world;0.000186058;0.02144165;3.67E-05;-0.000578598;-0.000412157;-0.000401392;-0.999999642
2024/05/03/12:55:36.993627;77963;1714766136;993319532;world;0.000223108;0.023371672;0.000150014;-0.000622723;-0.000895018;-0.000590792;-0.999999285
2024/05/03/12:55:37.014528;77964;1714766137;13232840;world;0.000217583;0.024294566;0.000224264;-0.000597888;-0.000850427;-0.000564685;-0.999999285
2024/05/03/12:55:37.014561;77965;1714766137;13286070;world;0.000163406;0.026236644;0.000207057;-0.000261012;-0.000459467;-0.000628838;-0.999999642
2024/05/03/12:55:37.023398;77966;1714766137;23077549;world;0.000156191;0.028109327;8.06E-05;0.00043221;-0.000144713;-0.000519411;-0.999999762
2024/05/03/12:55:37.043561;77967;1714766137;43211694;world;0.000131076;0.030643523;0.000291872;0.000208729;-0.000748192;-0.00081118;-0.999999404
2024/05/03/12:55:37.064012;77968;1714766137;63054262;world;0.000141213;0.031481091;0.000331145;0.000199302;-0.000584917;-0.000836917;-0.999999523
2024/05/03/12:55:37.083644;77969;1714766137;83337047;world;0.000162499;0.032816499;0.000360567;-6.53E-05;-0.000597974;-0.000898138;-0.999999404
2024/05/03/12:55:37.093445;77970;1714766137;93137419;world;0.000219617;0.034098707;0.000458667;-0.000616327;-0.000715285;-0.00093902;-0.999999166
2024/05/03/12:55:37.103575;77971;1714766137;103243115;world;0.000233315;0.035366867;0.000490235;-0.000549223;-0.000879448;-0.000732217;-0.999999166
2024/05/03/12:55:37.123606;77972;1714766137;123311578;world;0.000176677;0.035966776;0.000440658;-0.00041791;-0.000847642;-0.000763536;-0.999999285
2024/05/03/12:55:37.133443;77973;1714766137;133086441;world;0.000241848;0.037646577;0.00021731;-7.88E-06;-0.000936039;-0.000308805;-0.999999523
2024/05/03/12:55:37.153553;77974;1714766137;153288235;world;0.000162342;0.03850906;0.000221619;0.000143036;-0.000747353;-0.000399043;-0.999999642
2024/05/03/12:55:37.163513;77975;1714766137;163167024;world;7.49E-05;0.03893552;0.000297428;-4.91E-05;-0.000618098;-0.000698487;-0.999999642
2024/05/03/12:55:37.183240;77976;1714766137;182929410;world;-1.55E-05;0.039783634;0.000468156;-0.000541591;-0.000879665;-0.001185975;-0.999998808
2024/05/03/12:55:37.193610;77977;1714766137;193279677;world;3.23E-05;0.040597171;0.000509941;-0.000470834;-0.000904126;-0.001020957;-0.999999046
2024/05/03/12:55:37.213250;77978;1714766137;212960085;world;9.70E-05;0.04139575;0.000483352;-0.000526632;-0.000621402;-0.000840736;-0.999999404
2024/05/03/12:55:37.233643;77979;1714766137;233260678;world;8.47E-05;0.042148963;0.000431836;-0.000247606;-0.000492054;-0.000724634;-0.999999642
2024/05/03/12:55:37.243256;77980;1714766137;242981509;world;0.000119507;0.042502977;0.000451965;-0.000327975;-0.000559894;-0.000690783;-0.999999523
2024/05/03/12:55:37.263526;77981;1714766137;263081413;world;0.000101933;0.043134332;0.000465328;-0.000115748;-0.000710715;-0.00074788;-0.999999523
2024/05/03/12:55:37.283367;77982;1714766137;283021794;world;0.000111213;0.044031091;0.000491856;-3.32E-05;-0.000887763;-0.000611631;-0.999999404
2024/05/03/12:55:37.293603;77983;1714766137;293358673;world;7.54E-05;0.044338543;0.000505162;0.000136028;-0.000996602;-0.000635878;-0.999999285
2024/05/03/12:55:37.303601;77984;1714766137;303336921;world;5.21E-05;0.044853829;0.000538293;0.000134191;-0.001125906;-0.000679927;-0.999999166
2024/05/03/12:55:37.323306;77985;1714766137;323028404;world;0.000115307;0.045373142;0.000559639;0.000234957;-0.001158256;-0.000735187;-0.999999046
2024/05/03/12:55:37.333411;77986;1714766137;333147084;world;9.70E-05;0.045891471;0.000587736;0.000127288;-0.000999442;-0.000770526;-0.999999285
2024/05/03/12:55:37.353374;77987;1714766137;353051587;world;6.89E-05;0.046156079;0.000597359;6.57E-05;-0.001038174;-0.000955404;-0.999999046
2024/05/03/12:55:37.373545;77988;1714766137;373218416;world;8.20E-05;0.046723522;0.000633818;-0.000104592;-0.000889672;-0.001068154;-0.999999046
2024/05/03/12:55:37.383298;77989;1714766137;382945390;world;0.000146171;0.047351707;0.000658905;-0.000336045;-0.0009271;-0.000762309;-0.999999285
2024/05/03/12:55:37.403294;77990;1714766137;403009812;world;7.90E-05;0.047999334;0.000644713;-0.000429397;-0.000979556;-0.000824125;-0.999999166
2024/05/03/12:55:37.413355;77991;1714766137;413004409;world;9.43E-05;0.048720557;0.000586597;-0.000240406;-0.000551765;-0.000856087;-0.999999523
2024/05/03/12:55:37.433622;77992;1714766137;433345595;world;5.48E-05;0.049347926;0.000609764;-0.00011483;-0.000806246;-0.000816376;-0.999999404
2024/05/03/12:55:37.443844;77993;1714766137;443448946;world;3.93E-05;0.05002562;0.000668231;3.73E-05;-0.001166704;-0.00084173;-0.999999046
2024/05/03/12:55:37.463556;77994;1714766137;463279360;world;5.74E-05;0.050770815;0.000570128;-0.000162547;-0.000648798;-0.000819512;-0.999999523
2024/05/03/12:55:37.493497;77995;1714766137;493163474;world;4.45E-05;0.051174447;0.000468263;2.28E-05;-0.000210923;-0.000772216;-0.999999762
2024/05/03/12:55:37.493521;77996;1714766137;493197458;world;0.000135773;0.051931109;0.000453034;0.000117241;-0.000304192;-0.000619698;-0.999999762
2024/05/03/12:55:37.523641;77997;1714766137;523331931;world;0.000112001;0.052634694;0.000412367;-0.000181062;-0.000264256;-0.000828202;-0.999999642
2024/05/03/12:55:37.533478;77998;1714766137;533143815;world;8.74E-05;0.053555377;0.000616176;-0.000602863;-0.000516381;-0.001123038;-0.999999046
2024/05/03/12:55:37.543538;77999;1714766137;543257183;world;6.93E-05;0.053913374;0.000661336;-0.000614848;-0.000607115;-0.001233285;-0.999998927
2024/05/03/12:55:37.563581;78000;1714766137;563327130;world;0.000124546;0.05479984;0.000672785;-0.000967239;-0.000371362;-0.001058091;-0.999998927
2024/05/03/12:55:37.573353;78001;1714766137;573129866;world;9.71E-05;0.055624485;0.000669895;-0.000724451;-0.000443365;-0.001046861;-0.999999166
2024/05/03/12:55:37.594116;78002;1714766137;593527858;world;6.92E-05;0.056481302;0.000654102;-0.00052178;-0.00059343;-0.001081045;-0.999999166
2024/05/03/12:55:37.603291;78003;1714766137;603032592;world;8.17E-05;0.057355359;0.000685229;-0.000430007;-0.00088168;-0.000982247;-0.999999046
2024/05/03/12:55:37.623421;78004;1714766137;623139017;world;7.87E-05;0.057764836;0.000707273;-0.000475086;-0.001000683;-0.000986104;-0.999998927
2024/05/03/12:55:37.633501;78005;1714766137;633166938;world;6.50E-05;0.058519132;0.000796496;-0.000461889;-0.000931592;-0.001049602;-0.999998927
2024/05/03/12:55:37.653956;78006;1714766137;653546700;world;4.20E-05;0.059399474;0.000808835;-0.000369282;-0.000533947;-0.001070683;-0.999999285
2024/05/03/12:55:37.663617;78007;1714766137;663381421;world;6.95E-06;0.060352854;0.000743926;-0.000457101;-0.000214981;-0.001117943;-0.999999285
2024/05/03/12:55:37.693338;78008;1714766137;693096827;world;-3.34E-05;0.061214041;0.000739394;-0.000293384;-0.000310411;-0.001084537;-0.999999404
2024/05/03/12:55:37.703344;78009;1714766137;703058691;world;-3.35E-06;0.062089864;0.000844287;-0.000376559;-0.000346792;-0.001005013;-0.999999404
2024/05/03/12:55:37.713366;78010;1714766137;713115154;world;-4.89E-06;0.063021399;0.000836449;-0.000137228;-0.000564396;-0.000847282;-0.999999523
2024/05/03/12:55:37.733235;78011;1714766137;732945108;world;1.25E-05;0.063913018;0.000862732;-9.66E-05;-0.000755355;-0.000970393;-0.999999285
2024/05/03/12:55:37.743343;78012;1714766137;743097172;world;4.14E-05;0.06480477;0.000817021;-0.000102339;-0.000871636;-0.000964034;-0.999999166
2024/05/03/12:55:37.763526;78013;1714766137;763221679;world;7.39E-05;0.065611601;0.000795661;-0.000386961;-0.000999663;-0.00105512;-0.999998927
2024/05/03/12:55:37.773244;78014;1714766137;773003005;world;8.36E-05;0.066028014;0.000779105;-0.000711283;-0.00090192;-0.001103287;-0.999998808
2024/05/03/12:55:37.793541;78015;1714766137;793263409;world;5.83E-05;0.066978529;0.000749943;-0.000798995;-0.000381621;-0.001365595;-0.999998689
2024/05/03/12:55:37.803283;78016;1714766137;803030196;world;9.08E-05;0.067902029;0.000657494;-0.000548954;-6.85E-05;-0.001119889;-0.999999285
2024/05/03/12:55:37.823492;78017;1714766137;823246778;world;0.000155196;0.068843685;0.000747055;-0.001219329;-0.000316115;-0.001034855;-0.999998689
2024/05/03/12:55:37.843606;78018;1714766137;843288090;world;4.81E-05;0.06975887;0.000826291;-0.001206807;-0.000929866;-0.001270433;-0.999998093
2024/05/03/12:55:37.853291;78019;1714766137;853038135;world;-2.12E-05;0.070717245;0.000923262;-0.001283672;-0.001215781;-0.001493355;-0.999997377
2024/05/03/12:55:37.873807;78020;1714766137;873432102;world;-5.06E-05;0.07162413;0.000905394;-0.001238822;-0.000820185;-0.001387888;-0.999997973
2024/05/03/12:55:37.903404;78021;1714766137;903024134;world;-5.51E-05;0.072432317;0.000913384;-0.001459067;-0.000566677;-0.001411666;-0.999997854
2024/05/03/12:55:37.903435;78022;1714766137;903059641;world;-5.81E-05;0.073255301;0.000899864;-0.001018177;-0.000339005;-0.00154719;-0.999998212
2024/05/03/12:55:37.923580;78023;1714766137;923261064;world;-2.95E-05;0.073642589;0.000913983;-0.000932684;-0.000356376;-0.001480546;-0.99999845
2024/05/03/12:55:37.933367;78024;1714766137;933151976;world;-2.08E-06;0.074548617;0.000869317;-0.000381252;-0.000383288;-0.001328407;-0.999999046
2024/05/03/12:55:37.943235;78025;1714766137;942967066;world;4.69E-05;0.075395405;0.000886178;-0.000319451;-0.000457909;-0.001368483;-0.999998927
2024/05/03/12:55:37.963429;78026;1714766137;963115042;world;7.32E-05;0.07628084;0.000932742;-0.000490661;-0.000569278;-0.001527446;-0.999998569
2024/05/03/12:55:37.983673;78027;1714766137;983330686;world;4.18E-05;0.077126496;0.000907788;-0.000331155;-0.000660254;-0.001504228;-0.999998569
2024/05/03/12:55:38.003218;78028;1714766138;2952600;world;7.46E-05;0.077990703;0.000936002;-0.000103899;-0.000713971;-0.001426178;-0.999998808
2024/05/03/12:55:38.013414;78029;1714766138;13151235;world;7.97E-05;0.078430906;0.000969502;-0.000353093;-0.000616286;-0.001494308;-0.999998689
2024/05/03/12:55:38.043425;78030;1714766138;43172311;world;7.72E-05;0.079290286;0.000991912;-0.000837452;-0.000525009;-0.001516161;-0.99999845
2024/05/03/12:55:38.043450;78031;1714766138;43208359;world;3.52E-05;0.080095746;0.001068122;-0.001035999;-0.000377491;-0.00159193;-0.999998212
2024/05/03/12:55:38.063461;78032;1714766138;63032460;world;-2.62E-05;0.080824822;0.001086565;-0.001157807;-0.000587853;-0.001857415;-0.999997497
2024/05/03/12:55:38.073334;78033;1714766138;73055060;world;-9.12E-05;0.081706159;0.00112879;-0.001228246;-0.000831656;-0.001924741;-0.99999702
2024/05/03/12:55:38.103345;78034;1714766138;102910878;world;-0.00010949;0.082507484;0.001199566;-0.001437981;-0.000992214;-0.001998979;-0.999996543
2024/05/03/12:55:38.103370;78035;1714766138;102946916;world;-0.000151612;0.083397821;0.001129026;-0.001211678;-0.0009587;-0.001629457;-0.999997497
2024/05/03/12:55:38.143249;78036;1714766138;142986588;world;-0.000382077;0.084301695;0.00072266;-0.000632487;0.000315916;-0.001238465;-0.999999046
2024/05/03/12:55:38.143274;78037;1714766138;143020743;world;-0.000124795;0.084745742;0.0008422;-0.000584527;-0.000500463;-0.001044666;-0.999999166
2024/05/03/12:55:38.153303;78038;1714766138;153031480;world;-6.70E-05;0.085931182;0.000709527;-0.000695629;-3.00E-05;-0.001364607;-0.999998808
2024/05/03/12:55:38.163285;78039;1714766138;163035692;world;4.78E-05;0.086311586;0.00079901;-0.001436631;-0.000166714;-0.001610437;-0.999997735
2024/05/03/12:55:38.183329;78040;1714766138;183161794;world;4.90E-05;0.087371439;0.000931801;-0.001038061;-0.00027411;-0.00149903;-0.999998331
2024/05/03/12:55:38.203584;78041;1714766138;203282593;world;4.85E-05;0.0877776;0.000921093;-0.000740075;-0.000231487;-0.001508771;-0.999998569
2024/05/03/12:55:38.213331;78042;1714766138;213076568;world;-4.40E-05;0.088638186;0.000884162;-0.000304652;-2.11E-05;-0.001714421;-0.999998569
2024/05/03/12:55:38.243279;78043;1714766138;242897625;world;-2.50E-05;0.089073531;0.000936313;-0.000433691;-0.000103242;-0.001770315;-0.999998331
2024/05/03/12:55:38.243308;78044;1714766138;242937851;world;4.48E-05;0.090448946;0.001070787;-0.000880614;-0.000193128;-0.001820292;-0.999997973
2024/05/03/12:55:38.263337;78045;1714766138;263067669;world;5.64E-06;0.090888374;0.001110812;-0.000951123;-0.000325327;-0.001839328;-0.999997854
2024/05/03/12:55:38.283400;78046;1714766138;283088963;world;-9.48E-05;0.092115968;0.001179376;-0.000897899;-0.000874856;-0.002026249;-0.999997139
2024/05/03/12:55:38.293201;78047;1714766138;292922877;world;-0.000107218;0.092536114;0.001213268;-0.001051418;-0.000956979;-0.001966847;-0.999997139
2024/05/03/12:55:38.313473;78048;1714766138;313261548;world;-8.77E-05;0.093282469;0.001281143;-0.001372123;-0.000816164;-0.002007395;-0.999996781
2024/05/03/12:55:38.343661;78049;1714766138;343402935;world;-0.000158181;0.094114661;0.001268185;-0.000899363;-0.000899586;-0.001938794;-0.999997377
2024/05/03/12:55:38.353555;78050;1714766138;353280662;world;-0.00012177;0.094874814;0.001240561;-0.001126635;-0.000906651;-0.001936479;-0.999997139
2024/05/03/12:55:38.353581;78051;1714766138;353312221;world;-0.000133477;0.095793881;0.001154951;-0.001015301;-0.000482602;-0.001933383;-0.999997497
2024/05/03/12:55:38.373288;78052;1714766138;372894718;world;-0.00012707;0.096617803;0.001096301;-0.000620488;-0.000384958;-0.001997604;-0.999997735
2024/05/03/12:55:38.383468;78053;1714766138;383092077;world;-0.000113921;0.097046882;0.001132096;-0.000685202;-0.000578774;-0.001868067;-0.999997854
2024/05/03/12:55:38.413266;78054;1714766138;412911387;world;-5.85E-05;0.097946391;0.001196792;-0.000935203;-0.000793304;-0.001832717;-0.999997616
2024/05/03/12:55:38.423486;78055;1714766138;423231246;world;-0.000244743;0.099250972;0.00093887;-0.000494846;0.000297188;-0.00217719;-0.999997497
2024/05/03/12:55:38.443448;78056;1714766138;443200051;world;-0.000120549;0.099731199;0.001005758;-0.000819347;0.000128697;-0.001920616;-0.999997854
2024/05/03/12:55:38.453574;78057;1714766138;452996851;world;-0.000111679;0.100483984;0.000972409;-0.000900896;6.30E-05;-0.002107995;-0.999997377
2024/05/03/12:55:38.463382;78058;1714766138;463024514;world;-7.83E-05;0.10126321;0.001129916;-0.001662276;-0.00053586;-0.002149808;-0.999996185
2024/05/03/12:55:38.483184;78059;1714766138;482984402;world;-0.000138102;0.102025881;0.001163257;-0.001162705;-0.000575266;-0.00233685;-0.999996424
2024/05/03/12:55:38.493697;78060;1714766138;493415526;world;-0.000171782;0.102892108;0.001231383;-0.001308417;-0.000786715;-0.002488334;-0.999995828
2024/05/03/12:55:38.513248;78061;1714766138;513007467;world;-0.000205923;0.103787228;0.001311968;-0.001668803;-0.000743625;-0.002514814;-0.999995232
2024/05/03/12:55:38.543266;78062;1714766138;543019243;world;-0.000215705;0.104660764;0.001359668;-0.001671279;-0.000924338;-0.002488815;-0.999995112
2024/05/03/12:55:38.543274;78063;1714766138;543054109;world;-0.00022999;0.105063014;0.001383707;-0.001723336;-0.001132333;-0.002485141;-0.999994874
2024/05/03/12:55:38.563352;78064;1714766138;563087788;world;-0.0002563;0.105867811;0.001383136;-0.001574925;-0.001378649;-0.0026105;-0.999994397
2024/05/03/12:55:38.573143;78065;1714766138;572901725;world;-0.000298979;0.106697038;0.00137462;-0.001251991;-0.001370112;-0.002746061;-0.999994516
2024/05/03/12:55:38.593820;78066;1714766138;593201038;world;-0.000247836;0.107507393;0.001358923;-0.001029624;-0.000880824;-0.002608335;-0.999995708
2024/05/03/12:55:38.613432;78067;1714766138;613164055;world;-0.000183683;0.108448043;0.001290598;-0.000905991;-0.000260575;-0.00230076;-0.999996901
2024/05/03/12:55:38.623345;78068;1714766138;623086437;world;-0.000132008;0.109314024;0.001270361;-0.000738004;1.59E-05;-0.002256125;-0.999997258
2024/05/03/12:55:38.663277;78069;1714766138;663021833;world;-0.000131782;0.109731041;0.001252924;-0.000759946;-0.000166182;-0.002394732;-0.999996901
2024/05/03/12:55:38.663302;78071;1714766138;663070554;world;-0.000139756;0.111374252;0.001352733;-0.000786585;-0.000701675;-0.002581622;-0.999996185
2024/05/03/12:55:38.683325;78072;1714766138;683101154;world;-0.000149801;0.112273701;0.001402236;-0.000763531;-0.000802646;-0.00260903;-0.999996066
2024/05/03/12:55:38.693418;78073;1714766138;693142680;world;-0.000111993;0.11311809;0.001450381;-0.001462715;-0.000622778;-0.002441041;-0.999995828
2024/05/03/12:55:38.714455;78074;1714766138;713184532;world;-0.000148116;0.113926172;0.001471218;-0.001562179;-0.000793489;-0.002830985;-0.999994516
2024/05/03/12:55:38.723451;78075;1714766138;723188987;world;-0.000211537;0.114737093;0.001455122;-0.001910937;-0.000815504;-0.00310056;-0.999993086
2024/05/03/12:55:38.753242;78076;1714766138;752979092;world;-0.000231825;0.115584508;0.001440964;-0.001851279;-0.000574084;-0.003103632;-0.999993324
2024/05/03/12:55:38.763541;78077;1714766138;763315443;world;-0.000194646;0.116453297;0.001426866;-0.001608456;-0.000613546;-0.002951002;-0.999994159
2024/05/03/12:55:38.773250;78078;1714766138;772945944;world;-0.000208445;0.116887644;0.001418;-0.001484448;-0.00064793;-0.002932988;-0.999994397
2024/05/03/12:55:38.793206;78079;1714766138;792983197;world;-0.000242559;0.117666155;0.001457857;-0.001533334;-0.000708655;-0.003104904;-0.999993801
2024/05/03/12:55:38.823518;78080;1714766138;823193594;world;-0.000182997;0.118513793;0.001461047;-0.001457862;-0.001015695;-0.002914658;-0.999994159
2024/05/03/12:55:38.823544;78081;1714766138;823227308;world;-0.000264043;0.119384728;0.001344484;-0.001312038;-0.000885272;-0.002794644;-0.999994874
2024/05/03/12:55:38.853417;78082;1714766138;853036759;world;-0.000199672;0.120292336;0.001311454;-0.001365201;-0.000576453;-0.002648063;-0.99999547
2024/05/03/12:55:38.853434;78083;1714766138;853070543;world;-6.89E-05;0.121083625;0.001394101;-0.001365628;-0.000340554;-0.002390425;-0.999996185
2024/05/03/12:55:38.873282;78084;1714766138;873021486;world;-5.05E-05;0.12147779;0.001407444;-0.001301419;-0.00023684;-0.002478822;-0.999996066
2024/05/03/12:55:38.883497;78085;1714766138;883089071;world;-0.000147419;0.122210428;0.001366748;-0.000718476;-0.000221458;-0.002645242;-0.999996305
2024/05/03/12:55:38.903469;78086;1714766138;903226051;world;-0.000117039;0.123072118;0.001436544;-0.000683824;-0.00036801;-0.002759842;-0.999995947
2024/05/03/12:55:38.923237;78087;1714766138;922974121;world;-0.000192501;0.123873085;0.001434475;-0.000628146;-0.000545394;-0.002806534;-0.999995708
2024/05/03/12:55:38.933679;78088;1714766138;933159116;world;-0.000194134;0.124785796;0.001467212;-0.000643441;-0.000639582;-0.002889712;-0.99999547
2024/05/03/12:55:38.953387;78089;1714766138;953140383;world;-0.000153188;0.12567459;0.001564849;-0.001255088;-0.000473704;-0.002682977;-0.999995589
2024/05/03/12:55:38.963610;78090;1714766138;963355245;world;-0.000194285;0.126470923;0.001587079;-0.001421653;-0.000617458;-0.00260209;-0.99999547
2024/05/03/12:55:38.983439;78091;1714766138;983203119;world;-0.000175714;0.127345964;0.001654573;-0.001584346;-0.000594463;-0.002671873;-0.999994993
2024/05/03/12:55:38.993551;78092;1714766138;993269141;world;-0.000146082;0.128128469;0.001625235;-0.001526664;-0.000960931;-0.00259244;-0.999994993
2024/05/03/12:55:39.023492;78093;1714766139;23200613;world;-0.000151599;0.128936484;0.001619268;-0.001532813;-0.001112522;-0.002597248;-0.999994874
2024/05/03/12:55:39.023500;78094;1714766139;23247391;world;-0.000161303;0.129802242;0.001632913;-0.001502119;-0.001122938;-0.002783953;-0.999994397
2024/05/03/12:55:39.043498;78095;1714766139;42845979;world;-0.000169491;0.130248398;0.001603308;-0.001512183;-0.001095316;-0.00273172;-0.999994516
2024/05/03/12:55:39.083460;78096;1714766139;83270354;world;-0.000246534;0.131100863;0.001460601;-0.001081733;-0.000665874;-0.002759756;-0.99999547
2024/05/03/12:55:39.083488;78097;1714766139;83304298;world;-0.000175355;0.132096648;0.001270191;-0.000959754;-0.000281758;-0.002537408;-0.999996305
2024/05/03/12:55:39.093148;78098;1714766139;92952504;world;-0.000267457;0.133046255;0.001154909;-0.00072944;0.000474404;-0.002599617;-0.999996305
2024/05/03/12:55:39.103374;78099;1714766139;103152147;world;-8.98E-05;0.133853525;0.001425731;-0.001911083;-0.000303966;-0.002825865;-0.999994159
2024/05/03/12:55:39.123488;78100;1714766139;123217310;world;-8.70E-05;0.134671807;0.001526441;-0.00182488;-0.000351146;-0.002573471;-0.999994993
2024/05/03/12:55:39.133298;78101;1714766139;133090900;world;-8.21E-05;0.135040656;0.001542654;-0.00163316;-0.000228622;-0.002495899;-0.999995589
2024/05/03/12:55:39.173779;78102;1714766139;173516648;world;-0.000138743;0.13627471;0.001535873;-0.001347346;-0.000285117;-0.002526805;-0.999995947
2024/05/03/12:55:39.173810;78103;1714766139;173555982;world;-0.000179281;0.137165084;0.001597021;-0.001339962;-0.000347376;-0.002608174;-0.999995708
2024/05/03/12:55:39.183371;78104;1714766139;183041099;world;-0.00013873;0.137652948;0.001610458;-0.001488456;-0.000402005;-0.002796441;-0.999994874
2024/05/03/12:55:39.203471;78105;1714766139;203160678;world;-0.000214249;0.138438299;0.001636312;-0.001229363;-0.000623565;-0.002684943;-0.99999547
2024/05/03/12:55:39.213158;78106;1714766139;212904792;world;-0.000230821;0.13922748;0.001657213;-0.001387852;-0.000410134;-0.002665045;-0.99999547
2024/05/03/12:55:39.233477;78107;1714766139;233282307;world;-0.00026351;0.140011132;0.001772609;-0.001889022;-0.001082826;-0.002596484;-0.999994278
2024/05/03/12:55:39.263512;78108;1714766139;263163874;world;-0.000246476;0.140439183;0.001800914;-0.001910123;-0.001140396;-0.002573909;-0.999994278
2024/05/03/12:55:39.263531;78109;1714766139;263205643;world;-0.00022158;0.141749203;0.001778343;-0.001630707;-0.001014637;-0.002336308;-0.99999547
2024/05/03/12:55:39.283907;78110;1714766139;283459133;world;-0.000197647;0.142598107;0.001756365;-0.001386825;-0.000992695;-0.002373613;-0.999995708
2024/05/03/12:55:39.293111;78111;1714766139;292861515;world;-0.00021592;0.14303036;0.001717678;-0.001347851;-0.000886454;-0.002393179;-0.999995828
2024/05/03/12:55:39.303505;78112;1714766139;303223613;world;-0.00026528;0.14390409;0.00153649;-0.000944579;-0.000231827;-0.002525388;-0.999996424
2024/05/03/12:55:39.333622;78113;1714766139;333300459;world;-0.000221066;0.144766897;0.001554637;-0.000963098;-0.00019054;-0.002477514;-0.999996424
2024/05/03/12:55:39.343533;78114;1714766139;343264496;world;-0.000263281;0.145511225;0.001623951;-0.001155338;-0.000533799;-0.002641165;-0.999995708
2024/05/03/12:55:39.363491;78115;1714766139;363230978;world;-0.000296663;0.14635244;0.00164525;-0.001374759;-0.000629014;-0.002654014;-0.999995351
2024/05/03/12:55:39.373601;78116;1714766139;373337961;world;-0.000256207;0.147355929;0.001541478;-0.00178988;-0.00051653;-0.002551741;-0.999994993
2024/05/03/12:55:39.383348;78117;1714766139;383138667;world;-0.000244116;0.14779453;0.001530521;-0.001603751;-0.000479504;-0.002432594;-0.999995708
2024/05/03/12:55:39.403579;78118;1714766139;403300532;world;-0.000251772;0.149011016;0.001636762;-0.001654705;-0.000706294;-0.002367293;-0.999995589
2024/05/03/12:55:39.413338;78119;1714766139;413164223;world;-0.000217894;0.149425253;0.001598203;-0.001480458;-0.000382633;-0.002413089;-0.999995947
2024/05/03/12:55:39.433232;78120;1714766139;432967227;world;-0.000191629;0.150261685;0.001688132;-0.001703986;-0.000271483;-0.002372428;-0.999995708
2024/05/03/12:55:39.443926;78121;1714766139;443764874;world;-0.000229744;0.151013166;0.001749111;-0.001743929;-0.000813971;-0.002606925;-0.999994755
2024/05/03/12:55:39.473778;78122;1714766139;473096096;world;-0.000253597;0.151749566;0.001830234;-0.001739288;-0.001193984;-0.002650225;-0.999994278
2024/05/03/12:55:39.483548;78123;1714766139;483265934;world;-0.0002404;0.152615488;0.001794789;-0.001480595;-0.001075076;-0.002497764;-0.999995232
2024/05/03/12:55:39.493941;78124;1714766139;493619926;world;-0.000264987;0.153007537;0.001770382;-0.001295114;-0.001107286;-0.002469238;-0.99999547
2024/05/03/12:55:39.513634;78125;1714766139;512874577;world;-0.000236887;0.154358283;0.001924021;-0.001378378;-0.001053756;-0.002465173;-0.99999547
2024/05/03/12:55:39.533351;78126;1714766139;532963915;world;-0.000275407;0.154775098;0.001905867;-0.001335767;-0.001029854;-0.002429521;-0.999995708
2024/05/03/12:55:39.543185;78127;1714766139;542932233;world;-0.000296823;0.155737653;0.001751637;-0.000803917;-0.000254176;-0.002406507;-0.999996781
2024/05/03/12:55:39.573625;78128;1714766139;573390639;world;-0.00028797;0.156598166;0.001622781;-0.000538386;0.000181591;-0.00224245;-0.999997377
2024/05/03/12:55:39.573635;78129;1714766139;573413993;world;-0.000254157;0.157434732;0.001675408;-0.000547449;-0.000113016;-0.002281232;-0.999997258
2024/05/03/12:55:39.593609;78130;1714766139;593261798;world;-0.000236791;0.158239692;0.001823517;-0.000945314;-0.000457618;-0.002391335;-0.999996662
2024/05/03/12:55:39.603544;78131;1714766139;603249508;world;-0.000277434;0.159023032;0.001897312;-0.001446948;-0.000851905;-0.002361759;-0.999995828
2024/05/03/12:55:39.623731;78132;1714766139;623370914;world;-0.00027835;0.159425735;0.001974572;-0.001670876;-0.000769574;-0.002461931;-0.999995351
2024/05/03/12:55:39.643344;78133;1714766139;643073159;world;-0.000324337;0.160183355;0.00196596;-0.001849255;-0.001134881;-0.002611208;-0.999994278
2024/05/03/12:55:39.653197;78134;1714766139;652867937;world;-0.000302102;0.161100477;0.001975506;-0.001848466;-0.001417355;-0.002480508;-0.999994278
2024/05/03/12:55:39.663071;78135;1714766139;662940912;world;-0.000288187;0.161941469;0.001978931;-0.001770166;-0.001439674;-0.002388874;-0.999994516
2024/05/03/12:55:39.683505;78136;1714766139;683214246;world;-0.000271704;0.162769958;0.001923914;-0.00169354;-0.001212822;-0.002377944;-0.999994993
2024/05/03/12:55:39.703683;78137;1714766139;703298255;world;-0.0002959;0.163596645;0.001841323;-0.001425116;-0.001009823;-0.002349171;-0.999995708
2024/05/03/12:55:39.714602;78138;1714766139;713984491;world;-0.000280533;0.164395213;0.001850002;-0.001487069;-0.00088203;-0.00222219;-0.999996066
2024/05/03/12:55:39.743506;78139;1714766139;743035285;world;-0.000309547;0.165226653;0.001857327;-0.001369605;-0.000963841;-0.002398889;-0.999995708
2024/05/03/12:55:39.743526;78140;1714766139;743071123;world;-0.000345119;0.166256741;0.001586006;-0.000347246;-1.03E-05;-0.002105888;-0.999997735
2024/05/03/12:55:39.783286;78141;1714766139;782938330;world;-0.000200621;0.167175427;0.00167704;-0.000599633;-0.000235175;-0.001745909;-0.999998331
2024/05/03/12:55:39.783308;78142;1714766139;782976462;world;-0.000182585;0.167645395;0.001688505;-0.0008307;-0.00037246;-0.001723753;-0.999998093
2024/05/03/12:55:39.793941;78143;1714766139;793650929;world;-0.000360833;0.168516859;0.001607765;-0.000400376;0.000165134;-0.001859149;-0.999998212
2024/05/03/12:55:39.813319;78144;1714766139;813080163;world;-0.000372494;0.169220746;0.001846907;-0.001012782;-0.000451637;-0.002362677;-0.999996662
2024/05/03/12:55:39.823180;78145;1714766139;822940582;world;-0.000299208;0.170082673;0.002064977;-0.001289743;-0.001177147;-0.002351528;-0.999995708
2024/05/03/12:55:39.843234;78146;1714766139;842978304;world;-0.000273438;0.170937926;0.002079326;-0.00111986;-0.001134157;-0.002200889;-0.999996305
2024/05/03/12:55:39.853162;78147;1714766139;852910444;world;-0.000228213;0.171711773;0.002051327;-0.001246523;-0.000926507;-0.002403418;-0.999995947
2024/05/03/12:55:39.873388;78148;1714766139;873118268;world;-0.000234935;0.172522098;0.002068565;-0.001528246;-0.000905653;-0.002444809;-0.99999547
2024/05/03/12:55:39.883574;78149;1714766139;883325785;world;-0.000266926;0.172908664;0.002089019;-0.001584894;-0.000998578;-0.002441208;-0.999995351
2024/05/03/12:55:39.903416;78150;1714766139;903123097;world;-0.000304276;0.173675731;0.002099933;-0.00179115;-0.001209857;-0.002633247;-0.999994278
2024/05/03/12:55:39.923332;78151;1714766139;923125105;world;-0.000306631;0.174486339;0.002108399;-0.00164258;-0.001347204;-0.002839143;-0.999993801
2024/05/03/12:55:39.933349;78152;1714766139;932973226;world;-0.00025896;0.17541644;0.002119089;-0.00152096;-0.001166622;-0.002692566;-0.999994516
2024/05/03/12:55:39.953613;78153;1714766139;953259658;world;-0.000220187;0.176296026;0.002126461;-0.001742276;-0.001227337;-0.002620529;-0.999994278
2024/05/03/12:55:39.983685;78154;1714766139;983387396;world;-0.000203626;0.177147001;0.002174356;-0.001768275;-0.001257687;-0.00253485;-0.999994516
2024/05/03/12:55:39.983709;78155;1714766139;983422021;world;-0.0002451;0.17800428;0.002107047;-0.001765445;-0.001028289;-0.002541165;-0.999994755
2024/05/03/12:55:39.993207;78156;1714766139;992960621;world;-0.000190955;0.178985924;0.001879402;-0.001460108;-0.000260964;-0.002686862;-0.999995351
2024/05/03/12:55:40.013498;78157;1714766140;13229177;world;-0.000272841;0.179882854;0.001769557;-0.000809343;-2.36E-05;-0.002420802;-0.999996781
2024/05/03/12:55:40.023507;78158;1714766140;23186876;world;-0.000308122;0.180239782;0.001794537;-0.000868972;-0.000190488;-0.002564979;-0.999996305
2024/05/03/12:55:40.053347;78159;1714766140;53148673;world;-0.000290733;0.180953518;0.001952768;-0.001982203;-0.001083695;-0.003048874;-0.999992847
2024/05/03/12:55:40.053370;78160;1714766140;53172077;world;-0.000404971;0.181717396;0.002013106;-0.001585157;-0.001276603;-0.002962659;-0.999993563
2024/05/03/12:55:40.083663;78161;1714766140;83363114;world;-0.000319803;0.182687014;0.002032504;-0.001686102;-0.000936117;-0.002791505;-0.999994278
2024/05/03/12:55:40.093515;78162;1714766140;93268274;world;-0.000219798;0.183511317;0.002029106;-0.00155853;-0.000866707;-0.002639587;-0.999994993
2024/05/03/12:55:40.103528;78163;1714766140;103255286;world;-0.000174558;0.18428348;0.002079679;-0.001748432;-0.000830429;-0.00256183;-0.999994874
2024/05/03/12:55:40.123491;78164;1714766140;123295365;world;-0.000216708;0.184696645;0.002100021;-0.001599421;-0.000769971;-0.002615246;-0.999994993
2024/05/03/12:55:40.133614;78165;1714766140;133347831;world;-0.000190305;0.185894504;0.002195571;-0.001619384;-0.001112966;-0.002538942;-0.999994874
2024/05/03/12:55:40.153118;78166;1714766140;152887358;world;-0.000284659;0.186647311;0.002229031;-0.001658;-0.001427371;-0.002617774;-0.999994159
2024/05/03/12:55:40.163355;78167;1714766140;163117837;world;-0.000344945;0.187064663;0.002246319;-0.001628409;-0.001443663;-0.002637926;-0.999994159
2024/05/03/12:55:40.183143;78168;1714766140;182870085;world;-0.000380216;0.187871814;0.002222018;-0.001603665;-0.001536457;-0.002739368;-0.999993801
2024/05/03/12:55:40.203587;78169;1714766140;203336325;world;-0.000312628;0.188719049;0.002247632;-0.00149049;-0.001365841;-0.002683788;-0.999994397
2024/05/03/12:55:40.213186;78170;1714766140;212960535;world;-0.000253826;0.189685062;0.002257152;-0.001592176;-0.001320598;-0.002575399;-0.999994516
2024/05/03/12:55:40.223216;78171;1714766140;222971112;world;-0.000313832;0.190078557;0.002212853;-0.001471388;-0.001182028;-0.002613902;-0.999994874
2024/05/03/12:55:40.253175;78172;1714766140;252925315;world;-0.000357664;0.190964803;0.002191895;-0.001492417;-0.000835165;-0.00274506;-0.999994755
2024/05/03/12:55:40.263533;78173;1714766140;263266644;world;-0.000340449;0.191842005;0.002299733;-0.002082595;-0.000990306;-0.002820527;-0.999993443
2024/05/03/12:55:40.283435;78174;1714766140;283179686;world;-0.000365961;0.192652538;0.002332547;-0.00225186;-0.001271682;-0.003135535;-0.999991775
2024/05/03/12:55:40.293393;78175;1714766140;293154734;world;-0.000281803;0.194048911;0.002178042;-0.002710488;-0.001069488;-0.002985572;-0.999991298
2024/05/03/12:55:40.303499;78176;1714766140;303226607;world;-0.000319544;0.194524214;0.002044017;-0.001959817;-0.000484274;-0.002880328;-0.999993801
2024/05/03/12:55:40.323504;78177;1714766140;323214431;world;-0.000303569;0.195392057;0.002043225;-0.001301758;-0.000417273;-0.002658583;-0.999995589
2024/05/03/12:55:40.343382;78178;1714766140;343113959;world;-0.000261054;0.19615747;0.00208898;-0.0012502;-0.000445759;-0.002818458;-0.999995232
2024/05/03/12:55:40.353515;78179;1714766140;353254991;world;-0.000265252;0.196926877;0.002188258;-0.001675451;-0.000570399;-0.00285266;-0.999994397
2024/05/03/12:55:40.373254;78180;1714766140;372896830;world;-0.000303984;0.197668493;0.002336489;-0.001795207;-0.001184574;-0.002902122;-0.999993563
2024/05/03/12:55:40.383344;78181;1714766140;383063761;world;-0.000318857;0.198472723;0.002480558;-0.002209079;-0.001387727;-0.002935373;-0.999992371
2024/05/03/12:55:40.403582;78182;1714766140;403209158;world;-0.000400204;0.199336603;0.002498721;-0.002355158;-0.001478734;-0.003186624;-0.999991059
2024/05/03/12:55:40.423700;78183;1714766140;423438803;world;-0.000460381;0.200132027;0.002456166;-0.002286216;-0.001480181;-0.003194289;-0.999991179
2024/05/03/12:55:40.433251;78184;1714766140;433000064;world;-0.000413764;0.200589567;0.002454138;-0.00202586;-0.00128414;-0.003024788;-0.999992609
2024/05/03/12:55:40.463038;78185;1714766140;462850521;world;-0.000434579;0.201457098;0.002316566;-0.001605535;-0.000770599;-0.003001632;-0.99999392
2024/05/03/12:55:40.463067;78186;1714766140;462886058;world;-0.000404701;0.202382669;0.002270867;-0.001370108;-0.000526102;-0.002826569;-0.999994993
2024/05/03/12:55:40.483554;78187;1714766140;483354626;world;-0.000461892;0.203236923;0.002289463;-0.001406017;-0.000376974;-0.002928824;-0.999994636
2024/05/03/12:55:40.493904;78188;1714766140;493657747;world;-0.000467333;0.203632638;0.002348565;-0.00155286;-0.000525302;-0.002958035;-0.999994278
2024/05/03/12:55:40.513385;78189;1714766140;512996246;world;-0.000523096;0.204778418;0.002511216;-0.002131314;-0.001208268;-0.003101622;-0.999992251
2024/05/03/12:55:40.523340;78190;1714766140;523039685;world;-0.000512401;0.205186307;0.002536896;-0.002382636;-0.001173514;-0.00307202;-0.999991775
2024/05/03/12:55:40.543752;78191;1714766140;543519960;world;-0.000456212;0.206026003;0.002527974;-0.002460686;-0.001079558;-0.003073091;-0.999991655
2024/05/03/12:55:40.563186;78192;1714766140;562986247;world;-0.000457335;0.206840456;0.002505903;-0.002344148;-0.001126085;-0.003282458;-0.999991298
2024/05/03/12:55:40.573631;78193;1714766140;573316319;world;-0.000486363;0.207637772;0.00251273;-0.002290686;-0.001468701;-0.003387649;-0.999990582
2024/05/03/12:55:40.593396;78194;1714766140;593090968;world;-0.000532096;0.208452955;0.002487778;-0.002452579;-0.001598413;-0.003504679;-0.999989629
2024/05/03/12:55:40.603544;78195;1714766140;603268538;world;-0.000600021;0.209274009;0.00247386;-0.002120163;-0.001253529;-0.003443526;-0.999991059
2024/05/03/12:55:40.613517;78196;1714766140;613229441;world;-0.000583558;0.209677264;0.00245108;-0.001915327;-0.001257333;-0.003407366;-0.999991655
2024/05/03/12:55:40.633237;78197;1714766140;632939619;world;-0.000567948;0.210493803;0.002438494;-0.001992302;-0.001065663;-0.003327231;-0.999991894
2024/05/03/12:55:40.663572;78198;1714766140;663283182;world;-0.000592233;0.211333409;0.00251754;-0.002071798;-0.001296099;-0.00327632;-0.999991655
2024/05/03/12:55:40.663596;78199;1714766140;663317787;world;-0.000555817;0.21219793;0.002632469;-0.002482617;-0.001582503;-0.003244741;-0.999990463
2024/05/03/12:55:40.693462;78200;1714766140;693266520;world;-0.000563527;0.213053092;0.002578838;-0.002290757;-0.001142156;-0.003326874;-0.999991179
2024/05/03/12:55:40.693466;78201;1714766140;693304271;world;-0.000600964;0.214005411;0.002501512;-0.001943142;-0.00061117;-0.003352296;-0.999992371
2024/05/03/12:55:40.713441;78202;1714766140;713115332;world;-0.000522595;0.215019643;0.002448665;-0.00206074;-0.000418611;-0.003017285;-0.999993324
2024/05/03/12:55:40.733488;78203;1714766140;733138679;world;-0.000534652;0.215891749;0.002413545;-0.001599418;-3.95E-05;-0.003064288;-0.99999404
2024/05/03/12:55:40.743450;78204;1714766140;743179918;world;-0.000642069;0.216739863;0.002463705;-0.001840049;0.000438898;-0.003278298;-0.999992847
2024/05/03/12:55:40.763166;78205;1714766140;762904809;world;-0.000602331;0.217366338;0.002606833;-0.00222287;-0.000132145;-0.003350061;-0.999991894
2024/05/03/12:55:40.773325;78206;1714766140;772918973;world;-0.000629693;0.217714295;0.002654494;-0.002209173;-0.00052803;-0.003418493;-0.999991655
2024/05/03/12:55:40.793465;78207;1714766140;793003716;world;-0.000536133;0.21859172;0.002802643;-0.002665285;-0.00074038;-0.00325787;-0.99999094
2024/05/03/12:55:40.803174;78208;1714766140;802902521;world;-0.000513187;0.219467714;0.002787116;-0.002577623;-0.000754734;-0.003132917;-0.999991536
2024/05/03/12:55:40.823895;78209;1714766140;823428484;world;-0.000536159;0.220263377;0.002763974;-0.002451814;-0.000840973;-0.003307198;-0.999991179
2024/05/03/12:55:40.833411;78210;1714766140;833158018;world;-0.000546549;0.221115813;0.002797321;-0.002581371;-0.00088368;-0.003326623;-0.999990821
2024/05/03/12:55:40.853210;78211;1714766140;852946429;world;-0.000604285;0.2219446;0.002796084;-0.002654324;-0.000979738;-0.003449574;-0.999990106
2024/05/03/12:55:40.873525;78212;1714766140;873201751;world;-0.000646885;0.222329021;0.002792045;-0.002595507;-0.001027741;-0.003428104;-0.999990225
2024/05/03/12:55:40.923252;78213;1714766140;922929001;world;-0.000646567;0.223115891;0.002776469;-0.002440976;-0.001036884;-0.003469436;-0.999990463
2024/05/03/12:55:40.923279;78215;1714766140;922981170;world;-0.000673512;0.224826425;0.002701768;-0.002489636;-0.000568477;-0.003696712;-0.999989986
2024/05/03/12:55:40.933176;78216;1714766140;932869727;world;-0.00071059;0.225689352;0.00273269;-0.002648925;-0.000709157;-0.003674756;-0.99998951
2024/05/03/12:55:40.943436;78217;1714766140;943185148;world;-0.000718027;0.226603657;0.002664241;-0.002516446;-0.000579244;-0.003638872;-0.999990106
2024/05/03/12:55:40.973194;78218;1714766140;972915199;world;-0.000640336;0.22758539;0.002656174;-0.002789872;-0.000399288;-0.003442416;-0.999990106
2024/05/03/12:55:40.983237;78219;1714766140;983059257;world;-0.000661328;0.228494495;0.002590454;-0.002386427;-4.03E-05;-0.003515474;-0.999991059
2024/05/03/12:55:41.023550;78220;1714766141;23256816;world;-0.000778448;0.229244024;0.002547998;-0.001865934;-8.13E-05;-0.003678546;-0.999991536
2024/05/03/12:55:41.023581;78222;1714766141;23301531;world;-0.000711562;0.230420232;0.002791466;-0.002467501;-0.00055254;-0.003584248;-0.999990463
