time;.header.seq;.header.stamp.secs;.header.stamp.nsecs;.header.frame_id;.pose.position.x;.pose.position.y;.pose.position.z;.pose.orientation.x;.pose.orientation.y;.pose.orientation.z;.pose.orientation.w
2024/05/03/12:58:22.973311;88541;1714766302;972961100;world;2.99E-05;5.11E-05;-5.67E-05;-8.12E-05;4.32E-05;2.30E-05;-1
2024/05/03/12:58:22.983838;88542;1714766302;982900749;world;1.10E-05;3.44E-05;-5.62E-05;-4.66E-06;2.81E-05;2.35E-05;-1
2024/05/03/12:58:23.003495;88543;1714766303;3050174;world;1.57E-06;3.31E-05;-4.86E-05;7.23E-06;1.54E-05;-1.70E-05;-1
2024/05/03/12:58:23.013661;88544;1714766303;13230853;world;2.03E-05;1.81E-05;-4.61E-05;-1.92E-05;-2.64E-05;4.62E-05;-1
2024/05/03/12:58:23.023665;88545;1714766303;23313259;world;1.83E-05;6.10E-05;-7.23E-05;-2.83E-05;0.000134184;5.98E-05;-1
2024/05/03/12:58:23.043505;88546;1714766303;43190401;world;1.41E-05;5.47E-05;-5.98E-05;1.77E-05;7.96E-05;3.38E-05;-1
2024/05/03/12:58:23.073378;88547;1714766303;73063395;world;-2.44E-06;4.49E-05;-6.60E-05;8.45E-05;4.84E-05;2.76E-05;-1
2024/05/03/12:58:23.073407;88548;1714766303;73100725;world;-5.22E-06;6.33E-05;-7.83E-05;4.13E-05;0.000153004;7.86E-05;-1
2024/05/03/12:58:23.103347;88549;1714766303;103028062;world;1.22E-05;2.04E-05;-5.86E-05;-0.000127707;0.000110193;-2.44E-05;-1
2024/05/03/12:58:23.103391;88550;1714766303;103194034;world;-1.61E-05;4.46E-05;-4.09E-05;-2.61E-05;8.34E-06;-2.04E-05;-1
2024/05/03/12:58:23.123959;88551;1714766303;123539386;world;4.84E-06;4.95E-05;-5.19E-05;1.43E-05;0.000116851;8.88E-05;-1
2024/05/03/12:58:23.133534;88552;1714766303;133189471;world;1.94E-05;2.33E-05;-3.64E-05;-8.35E-05;-1.75E-05;3.23E-05;-1
2024/05/03/12:58:23.153764;88553;1714766303;153351506;world;2.73E-06;2.23E-05;-2.32E-05;-1.89E-05;-6.42E-05;1.66E-05;-1
2024/05/03/12:58:23.173493;88554;1714766303;173074817;world;1.13E-05;3.11E-05;-4.90E-05;2.23E-06;-5.03E-06;1.51E-07;-1
2024/05/03/12:58:23.183867;88555;1714766303;183440015;world;1.62E-05;5.00E-05;-6.74E-05;4.70E-05;4.08E-05;3.91E-07;-1
2024/05/03/12:58:23.213608;88556;1714766303;213226858;world;7.85E-06;4.06E-05;-8.57E-05;-0.000100203;0.000199925;8.19E-05;-1
2024/05/03/12:58:23.213643;88557;1714766303;213273024;world;-1.15E-06;2.40E-05;-2.29E-05;-3.73E-05;-0.000105864;-5.42E-05;-1
2024/05/03/12:58:23.233412;88558;1714766303;233035361;world;1.55E-06;7.26E-05;-6.95E-05;8.43E-05;6.75E-05;2.14E-05;-1
2024/05/03/12:58:23.253445;88559;1714766303;253016197;world;9.96E-06;5.96E-05;-5.21E-05;1.35E-05;0.000102754;5.81E-05;-1
2024/05/03/12:58:23.263292;88560;1714766303;262954883;world;1.89E-05;3.15E-05;-4.51E-05;2.56E-05;1.06E-05;2.61E-05;-1
2024/05/03/12:58:23.273239;88561;1714766303;272993787;world;7.74E-06;5.60E-05;-7.98E-05;0.000119114;5.39E-05;8.07E-05;-1
2024/05/03/12:58:23.293705;88562;1714766303;293289044;world;3.55E-05;7.82E-05;-0.000113585;9.29E-05;0.000169633;0.000133204;-1
2024/05/03/12:58:23.313636;88563;1714766303;313256060;world;7.40E-06;3.42E-05;-6.27E-05;9.82E-06;1.36E-05;1.04E-05;-1
2024/05/03/12:58:23.323839;88564;1714766303;323269361;world;1.24E-05;3.90E-05;-3.29E-05;2.52E-06;-0.000106971;1.34E-06;-1
2024/05/03/12:58:23.343563;88565;1714766303;343128859;world;-5.26E-06;2.43E-05;-6.23E-05;5.94E-05;-3.53E-05;3.00E-05;-1
2024/05/03/12:58:23.353539;88566;1714766303;353201195;world;1.56E-05;6.64E-05;-9.18E-05;4.09E-05;0.000131514;0.0001413;-1
2024/05/03/12:58:23.383848;88567;1714766303;383426909;world;3.11E-05;7.60E-05;-0.000111455;8.60E-05;0.00017279;0.000147985;-1
2024/05/03/12:58:23.383870;88568;1714766303;383461805;world;3.94E-05;9.11E-05;-0.000113304;7.30E-05;0.000188872;0.000136063;-1
2024/05/03/12:58:23.413415;88569;1714766303;413015013;world;-1.36E-07;5.00E-05;-8.74E-05;0.000162538;7.40E-05;0.000105306;-1
2024/05/03/12:58:23.423338;88570;1714766303;423077798;world;-7.56E-06;-1.17E-06;-3.21E-05;-8.18E-05;-1.82E-05;1.21E-05;-1
2024/05/03/12:58:23.433432;88571;1714766303;433112084;world;-8.62E-06;3.33E-05;-3.22E-05;-1.19E-05;1.12E-05;-4.56E-05;-1
2024/05/03/12:58:23.454125;88572;1714766303;453296618;world;-3.88E-05;4.11E-05;-3.86E-05;6.56E-06;5.83E-05;-2.68E-05;-1
2024/05/03/12:58:23.463696;88573;1714766303;463039205;world;-1.79E-05;1.64E-05;-2.25E-05;-5.08E-05;-6.81E-06;-1.76E-06;-1
2024/05/03/12:58:23.483510;88574;1714766303;483200680;world;-6.54E-06;1.10E-05;1.72E-06;-4.41E-06;-9.91E-05;-6.97E-05;-1
2024/05/03/12:58:23.493475;88575;1714766303;493100413;world;4.16E-06;1.96E-05;-3.04E-05;-2.66E-05;-1.16E-05;6.40E-05;-1
2024/05/03/12:58:23.524041;88576;1714766303;523495128;world;3.19E-06;7.51E-05;-8.01E-05;3.00E-05;0.000111301;4.97E-05;-1
2024/05/03/12:58:23.524074;88577;1714766303;523543158;world;1.08E-05;6.96E-05;-7.38E-05;2.93E-05;0.000248693;0.000100771;-1
2024/05/03/12:58:23.543788;88578;1714766303;543369644;world;4.15E-06;4.17E-05;-6.72E-05;2.31E-05;2.30E-06;4.74E-05;-1
2024/05/03/12:58:23.563406;88579;1714766303;563087897;world;1.48E-06;3.36E-05;-6.73E-05;0.000107835;-4.22E-05;-5.81E-06;-1
2024/05/03/12:58:23.583474;88580;1714766303;583146455;world;2.66E-05;7.20E-05;-0.000110411;2.26E-05;0.000268754;7.43E-05;-1
2024/05/03/12:58:23.593338;88581;1714766303;593031394;world;1.42E-06;3.49E-05;-6.27E-05;0.000102853;6.69E-05;5.52E-05;-1
2024/05/03/12:58:23.623189;88582;1714766303;622866879;world;1.50E-05;4.10E-05;-7.37E-05;5.78E-06;3.03E-05;8.24E-05;-1
2024/05/03/12:58:23.623219;88583;1714766303;622904119;world;2.33E-05;4.83E-05;-7.48E-05;-1.69E-05;0.000157088;0.000132232;-1
2024/05/03/12:58:23.633190;88584;1714766303;632897077;world;2.80E-05;9.16E-05;-9.66E-05;7.51E-05;0.000300033;0.000113422;-1
2024/05/03/12:58:23.653346;88585;1714766303;652989784;world;6.53E-06;3.16E-05;-3.27E-05;-6.95E-06;5.52E-05;1.21E-05;-1
2024/05/03/12:58:23.673248;88586;1714766303;672927438;world;8.25E-06;2.15E-05;-4.41E-05;-0.000205578;-1.99E-05;-4.28E-05;-1
2024/05/03/12:58:23.683387;88587;1714766303;683092054;world;2.52E-06;4.73E-06;-2.82E-05;8.40E-06;-0.000121764;-8.43E-06;-1
2024/05/03/12:58:23.703481;88588;1714766303;703184033;world;1.27E-05;2.80E-05;-6.54E-05;-7.46E-05;4.03E-05;2.06E-06;-1
2024/05/03/12:58:23.723332;88589;1714766303;723031831;world;-1.69E-05;1.34E-05;-2.75E-05;-6.08E-05;-5.02E-05;-4.20E-05;-1
2024/05/03/12:58:23.733247;88590;1714766303;732960857;world;-4.17E-05;3.90E-05;-6.00E-05;-1.96E-05;-2.71E-05;-5.33E-05;-1
2024/05/03/12:58:23.753439;88591;1714766303;753110091;world;2.70E-05;1.79E-05;-2.60E-05;-0.00013043;-1.76E-05;2.80E-05;-1
2024/05/03/12:58:23.763933;88592;1714766303;763308354;world;2.22E-05;1.84E-05;-6.27E-05;3.40E-05;-0.000127438;4.50E-05;-1
2024/05/03/12:58:23.813280;88593;1714766303;812897947;world;4.29E-06;1.07E-05;-5.40E-05;0.000109523;4.93E-05;3.90E-05;-1
2024/05/03/12:58:23.813323;88595;1714766303;812947611;world;-2.25E-05;4.21E-05;-7.76E-05;-5.85E-05;0.000132566;2.73E-05;-1
2024/05/03/12:58:23.833489;88596;1714766303;833202424;world;-5.42E-06;7.12E-05;-8.64E-05;6.00E-06;0.000159378;0.00013772;-1
2024/05/03/12:58:23.853902;88597;1714766303;853445063;world;1.35E-05;4.94E-05;-6.70E-05;3.95E-05;0.000171131;6.95E-05;-1
2024/05/03/12:58:23.873482;88598;1714766303;873138117;world;2.80E-05;7.09E-05;-0.000100854;4.47E-05;0.000190749;8.31E-05;-1
2024/05/03/12:58:23.873513;88599;1714766303;873171279;world;7.62E-06;1.60E-05;-9.19E-05;0.000120539;-4.63E-05;4.76E-05;-1
2024/05/03/12:58:23.893651;88600;1714766303;892908238;world;5.54E-06;3.11E-05;-8.18E-05;7.36E-05;-2.23E-05;3.49E-06;-1
2024/05/03/12:58:23.903559;88601;1714766303;903224833;world;-6.58E-06;9.87E-06;-1.57E-05;-4.34E-05;-3.72E-05;-7.95E-06;-1
2024/05/03/12:58:23.923549;88602;1714766303;923170763;world;-1.34E-05;6.16E-05;-8.00E-05;-2.38E-05;9.59E-05;6.38E-05;-1
2024/05/03/12:58:23.933174;88603;1714766303;932895387;world;-1.47E-05;1.71E-05;-6.10E-05;7.98E-06;1.58E-05;5.45E-05;-1
2024/05/03/12:58:23.954483;88604;1714766303;953076269;world;-8.27E-06;3.78E-05;-5.68E-05;-3.79E-05;-1.49E-05;3.19E-05;-1
2024/05/03/12:58:23.973317;88605;1714766303;973012532;world;-1.02E-05;2.90E-05;-6.48E-05;-2.02E-05;-4.62E-05;-1.32E-05;-1
2024/05/03/12:58:23.983833;88606;1714766303;983651673;world;-1.26E-05;5.16E-05;-7.66E-05;-2.06E-05;6.40E-05;2.38E-05;-1
2024/05/03/12:58:23.993156;88607;1714766303;992886507;world;-3.28E-05;1.94E-05;-3.18E-05;1.50E-05;7.54E-05;-3.39E-05;-1
2024/05/03/12:58:24.023801;88608;1714766304;23201212;world;1.52E-06;3.69E-05;-5.56E-05;-2.84E-05;-5.20E-05;-7.72E-06;-1
2024/05/03/12:58:24.033324;88609;1714766304;32990056;world;2.67E-06;2.81E-05;-5.47E-05;2.05E-05;-4.96E-07;4.47E-05;-1
2024/05/03/12:58:24.044567;88610;1714766304;44194993;world;5.90E-06;-9.03E-07;-7.02E-05;-3.04E-05;3.08E-05;4.24E-05;-1
2024/05/03/12:58:24.053545;88611;1714766304;53237263;world;9.75E-06;3.32E-05;-8.04E-05;-2.79E-05;7.72E-05;2.38E-05;-1
2024/05/03/12:58:24.073623;88612;1714766304;73340480;world;1.65E-05;7.52E-05;-0.000110543;4.65E-05;0.000167377;8.81E-05;-1
2024/05/03/12:58:24.093922;88613;1714766304;93000633;world;1.45E-05;4.76E-05;-8.15E-05;6.02E-06;0.000164109;0.000111255;-1
2024/05/03/12:58:24.103626;88614;1714766304;103342066;world;-8.66E-06;6.48E-05;-7.47E-05;4.74E-05;0.00014022;1.37E-05;-1
2024/05/03/12:58:24.133244;88615;1714766304;132904357;world;5.37E-06;4.53E-05;-7.62E-05;3.99E-05;0.000117571;7.84E-05;-1
2024/05/03/12:58:24.133271;88616;1714766304;132940986;world;3.23E-05;7.10E-05;-8.53E-05;6.30E-05;0.00023173;0.00011103;-1
2024/05/03/12:58:24.153427;88617;1714766304;153119063;world;4.65E-06;3.34E-05;-4.14E-05;-1.63E-05;-0.000122849;3.01E-06;-1
2024/05/03/12:58:24.173334;88618;1714766304;172964424;world;-8.64E-06;5.00E-05;-5.32E-05;4.83E-05;3.28E-05;3.19E-05;-1
2024/05/03/12:58:24.183261;88619;1714766304;182928898;world;2.18E-05;3.85E-05;-0.000100767;-8.12E-05;0.000262505;0.000142466;-1
2024/05/03/12:58:24.204035;88620;1714766304;203252859;world;7.36E-07;5.53E-06;-6.96E-05;2.10E-05;-2.31E-05;2.11E-05;-1
2024/05/03/12:58:24.223366;88621;1714766304;223058516;world;1.18E-05;4.86E-05;-6.04E-05;4.91E-05;0.00010663;0.000120796;-1
2024/05/03/12:58:24.233348;88622;1714766304;233056133;world;-1.69E-06;1.34E-05;-3.69E-05;2.95E-05;4.70E-05;2.23E-05;-1
2024/05/03/12:58:24.243459;88623;1714766304;243146844;world;-1.03E-05;6.70E-06;-3.64E-05;-8.83E-05;-7.74E-05;-4.37E-06;-1
2024/05/03/12:58:24.263474;88624;1714766304;263139253;world;-1.87E-06;5.27E-05;-8.11E-05;-1.25E-05;0.000145128;8.07E-05;-1
2024/05/03/12:58:24.273704;88625;1714766304;273344719;world;8.07E-06;4.89E-05;-8.49E-05;6.99E-05;0.00013904;0.000112933;-1
2024/05/03/12:58:24.303299;88626;1714766304;302998382;world;8.53E-06;4.61E-05;-7.07E-05;-8.65E-06;2.88E-05;3.81E-05;-1
2024/05/03/12:58:24.303401;88627;1714766304;303041854;world;2.33E-06;2.42E-05;-6.95E-05;3.92E-05;5.16E-05;0.00010458;-1
2024/05/03/12:58:24.333466;88628;1714766304;333059490;world;1.06E-05;3.94E-05;-5.30E-05;5.25E-06;8.18E-05;1.92E-05;-1
2024/05/03/12:58:24.343543;88629;1714766304;342957359;world;9.97E-06;5.79E-05;-5.77E-05;5.13E-05;0.000121033;7.10E-05;-1
2024/05/03/12:58:24.353480;88630;1714766304;352951710;world;9.68E-06;2.22E-05;-4.77E-05;1.87E-05;6.15E-07;7.33E-05;-1
2024/05/03/12:58:24.373380;88631;1714766304;372971476;world;-2.49E-05;1.63E-05;-4.55E-05;6.66E-05;-7.99E-05;-2.16E-05;-1
2024/05/03/12:58:24.383408;88632;1714766304;383099410;world;-4.38E-06;2.19E-05;-3.96E-05;-7.68E-06;-2.39E-05;-2.71E-06;-1
2024/05/03/12:58:24.403424;88633;1714766304;403050922;world;3.19E-06;1.05E-05;-3.45E-05;2.70E-05;-7.98E-05;-5.56E-05;-1
2024/05/03/12:58:24.424493;88634;1714766304;423172191;world;-9.67E-06;4.36E-05;-3.90E-05;-4.74E-05;-2.74E-05;-1.82E-05;-1
2024/05/03/12:58:24.443642;88635;1714766304;443036348;world;5.09E-06;1.91E-05;-6.63E-05;-2.59E-05;3.81E-05;2.97E-05;-1
2024/05/03/12:58:24.453781;88636;1714766304;453155644;world;1.49E-05;3.75E-05;-8.09E-05;-1.93E-05;0.000177428;0.000101952;-1
2024/05/03/12:58:24.463729;88637;1714766304;463481999;world;-7.51E-07;3.37E-05;-4.80E-05;-5.17E-06;1.89E-05;7.78E-06;-1
2024/05/03/12:58:24.483903;88638;1714766304;483208296;world;-6.60E-06;5.51E-05;-7.35E-05;3.91E-05;9.74E-05;4.26E-05;-1
2024/05/03/12:58:24.503459;88639;1714766304;502914536;world;-1.61E-05;6.22E-05;-9.50E-05;1.29E-06;0.000154439;8.46E-05;-1
2024/05/03/12:58:24.513414;88640;1714766304;513103793;world;1.54E-05;5.66E-05;-9.83E-05;4.53E-05;0.000136485;0.000160136;-1
2024/05/03/12:58:24.533398;88641;1714766304;533088446;world;7.64E-06;5.08E-05;-9.99E-05;0.000122483;0.000174077;8.15E-05;-1
2024/05/03/12:58:24.543794;88642;1714766304;543484631;world;9.50E-07;3.93E-05;-5.84E-05;-5.03E-05;4.50E-05;7.57E-05;-1
2024/05/03/12:58:24.563435;88643;1714766304;563068892;world;3.19E-05;1.46E-05;-4.04E-05;-0.000114223;0.000120241;2.47E-05;-1
2024/05/03/12:58:24.573763;88644;1714766304;572990717;world;3.59E-06;6.33E-06;-3.39E-05;8.28E-06;-6.50E-05;2.85E-05;-1
2024/05/03/12:58:24.593410;88645;1714766304;593095737;world;7.77E-06;4.06E-05;-4.73E-05;-5.79E-05;7.37E-05;2.83E-05;-1
2024/05/03/12:58:24.613665;88646;1714766304;613376527;world;-6.46E-06;4.18E-05;-5.64E-05;-4.37E-06;0.000100498;7.12E-05;-1
2024/05/03/12:58:24.623409;88647;1714766304;622926131;world;-9.73E-06;1.01E-05;-2.68E-05;-9.62E-05;-6.01E-05;-5.16E-05;-1
2024/05/03/12:58:24.643648;88648;1714766304;643352016;world;-1.51E-05;1.28E-05;-4.49E-05;-2.92E-07;-7.63E-05;-3.26E-07;-1
2024/05/03/12:58:24.653651;88649;1714766304;653298535;world;1.32E-07;1.30E-05;-5.33E-05;-9.96E-05;0.000116193;4.54E-05;-1
2024/05/03/12:58:24.663558;88650;1714766304;663282421;world;1.07E-05;4.25E-06;-1.49E-05;5.61E-05;-4.28E-05;1.14E-05;-1
2024/05/03/12:58:24.683238;88651;1714766304;682923548;world;1.61E-05;4.08E-05;-8.08E-05;-1.60E-05;0.000119422;0.000130564;-1
2024/05/03/12:58:24.703859;88652;1714766304;703625956;world;1.39E-05;1.04E-05;-4.11E-05;6.56E-05;0.000128783;0.000109117;-1
2024/05/03/12:58:24.713480;88653;1714766304;713171653;world;1.41E-05;3.61E-05;-8.48E-05;0.00011165;0.00014129;5.12E-05;-1
2024/05/03/12:58:24.743510;88654;1714766304;743159744;world;1.74E-05;3.58E-05;-6.93E-05;3.69E-05;5.31E-05;4.81E-05;-1
2024/05/03/12:58:24.743520;88655;1714766304;743191864;world;1.37E-05;6.37E-05;-9.49E-05;8.33E-05;0.000197972;0.000103164;-1
2024/05/03/12:58:24.763917;88656;1714766304;763600645;world;1.51E-05;4.66E-05;-6.85E-05;0.000132672;0.000198327;9.86E-05;-1
2024/05/03/12:58:24.773462;88657;1714766304;773223366;world;2.31E-05;5.88E-05;-0.000100316;0.000132299;0.000172927;0.000179226;-1
2024/05/03/12:58:24.793291;88658;1714766304;793021509;world;-1.67E-06;7.67E-06;-6.32E-05;7.20E-05;-6.16E-06;5.98E-05;-1
2024/05/03/12:58:24.813480;88659;1714766304;813159670;world;3.57E-06;-4.67E-06;-2.93E-05;-1.63E-05;-0.000123094;-2.04E-05;-1
2024/05/03/12:58:24.823541;88660;1714766304;823196721;world;-1.27E-05;4.21E-05;-6.79E-05;-6.48E-06;3.69E-05;4.31E-05;-1
2024/05/03/12:58:24.843451;88661;1714766304;843108837;world;-1.98E-06;4.80E-05;-7.51E-05;-8.53E-05;0.000191313;8.07E-05;-1
2024/05/03/12:58:24.853340;88662;1714766304;852962184;world;-5.42E-06;4.95E-05;-5.08E-05;-8.90E-06;5.31E-05;-6.53E-06;-1
2024/05/03/12:58:24.873717;88663;1714766304;873344284;world;1.85E-05;4.19E-05;-7.64E-05;-1.66E-05;9.26E-05;0.000105054;-1
2024/05/03/12:58:24.883235;88664;1714766304;882941379;world;6.01E-06;7.80E-05;-0.000127833;8.15E-05;0.000226501;8.55E-05;-1
2024/05/03/12:58:24.903639;88665;1714766304;903047611;world;2.63E-05;5.00E-05;-9.38E-05;7.01E-05;0.000181099;0.000176832;-1
2024/05/03/12:58:24.923290;88666;1714766304;922947250;world;2.76E-05;5.31E-05;-0.000102012;0.000111679;0.000182527;0.000124149;-1
2024/05/03/12:58:24.943465;88667;1714766304;943146260;world;1.18E-05;7.69E-07;-4.45E-05;-5.88E-05;-0.000126026;6.12E-06;-1
2024/05/03/12:58:24.953602;88668;1714766304;953284883;world;1.26E-06;3.59E-05;-5.94E-05;-8.71E-05;9.53E-05;3.16E-05;-1
2024/05/03/12:58:24.963388;88669;1714766304;962987409;world;3.13E-06;2.57E-05;-5.63E-05;-8.18E-06;0.000160395;7.57E-05;-1
2024/05/03/12:58:24.983432;88670;1714766304;983135504;world;-5.98E-07;-1.15E-05;-3.54E-05;1.96E-05;-7.95E-05;-2.92E-05;-1
2024/05/03/12:58:24.993541;88671;1714766304;993207085;world;-2.51E-05;1.51E-05;-5.84E-05;1.27E-05;5.20E-05;1.54E-05;-1
2024/05/03/12:58:25.023871;88672;1714766305;23435681;world;1.12E-05;6.64E-05;-9.18E-05;-6.07E-05;0.000178774;7.91E-05;-1
2024/05/03/12:58:25.023878;88673;1714766305;23483231;world;3.20E-05;8.05E-05;-9.88E-05;-3.88E-05;0.000264862;0.000121496;-1
2024/05/03/12:58:25.053669;88674;1714766305;53319132;world;2.85E-05;6.40E-05;-0.000129832;4.99E-05;0.000203466;0.000194472;-1
2024/05/03/12:58:25.064224;88675;1714766305;63846498;world;-1.50E-05;2.41E-05;-4.70E-05;3.96E-05;1.39E-05;1.33E-05;-1
2024/05/03/12:58:25.073828;88676;1714766305;73424867;world;8.28E-06;1.97E-06;-1.51E-05;-5.43E-05;-8.23E-05;-3.75E-05;-1
2024/05/03/12:58:25.093626;88677;1714766305;93255336;world;-6.31E-06;1.77E-05;-1.86E-05;-3.72E-05;7.10E-05;4.50E-05;-1
2024/05/03/12:58:25.103691;88678;1714766305;103329756;world;-1.01E-05;5.01E-06;-2.26E-05;1.50E-05;-8.09E-05;-5.11E-05;-1
2024/05/03/12:58:25.123789;88679;1714766305;123341264;world;-3.91E-06;2.85E-05;-2.43E-05;-4.21E-05;1.56E-05;2.85E-05;-1
2024/05/03/12:58:25.143694;88680;1714766305;143338681;world;-6.13E-06;3.79E-05;-5.32E-05;7.44E-05;0.000114778;-3.42E-06;-1
2024/05/03/12:58:25.153110;88681;1714766305;152875533;world;8.46E-06;6.00E-05;-8.96E-05;6.19E-05;0.000148964;0.000112932;-1
2024/05/03/12:58:25.173320;88682;1714766305;172975783;world;-7.68E-06;2.05E-05;-3.80E-05;7.43E-05;2.88E-05;1.09E-05;-1
2024/05/03/12:58:25.183388;88683;1714766305;183058901;world;-7.67E-06;5.08E-05;-5.63E-05;1.14E-05;0.000211703;9.05E-05;-1
2024/05/03/12:58:25.203546;88684;1714766305;203307679;world;-3.62E-06;6.09E-06;-4.50E-05;-3.63E-06;9.36E-06;3.45E-05;-1
2024/05/03/12:58:25.223486;88685;1714766305;223178800;world;7.48E-06;2.08E-05;-5.35E-05;-2.55E-05;3.87E-06;3.69E-05;-1
2024/05/03/12:58:25.233437;88686;1714766305;233127052;world;9.59E-06;3.72E-05;-7.90E-05;7.23E-05;0.000104445;9.31E-05;-1
2024/05/03/12:58:25.253725;88687;1714766305;253413012;world;2.20E-05;3.43E-05;-5.59E-05;3.65E-06;6.08E-05;2.78E-05;-1
2024/05/03/12:58:25.263303;88688;1714766305;262975732;world;1.44E-05;-1.45E-05;-5.98E-05;-7.66E-05;-6.63E-05;2.06E-06;-1
2024/05/03/12:58:25.273344;88689;1714766305;273036906;world;-5.72E-06;1.01E-05;-4.85E-05;1.29E-05;-1.27E-05;3.69E-05;-1
2024/05/03/12:58:25.293625;88690;1714766305;293266469;world;2.24E-05;7.06E-05;-0.000102754;7.58E-05;0.000206934;0.000151086;-1
2024/05/03/12:58:25.313476;88691;1714766305;313116911;world;6.36E-06;3.25E-05;-9.04E-05;6.15E-05;7.83E-05;5.17E-05;-1
2024/05/03/12:58:25.323670;88692;1714766305;323376762;world;8.43E-06;3.66E-05;-7.66E-05;-1.88E-05;0.000115632;0.000109821;-1
2024/05/03/12:58:25.344062;88693;1714766305;343508400;world;1.70E-05;6.06E-05;-7.83E-05;2.42E-05;0.000194134;9.39E-05;-1
2024/05/03/12:58:25.353872;88694;1714766305;353574744;world;-1.84E-05;2.78E-05;-5.65E-05;1.89E-05;-4.70E-05;3.21E-05;-1
2024/05/03/12:58:25.373750;88695;1714766305;373412441;world;-3.23E-05;4.35E-06;-2.19E-05;-6.99E-06;-9.80E-05;-3.37E-05;-1
2024/05/03/12:58:25.383373;88696;1714766305;383118440;world;1.25E-05;2.08E-05;-3.25E-05;-2.42E-06;3.52E-05;2.14E-05;-1
2024/05/03/12:58:25.403477;88697;1714766305;403099997;world;-2.23E-06;4.31E-05;-8.88E-05;9.94E-05;0.000110435;0.000153942;-1
2024/05/03/12:58:25.424611;88698;1714766305;424270979;world;3.24E-05;6.81E-05;-8.04E-05;9.98E-05;0.000196474;0.000123671;-1
2024/05/03/12:58:25.433334;88699;1714766305;433035370;world;1.44E-05;5.26E-05;-0.000110367;0.000105725;0.00012418;0.000169203;-1
2024/05/03/12:58:25.453988;88700;1714766305;453408839;world;6.28E-06;2.81E-05;-5.55E-05;3.50E-06;3.76E-05;5.78E-05;-1
2024/05/03/12:58:25.463317;88701;1714766305;462988129;world;6.85E-06;2.05E-05;-4.54E-05;-4.71E-05;-9.82E-05;1.61E-05;-1
2024/05/03/12:58:25.483479;88702;1714766305;483127919;world;2.62E-05;6.05E-05;-7.86E-05;1.85E-05;0.00019865;0.000125324;-1
2024/05/03/12:58:25.493743;88703;1714766305;493376907;world;6.52E-06;7.00E-05;-0.000108749;5.51E-05;0.000217392;0.00013177;-1
2024/05/03/12:58:25.513659;88704;1714766305;513332537;world;2.23E-05;6.45E-05;-0.000101012;4.60E-07;0.000211234;0.000118884;-1
2024/05/03/12:58:25.533655;88705;1714766305;533300998;world;-8.04E-06;7.63E-06;-4.13E-05;5.46E-05;-1.95E-05;4.24E-05;-1
2024/05/03/12:58:25.553533;88706;1714766305;553181475;world;-6.91E-06;2.56E-05;-4.95E-05;5.21E-06;4.11E-05;5.67E-05;-1
2024/05/03/12:58:25.563430;88707;1714766305;563070347;world;1.94E-05;4.18E-05;-7.29E-05;-0.000101514;0.000241848;0.000112898;-1
2024/05/03/12:58:25.583591;88708;1714766305;583244096;world;1.30E-08;3.75E-06;-7.23E-05;-1.32E-05;0.000203825;0.000115543;-1
2024/05/03/12:58:25.593341;88709;1714766305;593064089;world;3.43E-06;2.74E-06;-3.72E-05;1.86E-05;-5.68E-05;4.12E-05;-1
2024/05/03/12:58:25.603714;88710;1714766305;603380194;world;5.96E-06;-3.00E-06;-1.56E-05;-1.46E-05;-6.33E-05;-2.42E-05;-1
2024/05/03/12:58:25.633375;88711;1714766305;633003239;world;9.38E-06;6.00E-05;-6.88E-05;8.29E-06;0.000164297;9.05E-05;-1
2024/05/03/12:58:25.633396;88712;1714766305;633042593;world;1.02E-05;5.13E-05;-8.37E-05;6.38E-06;0.00020911;0.000138435;-1
2024/05/03/12:58:25.653505;88713;1714766305;653132373;world;1.36E-05;1.15E-05;-5.13E-05;5.55E-05;4.29E-05;7.95E-05;-1
2024/05/03/12:58:25.663500;88714;1714766305;663191565;world;8.89E-06;9.97E-06;-5.88E-05;2.66E-06;-5.21E-05;5.45E-05;-1
2024/05/03/12:58:25.683849;88715;1714766305;683340567;world;-1.46E-05;6.92E-06;-3.22E-05;-3.89E-05;-6.61E-05;-1.70E-05;-1
2024/05/03/12:58:25.703456;88716;1714766305;703114395;world;-1.07E-06;1.38E-05;-1.09E-05;-9.76E-05;-1.42E-05;-5.37E-05;-1
2024/05/03/12:58:25.713301;88717;1714766305;712983946;world;1.04E-05;2.19E-05;-6.05E-05;1.16E-05;0.000113644;0.000115785;-1
2024/05/03/12:58:25.733472;88718;1714766305;733187514;world;2.21E-05;3.28E-05;-5.20E-05;-1.50E-05;0.000188248;0.00012651;-1
2024/05/03/12:58:25.753705;88719;1714766305;753355031;world;4.25E-06;6.02E-06;-2.31E-05;-0.000108656;-7.72E-05;1.80E-05;-1
2024/05/03/12:58:25.763585;88720;1714766305;763330356;world;1.63E-06;1.08E-05;-3.25E-05;1.17E-05;1.71E-05;2.49E-05;-1
2024/05/03/12:58:25.773345;88721;1714766305;773034808;world;-5.19E-06;-5.95E-06;-3.84E-05;7.17E-06;-7.36E-05;4.74E-05;-1
2024/05/03/12:58:25.793241;88722;1714766305;792897055;world;7.57E-06;4.40E-05;-7.66E-05;6.82E-05;0.000110886;3.52E-05;-1
2024/05/03/12:58:25.813319;88723;1714766305;812978189;world;1.04E-05;5.75E-05;-9.51E-05;-3.45E-06;0.000203759;0.00015393;-1
2024/05/03/12:58:25.823277;88724;1714766305;822956169;world;-7.17E-07;5.99E-05;-0.000103246;5.07E-05;0.000147522;0.000163475;-1
2024/05/03/12:58:25.843387;88725;1714766305;843057893;world;5.50E-06;-1.54E-05;-4.55E-06;6.36E-05;-9.85E-05;4.91E-06;-1
2024/05/03/12:58:25.873462;88726;1714766305;873072515;world;6.35E-05;5.78E-05;-4.49E-05;-1.67E-05;6.05E-05;-5.04E-05;-1
2024/05/03/12:58:25.873492;88727;1714766305;873114043;world;0.000341427;8.99E-05;-0.000102382;7.52E-05;7.32E-05;-0.000212751;-1
2024/05/03/12:58:25.893632;88728;1714766305;893289353;world;0.001089171;8.77E-05;-9.02E-05;0.000155975;-0.000176658;-0.000547762;-0.999999881
2024/05/03/12:58:25.904070;88729;1714766305;903428525;world;0.00160531;0.000158122;-0.000122929;0.000174872;-0.000144423;-0.000816219;-0.999999642
2024/05/03/12:58:25.923335;88730;1714766305;922871931;world;0.002959467;0.000219453;-4.65E-05;-0.000106578;5.99E-06;-0.00184807;-0.999998331
2024/05/03/12:58:25.943467;88731;1714766305;943175914;world;0.004474388;0.000193116;3.39E-05;-0.000223066;4.83E-05;-0.002896642;-0.999995828
2024/05/03/12:58:25.953822;88732;1714766305;952932278;world;0.005999675;0.000110763;9.84E-05;-0.000116191;-6.90E-05;-0.003820729;-0.999992728
2024/05/03/12:58:25.963374;88733;1714766305;963014643;world;0.006825602;0.00021146;0.00011242;-0.000112803;-0.000303556;-0.004608907;-0.99998939
2024/05/03/12:58:25.983469;88734;1714766305;983161106;world;0.008429883;0.000243185;0.000172892;-0.000436301;-0.000178443;-0.00610754;-0.999981284
2024/05/03/12:58:25.993598;88735;1714766305;993319440;world;0.010252418;0.000272259;0.000142508;-0.000310031;-0.000189728;-0.007131068;-0.999974489
2024/05/03/12:58:26.013629;88736;1714766306;13342083;world;0.012106095;0.000385442;4.69E-05;-0.000355665;-9.77E-05;-0.008307412;-0.999965429
2024/05/03/12:58:26.033441;88737;1714766306;33135557;world;0.013706078;0.000341259;0.000202737;-0.000488386;-0.000628935;-0.010017724;-0.999949574
2024/05/03/12:58:26.043611;88738;1714766306;43230307;world;0.015429948;0.000291666;0.000265394;-0.000491559;-0.000343794;-0.011144324;-0.999937773
2024/05/03/12:58:26.073353;88739;1714766306;73002331;world;0.017188925;0.000404764;0.000233148;-0.000597975;-9.83E-05;-0.012461839;-0.999922156
2024/05/03/12:58:26.073385;88740;1714766306;73049429;world;0.018055441;0.000451847;0.000215116;-0.000792057;0.000142172;-0.013103536;-0.999913812
2024/05/03/12:58:26.093663;88741;1714766306;93328315;world;0.019580968;0.000545882;0.000312494;-0.000481495;0.000108349;-0.014481653;-0.999895096
2024/05/03/12:58:26.103822;88742;1714766306;103333004;world;0.02112259;0.000568453;0.000210185;-0.000362463;6.54E-05;-0.015544611;-0.999879122
2024/05/03/12:58:26.123513;88743;1714766306;123053000;world;0.022796152;0.000627439;0.000270171;-0.000238965;0.000576855;-0.016730949;-0.999859929
2024/05/03/12:58:26.143309;88744;1714766306;143039697;world;0.024044283;0.000663346;0.000253574;-0.000227792;0.000385037;-0.017936399;-0.999839067
2024/05/03/12:58:26.164497;88745;1714766306;163282465;world;0.02599356;0.000747894;0.000422336;-0.000329306;4.81E-05;-0.01970269;-0.999805868
2024/05/03/12:58:26.173243;88746;1714766306;172924926;world;0.02656634;0.000771958;0.000396414;-0.000271742;4.71E-05;-0.02014868;-0.999797046
2024/05/03/12:58:26.183766;88747;1714766306;183474048;world;0.027712807;0.000812601;0.000348979;-5.24E-06;0.000266128;-0.021147432;-0.999776423
2024/05/03/12:58:26.204072;88748;1714766306;203751632;world;0.028748976;0.000835875;0.000311009;8.68E-05;-3.53E-05;-0.022233894;-0.99975282
2024/05/03/12:58:26.223602;88749;1714766306;223188854;world;0.029712426;0.000903398;0.000306769;-0.000200862;-8.57E-05;-0.023150589;-0.999731958
2024/05/03/12:58:26.223626;88750;1714766306;223235121;world;0.030176956;0.000981267;0.000310551;-0.000119632;0.00023372;-0.023562754;-0.999722421
2024/05/03/12:58:26.243194;88751;1714766306;242869371;world;0.031054638;0.001091556;0.000301877;-0.000116856;0.000266666;-0.024551189;-0.99969852
2024/05/03/12:58:26.263817;88752;1714766306;263285228;world;0.03180065;0.001092797;0.000364135;-0.000186149;0.000122477;-0.025607036;-0.999672055
2024/05/03/12:58:26.283710;88753;1714766306;283246467;world;0.032430477;0.001161491;0.000383931;-0.000477073;-0.000409715;-0.026761083;-0.999641657
2024/05/03/12:58:26.293278;88754;1714766306;292987461;world;0.032980319;0.001211775;0.000398033;-0.000332722;-0.000562471;-0.027756128;-0.999614596
2024/05/03/12:58:26.303198;88755;1714766306;302879732;world;0.033630103;0.001189986;0.000399611;-9.04E-05;-0.000359503;-0.028446227;-0.999595344
2024/05/03/12:58:26.323541;88756;1714766306;323245830;world;0.034178417;0.001199739;0.000400808;-0.000196658;-0.000421676;-0.029099416;-0.99957639
2024/05/03/12:58:26.353654;88757;1714766306;353326605;world;0.034842636;0.00124765;0.000385132;-0.000386568;-0.0002408;-0.029746428;-0.999557436
2024/05/03/12:58:26.353674;88758;1714766306;353362703;world;0.035177931;0.001245447;0.000388205;-0.000244848;-6.65E-05;-0.030045824;-0.999548495
2024/05/03/12:58:26.373469;88759;1714766306;373097261;world;0.035782881;0.001321892;0.000379848;-7.05E-05;9.82E-05;-0.030723361;-0.999527931
2024/05/03/12:58:26.394059;88760;1714766306;393706744;world;0.036533281;0.001274245;0.000389228;6.39E-05;6.50E-05;-0.031846941;-0.999492764
2024/05/03/12:58:26.403560;88761;1714766306;403253943;world;0.036751796;0.001286773;0.000381392;3.48E-05;0.000138767;-0.032149825;-0.999483109
2024/05/03/12:58:26.423465;88762;1714766306;423142535;world;0.037210595;0.001271702;0.000380766;-0.000161698;-9.08E-05;-0.032871831;-0.999459565
2024/05/03/12:58:26.433260;88763;1714766306;433009387;world;0.037629057;0.001349992;0.000419459;-0.000176724;5.61E-05;-0.033639859;-0.999434054
2024/05/03/12:58:26.453669;88764;1714766306;453288434;world;0.038023625;0.001353732;0.000513842;-0.00015293;-0.000283956;-0.034473538;-0.999405622
2024/05/03/12:58:26.483891;88765;1714766306;483597909;world;0.038436685;0.001445494;0.000572084;-0.000136486;-0.000369618;-0.035149287;-0.999382019
2024/05/03/12:58:26.493287;88766;1714766306;493039652;world;0.038668882;0.001497513;0.000577565;-8.42E-05;-0.000251534;-0.03537805;-0.999373972
2024/05/03/12:58:26.493294;88767;1714766306;493071051;world;0.039089099;0.001577322;0.000550476;-1.26E-05;-8.09E-05;-0.036023062;-0.999350965
2024/05/03/12:58:26.513771;88768;1714766306;512945216;world;0.039557334;0.00155605;0.000543453;-0.000455156;-3.32E-05;-0.036898639;-0.999318957
2024/05/03/12:58:26.523690;88769;1714766306;523402194;world;0.04009397;0.001579972;0.000603084;-0.000474942;0.000218811;-0.037799824;-0.999285281
2024/05/03/12:58:26.553426;88770;1714766306;553125636;world;0.040672682;0.001549751;0.000573643;-0.000519358;2.55E-05;-0.038188547;-0.999270499
2024/05/03/12:58:26.564700;88771;1714766306;564374826;world;0.041233838;0.00155127;0.000590313;-0.000523597;0.000273048;-0.038653493;-0.999252498
2024/05/03/12:58:26.583341;88772;1714766306;583050870;world;0.041755334;0.001630253;0.000522154;-0.000424186;0.000266522;-0.039100885;-0.999235153
2024/05/03/12:58:26.593464;88773;1714766306;593163422;world;0.042324655;0.001668428;0.000509959;-0.000168164;0.000340786;-0.039770987;-0.999208748
2024/05/03/12:58:26.603515;88774;1714766306;603231900;world;0.042951629;0.001736099;0.000535413;-2.02E-06;0.00046352;-0.040494908;-0.999179661
2024/05/03/12:58:26.623220;88775;1714766306;622951185;world;0.043231271;0.001787968;0.000518495;-8.31E-06;0.000529682;-0.040859144;-0.99916482
2024/05/03/12:58:26.633299;88776;1714766306;632973478;world;0.043843463;0.00184766;0.000498995;-9.18E-05;0.000417507;-0.041707937;-0.999129832
2024/05/03/12:58:26.653595;88777;1714766306;653309491;world;0.044422712;0.001900377;0.00060746;-0.000350238;0.000289356;-0.042576253;-0.999093175
2024/05/03/12:58:26.663370;88778;1714766306;663078358;world;0.044988066;0.00197483;0.000666166;-0.000522138;-4.08E-05;-0.043234028;-0.999064863
2024/05/03/12:58:26.683379;88779;1714766306;683075935;world;0.04562949;0.002009431;0.000615908;-0.000401408;5.48E-05;-0.043883871;-0.999036551
2024/05/03/12:58:26.703654;88780;1714766306;703334103;world;0.04635923;0.002049038;0.000570785;-0.000199736;0.000308557;-0.044247404;-0.999020576
2024/05/03/12:58:26.713491;88781;1714766306;713193029;world;0.047054425;0.002107065;0.00051347;-0.000104204;0.000178576;-0.045000482;-0.998987019
2024/05/03/12:58:26.733569;88782;1714766306;733291014;world;0.047665283;0.002152737;0.000530872;-0.000151845;4.11E-05;-0.045857646;-0.998948038
2024/05/03/12:58:26.743685;88783;1714766306;743358503;world;0.047945756;0.002211149;0.000512647;-0.000285241;-0.000188927;-0.04634773;-0.998925388
2024/05/03/12:58:26.763504;88784;1714766306;763098521;world;0.048579894;0.002316033;0.000534537;-0.00034211;-0.000235444;-0.047312487;-0.998880088
2024/05/03/12:58:26.793228;88785;1714766306;792944097;world;0.04928327;0.002363421;0.000482301;-0.000398955;-0.000524432;-0.047771256;-0.998858094
2024/05/03/12:58:26.793256;88786;1714766306;792979524;world;0.049914803;0.002441503;0.000508606;-0.000382983;-0.000659936;-0.048358966;-0.998829782
2024/05/03/12:58:26.813191;88787;1714766306;812894627;world;0.050702117;0.002480806;0.000547958;3.08E-05;-0.000688155;-0.048883628;-0.998804331
2024/05/03/12:58:26.823504;88788;1714766306;823232333;world;0.05152557;0.002509295;0.000581791;-2.76E-06;-0.000397442;-0.04927722;-0.998785079
2024/05/03/12:58:26.843663;88789;1714766306;843316062;world;0.052231856;0.002634091;0.000545853;0.000280838;-0.000226405;-0.049856868;-0.998756409
2024/05/03/12:58:26.853405;88790;1714766306;853072395;world;0.052983601;0.002688209;0.000582598;0.000466659;-9.51E-06;-0.050431155;-0.9987275
2024/05/03/12:58:26.873366;88791;1714766306;873050887;world;0.053545773;0.002768958;0.000620814;0.000184862;-9.49E-05;-0.051465038;-0.99867487
2024/05/03/12:58:26.893562;88792;1714766306;893188684;world;0.053842805;0.002832658;0.000608504;0.000111931;-0.000112047;-0.051831484;-0.998655915
2024/05/03/12:58:26.903325;88793;1714766306;902994940;world;0.054557677;0.002964554;0.000573107;0.000323232;-3.89E-05;-0.052427657;-0.998624682
2024/05/03/12:58:26.913319;88794;1714766306;913002108;world;0.055266906;0.002981398;0.000570844;0.000365095;-6.37E-05;-0.052923121;-0.998598516
2024/05/03/12:58:26.933262;88795;1714766306;932957266;world;0.055932239;0.002961029;0.000434821;0.00079205;9.35E-05;-0.053435583;-0.998571038
2024/05/03/12:58:26.963554;88796;1714766306;963246803;world;0.056693956;0.00302387;0.000459212;0.000909317;0.000481308;-0.054123241;-0.998533726
2024/05/03/12:58:26.963584;88797;1714766306;963281308;world;0.057417631;0.003162372;0.000682989;0.000370659;0.000381643;-0.055086311;-0.998481452
2024/05/03/12:58:27.003568;88798;1714766307;3181524;world;0.057985187;0.003275177;0.000739896;0.000407833;0.000267767;-0.056124233;-0.998423696
2024/05/03/12:58:27.003596;88799;1714766307;3228322;world;0.058302499;0.003265064;0.000768034;0.000319177;0.0002655;-0.056328513;-0.998412251
2024/05/03/12:58:27.013344;88800;1714766307;13029259;world;0.059316568;0.003372523;0.000622349;0.000709582;9.36E-05;-0.056884062;-0.998380542
2024/05/03/12:58:27.033617;88801;1714766307;33349183;world;0.05963739;0.003413987;0.000504936;0.001009677;0.000303165;-0.057109911;-0.998367369
2024/05/03/12:58:27.043324;88802;1714766307;43005948;world;0.060366981;0.003545875;0.000355515;0.00130872;0.000896487;-0.057481062;-0.998345375
2024/05/03/12:58:27.064024;88803;1714766307;63777661;world;0.061064795;0.003687851;0.000252792;0.001538207;0.001371473;-0.05824009;-0.998300493
2024/05/03/12:58:27.073439;88804;1714766307;73131486;world;0.061837569;0.003653552;0.000611138;0.00060884;0.000450069;-0.058817301;-0.998268485
2024/05/03/12:58:27.093588;88805;1714766307;93216778;world;0.062144313;0.003640693;0.000645676;0.00058214;0.000293394;-0.059204873;-0.998245716
2024/05/03/12:58:27.103984;88806;1714766307;103289045;world;0.062799431;0.003796676;0.00069243;0.000455042;0.0002515;-0.060114786;-0.998191416
2024/05/03/12:58:27.123605;88807;1714766307;123312009;world;0.063408583;0.003871954;0.000673218;0.000479914;2.55E-05;-0.060656298;-0.998158634
2024/05/03/12:58:27.133331;88808;1714766307;133067982;world;0.063986965;0.00394652;0.000450753;0.001234119;0.000781346;-0.061283279;-0.998119414
2024/05/03/12:58:27.173738;88809;1714766307;173427310;world;0.064620972;0.004034205;0.000697832;9.48E-05;-0.000304773;-0.061953314;-0.998079062
2024/05/03/12:58:27.173766;88810;1714766307;173465141;world;0.065318488;0.004085852;0.000782061;-1.22E-05;-0.000261676;-0.063012868;-0.998012662
2024/05/03/12:58:27.183196;88811;1714766307;182900070;world;0.06601724;0.00414336;0.000741575;7.96E-05;-0.000271604;-0.063381471;-0.997989416
2024/05/03/12:58:27.203914;88812;1714766307;203157475;world;0.06667091;0.004280975;0.000715975;6.47E-05;-0.000291769;-0.063976303;-0.997951448
2024/05/03/12:58:27.213408;88813;1714766307;213111390;world;0.067005917;0.004339449;0.000751593;0.000186578;-0.000314311;-0.064175725;-0.997938573
2024/05/03/12:58:27.233177;88814;1714766307;232921267;world;0.067751497;0.004463274;0.000719944;0.000416193;-0.000207349;-0.0649397;-0.997889102
2024/05/03/12:58:27.243572;88815;1714766307;243276834;world;0.068427958;0.004570228;0.000715207;0.000400888;-0.000254556;-0.065453842;-0.997855484
2024/05/03/12:58:27.273375;88816;1714766307;273059944;world;0.069046438;0.004652072;0.000711414;0.000622979;-0.00033425;-0.06612815;-0.9978109
2024/05/03/12:58:27.273401;88817;1714766307;273103265;world;0.069619343;0.004672591;0.000706321;0.000629568;-0.000582457;-0.066732086;-0.997770548
2024/05/03/12:58:27.303857;88818;1714766307;303508974;world;0.070280492;0.004822604;0.000664177;0.000505992;-0.000550336;-0.067306027;-0.997732162
2024/05/03/12:58:27.313241;88819;1714766307;312940147;world;0.070940413;0.004964016;0.000647526;0.000632747;-0.000254699;-0.067882732;-0.997693121
2024/05/03/12:58:27.323418;88820;1714766307;323146255;world;0.071553528;0.005065534;0.000771388;0.000538286;-0.0002024;-0.068806775;-0.997629881
2024/05/03/12:58:27.343509;88821;1714766307;343225786;world;0.072163418;0.005138693;0.000888832;0.000582606;-0.000220874;-0.069518186;-0.997580528
2024/05/03/12:58:27.353315;88822;1714766307;353034276;world;0.072539374;0.005142233;0.000871203;0.000576214;-0.000337682;-0.069840297;-0.997557998
2024/05/03/12:58:27.373294;88823;1714766307;373004793;world;0.073316701;0.005261874;0.000832438;0.000551887;-0.000113611;-0.070314862;-0.997524679
2024/05/03/12:58:27.383172;88824;1714766307;382864610;world;0.073959485;0.005268011;0.000676745;0.000865829;0.000107791;-0.070563674;-0.997506917
2024/05/03/12:58:27.403776;88825;1714766307;403343502;world;0.074582435;0.005380859;0.000662909;0.000786303;-0.000105931;-0.071239732;-0.997458994
2024/05/03/12:58:27.413222;88826;1714766307;412944724;world;0.075165719;0.005452957;0.000814809;0.000335074;-0.000550382;-0.072053194;-0.997400641
2024/05/03/12:58:27.433247;88827;1714766307;432955838;world;0.075835697;0.005498149;0.000842107;0.000685405;-0.000694321;-0.072617516;-0.997359455
2024/05/03/12:58:27.453231;88828;1714766307;452987707;world;0.076529056;0.005613524;0.00084679;0.000793268;-0.000362579;-0.073314212;-0.997308493
2024/05/03/12:58:27.473283;88829;1714766307;472989673;world;0.077253819;0.005781705;0.000786627;0.000708784;-0.000138523;-0.073967695;-0.997260451
2024/05/03/12:58:27.483475;88830;1714766307;483217187;world;0.077592641;0.005855153;0.000781165;0.000689057;-1.36E-05;-0.074382268;-0.997229636
2024/05/03/12:58:27.513224;88831;1714766307;512950543;world;0.07855577;0.005992178;0.000862959;0.000472732;7.91E-05;-0.075410739;-0.997152448
2024/05/03/12:58:27.513251;88832;1714766307;512984427;world;0.078856878;0.006040233;0.000901748;0.000499889;-2.45E-05;-0.075760014;-0.997126043
2024/05/03/12:58:27.523756;88833;1714766307;523289822;world;0.079439387;0.006159179;0.000886285;0.000446744;-3.01E-05;-0.076387145;-0.99707818
2024/05/03/12:58:27.543549;88834;1714766307;543237997;world;0.080015481;0.006206389;0.000845296;0.000272874;-0.000383277;-0.077096134;-0.997023523
2024/05/03/12:58:27.553588;88835;1714766307;553313318;world;0.080652975;0.006386879;0.000870124;0.00031979;-0.000447549;-0.078020819;-0.99695158
2024/05/03/12:58:27.573926;88836;1714766307;573702802;world;0.081378564;0.006467234;0.000895127;0.000524029;-0.000346295;-0.078751728;-0.996894121
2024/05/03/12:58:27.593437;88837;1714766307;593132972;world;0.081766635;0.006529921;0.000846032;0.000380641;-0.0005422;-0.078981355;-0.996875882
2024/05/03/12:58:27.603725;88838;1714766307;603399946;world;0.082478806;0.006595165;0.000870975;0.000462455;-0.000326396;-0.079504631;-0.996834338
2024/05/03/12:58:27.623680;88839;1714766307;623383898;world;0.083128706;0.006646963;0.00080795;0.000364864;-0.000575721;-0.080153048;-0.996782303
2024/05/03/12:58:27.633485;88840;1714766307;633166931;world;0.083737269;0.006739337;0.00083972;0.000461346;-0.000651279;-0.080766954;-0.996732712
2024/05/03/12:58:27.653599;88841;1714766307;653203078;world;0.084607199;0.006853446;0.000953895;0.000321387;-0.000961451;-0.082005538;-0.996631444
2024/05/03/12:58:27.673498;88842;1714766307;673152696;world;0.084925838;0.00696981;0.001006727;0.000265913;-0.000964183;-0.082535833;-0.996587634
2024/05/03/12:58:27.683414;88843;1714766307;683111689;world;0.085579351;0.007178203;0.001065722;0.000355025;-0.000651924;-0.083351202;-0.996520042
2024/05/03/12:58:27.703342;88844;1714766307;702983272;world;0.08621686;0.007283466;0.001033662;0.000349331;-0.000574748;-0.083845593;-0.996478617
2024/05/03/12:58:27.713327;88845;1714766307;713079799;world;0.086937085;0.007318872;0.001084518;0.000361656;-0.000514341;-0.084472291;-0.996425688
2024/05/03/12:58:27.733312;88846;1714766307;733019842;world;0.087659627;0.007380361;0.001072908;0.000621224;-0.000494114;-0.084879078;-0.996390998
2024/05/03/12:58:27.753187;88847;1714766307;752876393;world;0.088331252;0.007468915;0.001051204;0.000827328;-0.000596045;-0.085466199;-0.996340573
2024/05/03/12:58:27.763854;88848;1714766307;763610539;world;0.088648573;0.007546717;0.001036142;0.000845089;-0.000674016;-0.085804082;-0.996311486
2024/05/03/12:58:27.783490;88849;1714766307;783185296;world;0.089244083;0.007601593;0.001043008;0.000721418;-0.000693183;-0.086458206;-0.99625504
2024/05/03/12:58:27.793246;88850;1714766307;792959122;world;0.089831918;0.007723448;0.001062027;0.000744897;-0.000660152;-0.087264322;-0.996184766
2024/05/03/12:58:27.813423;88851;1714766307;812956519;world;0.09046039;0.007867843;0.001014597;0.000912563;-0.000711576;-0.087817572;-0.99613589
2024/05/03/12:58:27.823375;88852;1714766307;823075213;world;0.091269456;0.008076858;0.001064564;0.000737425;6.21E-05;-0.088645503;-0.996062934
2024/05/03/12:58:27.833232;88853;1714766307;832920313;world;0.091851644;0.008131167;0.001150862;0.000742077;-0.000123158;-0.089535199;-0.995983362
2024/05/03/12:58:27.853430;88854;1714766307;853025471;world;0.092140839;0.008156654;0.001191501;0.000934236;-0.000457393;-0.089858197;-0.995954037
2024/05/03/12:58:27.883583;88855;1714766307;883283670;world;0.093131334;0.008337835;0.001208004;0.000970438;-0.000317354;-0.090814486;-0.995867372
2024/05/03/12:58:27.883606;88856;1714766307;883325679;world;0.093483008;0.008311917;0.001097468;0.001032061;-0.000663541;-0.090891071;-0.995860159
2024/05/03/12:58:27.923595;88857;1714766307;923087785;world;0.094103456;0.008471226;0.001055195;0.001140245;-0.000572563;-0.091493599;-0.995804846
2024/05/03/12:58:27.923601;88858;1714766307;923124154;world;0.094761565;0.0086751;0.000975907;0.001147836;-0.00019766;-0.092131324;-0.995746195
2024/05/03/12:58:27.933507;88859;1714766307;933202583;world;0.09541823;0.008936001;0.000730687;0.000570379;0.000584037;-0.092646308;-0.99569881
2024/05/03/12:58:27.953472;88860;1714766307;952912329;world;0.096069708;0.009077974;0.000726971;0.000153081;0.000271871;-0.093412906;-0.995627403
2024/05/03/12:58:27.964072;88861;1714766307;963501875;world;0.096410207;0.009138531;0.000787633;0.00034247;0.000430041;-0.093794018;-0.995591521
2024/05/03/12:58:27.984655;88862;1714766307;984233659;world;0.096912146;0.009057553;0.001049925;0.001307877;-0.000695753;-0.094606154;-0.995513737
2024/05/03/12:58:27.993329;88863;1714766307;993019342;world;0.0977154;0.009120738;0.001135324;0.001437371;-0.000831674;-0.095218971;-0.995455027
2024/05/03/12:58:28.043712;88864;1714766308;43291038;world;0.098457232;0.00922804;0.001117663;0.001430534;-0.000771333;-0.095704667;-0.995408475
2024/05/03/12:58:28.043736;88866;1714766308;43325513;world;0.099778965;0.009749233;0.000732624;0.000112398;0.000391554;-0.096762933;-0.995307386
2024/05/03/12:58:28.063526;88867;1714766308;63170492;world;0.100346416;0.009704493;0.000782491;0.000190441;-0.000337025;-0.097184718;-0.995266318
2024/05/03/12:58:28.073325;88868;1714766308;73030569;world;0.100853093;0.009768007;0.000824477;0.001531462;0.000134527;-0.097650625;-0.995219648
2024/05/03/12:58:28.093374;88869;1714766308;93008589;world;0.101483591;0.009936821;0.001043655;0.001292546;-0.000657271;-0.098730601;-0.995113194
2024/05/03/12:58:28.123530;88870;1714766308;123139173;world;0.101901017;0.010155183;0.001085533;0.000713353;-0.000465808;-0.099174157;-0.995069742
2024/05/03/12:58:28.143289;88871;1714766308;143009937;world;0.102624789;0.010254636;0.001042332;0.001097615;2.43E-06;-0.099789836;-0.995007992
2024/05/03/12:58:28.143296;88872;1714766308;143045985;world;0.103337735;0.010490051;0.000967058;0.001287838;0.000390995;-0.100466289;-0.994939566
2024/05/03/12:58:28.153650;88873;1714766308;153355612;world;0.104217969;0.010920832;0.000846748;0.000324852;0.001270713;-0.100811347;-0.994904757
2024/05/03/12:58:28.173218;88874;1714766308;172930828;world;0.104898036;0.011158369;0.000809037;8.43E-05;0.001387567;-0.10130623;-0.994854391
2024/05/03/12:58:28.193392;88875;1714766308;193051748;world;0.105501741;0.011331804;0.000830089;0.000197349;0.001385116;-0.101964511;-0.994787097
2024/05/03/12:58:28.203708;88876;1714766308;203382199;world;0.106084511;0.011524969;0.000843444;0.00020655;0.001453468;-0.102637313;-0.994717777
2024/05/03/12:58:28.223594;88877;1714766308;223261895;world;0.106742203;0.011652185;0.00092526;3.43E-06;0.00135806;-0.10350582;-0.994628012
2024/05/03/12:58:28.233282;88878;1714766308;232939250;world;0.107123397;0.011763299;0.000955555;-0.000194042;0.001371205;-0.103916541;-0.994585097
2024/05/03/12:58:28.253323;88879;1714766308;252993913;world;0.107876167;0.011906844;0.000869646;6.83E-05;0.001495158;-0.104324996;-0.994542181
2024/05/03/12:58:28.263634;88880;1714766308;263346436;world;0.108513281;0.011919886;0.000957193;3.55E-05;0.001306079;-0.105004579;-0.994470954
2024/05/03/12:58:28.283667;88881;1714766308;283266568;world;0.109118052;0.012018357;0.000892864;0.0004966;0.00130411;-0.105703376;-0.994396806
2024/05/03/12:58:28.293248;88882;1714766308;292895151;world;0.109611273;0.011993287;0.000930996;0.000513509;0.00084139;-0.10640125;-0.994322777
2024/05/03/12:58:28.313918;88883;1714766308;313203802;world;0.11025323;0.012122588;0.000951483;0.000310811;0.000765051;-0.107232094;-0.994233668
2024/05/03/12:58:28.323471;88884;1714766308;323116989;world;0.110828601;0.012204418;0.000895734;0.000124752;0.000394287;-0.108049795;-0.994145393
2024/05/03/12:58:28.343577;88885;1714766308;343225235;world;0.111086108;0.01228592;0.000843797;-0.000103683;0.000226472;-0.10825111;-0.994123638
2024/05/03/12:58:28.353385;88886;1714766308;353042573;world;0.11173667;0.012460127;0.000950416;0.000115644;-4.30E-05;-0.108967572;-0.994045377
2024/05/03/12:58:28.373168;88887;1714766308;372930955;world;0.112647071;0.012618879;0.000890672;0.000332168;-5.19E-06;-0.109959312;-0.993936121
2024/05/03/12:58:28.403600;88888;1714766308;403329826;world;0.113053098;0.012724834;0.000876693;0.000451999;0.000253038;-0.110195473;-0.993909836
2024/05/03/12:58:28.403605;88889;1714766308;403363830;world;0.113922402;0.013032477;0.000932624;0.000312135;0.000769552;-0.110857919;-0.993835986
2024/05/03/12:58:28.433524;88890;1714766308;433207258;world;0.114608087;0.013192596;0.000890089;0.000192402;0.000715219;-0.111542538;-0.993759394
2024/05/03/12:58:28.433529;88891;1714766308;433240771;world;0.115178734;0.013229857;0.00087972;0.000670035;0.000616336;-0.112136632;-0.993692398
2024/05/03/12:58:28.453535;88892;1714766308;453145093;world;0.115803637;0.013365022;0.000870428;0.000855177;0.000766797;-0.112977125;-0.993596911
2024/05/03/12:58:28.463562;88893;1714766308;463164269;world;0.116396964;0.013479982;0.000795312;0.001196449;0.000740628;-0.113628916;-0.993522346
2024/05/03/12:58:28.483344;88894;1714766308;483013199;world;0.116746023;0.01357184;0.000854188;0.001295447;0.00073726;-0.114094287;-0.993468881
2024/05/03/12:58:28.503587;88895;1714766308;503281985;world;0.117637545;0.013743831;0.000912644;0.000957864;0.000425266;-0.115130626;-0.99334985
2024/05/03/12:58:28.513259;88896;1714766308;512941196;world;0.117930934;0.013847506;0.000912908;0.00097882;0.000454625;-0.115545981;-0.99330163
2024/05/03/12:58:28.533587;88897;1714766308;533257411;world;0.118637599;0.013924636;0.000939102;0.000997316;0.000585517;-0.116103776;-0.993236482
2024/05/03/12:58:28.553780;88898;1714766308;553349231;world;0.119273998;0.014076814;0.001021101;0.000753553;0.000379652;-0.116795614;-0.993155658
2024/05/03/12:58:28.563293;88899;1714766308;562991273;world;0.11987251;0.014199506;0.001135691;0.000659995;0.000242203;-0.117530212;-0.993069053
2024/05/03/12:58:28.573921;88900;1714766308;573454000;world;0.120546177;0.014378496;0.001182268;0.000529261;0.000264115;-0.118346095;-0.992972255
2024/05/03/12:58:28.603689;88901;1714766308;603333730;world;0.121191502;0.014594959;0.001148927;0.000651992;0.000108459;-0.119056337;-0.992887318
2024/05/03/12:58:28.603714;88902;1714766308;603373455;world;0.121884584;0.014726423;0.001175495;0.000823069;0.000192118;-0.119560882;-0.992826581
2024/05/03/12:58:28.643532;88903;1714766308;643203428;world;0.122227833;0.014756774;0.001253899;0.000786695;-2.33E-05;-0.120011024;-0.992772281
2024/05/03/12:58:28.643559;88904;1714766308;643238314;world;0.123128533;0.014926804;0.001244744;0.00055329;-0.000343555;-0.120985702;-0.992654085
2024/05/03/12:58:28.653633;88905;1714766308;653298468;world;0.12350665;0.014996463;0.001214538;0.000635888;-0.000234861;-0.121258728;-0.992620707
2024/05/03/12:58:28.673365;88906;1714766308;672932201;world;0.124176636;0.015278596;0.001134617;0.00085676;0.000331783;-0.121813208;-0.992552638
2024/05/03/12:58:28.693612;88907;1714766308;693188894;world;0.124844663;0.015500985;0.001123314;0.000918809;0.00056177;-0.122408345;-0.992479205
2024/05/03/12:58:28.703428;88908;1714766308;702962470;world;0.125468373;0.015696432;0.001075024;0.001152158;0.000770411;-0.123170286;-0.992384553
2024/05/03/12:58:28.733465;88909;1714766308;733104640;world;0.126119137;0.015865711;0.001062606;0.000980976;0.000804155;-0.123756044;-0.992311895
2024/05/03/12:58:28.733494;88910;1714766308;733134757;world;0.12638104;0.015892876;0.001057727;0.000824496;0.000649207;-0.124097213;-0.992269516
2024/05/03/12:58:28.753249;88911;1714766308;752962723;world;0.127197549;0.01595382;0.001178838;0.000524327;-0.000329433;-0.125235349;-0.992126942
2024/05/03/12:58:28.763475;88912;1714766308;763141651;world;0.127552107;0.016105354;0.001292508;0.000333575;-0.000277706;-0.12589024;-0.992044091
2024/05/03/12:58:28.773352;88913;1714766308;773040381;world;0.128210559;0.01623717;0.001399683;0.000244643;-0.000703546;-0.126647398;-0.991947591
2024/05/03/12:58:28.793365;88914;1714766308;793062173;world;0.128907099;0.016448259;0.001314797;0.000180442;-0.000596189;-0.127198368;-0.991877079
2024/05/03/12:58:28.813664;88915;1714766308;813365025;world;0.12964949;0.016646802;0.001137264;0.00081608;0.000112742;-0.127497405;-0.991838634
2024/05/03/12:58:28.843586;88916;1714766308;843320219;world;0.13011691;0.016955212;0.001173641;0.000883659;0.000787358;-0.127876416;-0.99178946
2024/05/03/12:58:28.843610;88917;1714766308;843354193;world;0.130878359;0.017251067;0.001155318;0.000470216;0.001122701;-0.128421232;-0.991719007
2024/05/03/12:58:28.853437;88918;1714766308;853063483;world;0.131483108;0.017364476;0.001147207;0.000178165;0.00092725;-0.129149109;-0.991624773
2024/05/03/12:58:28.873423;88919;1714766308;873099510;world;0.132002145;0.017468598;0.001125476;0.000382878;0.000742973;-0.129743278;-0.991547287
2024/05/03/12:58:28.883658;88920;1714766308;883314586;world;0.132626861;0.017577879;0.001107593;0.000668525;0.000672105;-0.130150378;-0.991493821
2024/05/03/12:58:28.913615;88921;1714766308;913299169;world;0.133710325;0.017944757;0.001073575;0.000810263;0.001015094;-0.130838335;-0.991402924
2024/05/03/12:58:28.923370;88922;1714766308;922988165;world;0.134042233;0.018098345;0.001069769;0.000792405;0.001140409;-0.131142735;-0.991362512
2024/05/03/12:58:28.953585;88923;1714766308;953257305;world;0.134572864;0.018182956;0.001177141;0.000762068;0.000866554;-0.132148847;-0.991229177
2024/05/03/12:58:28.953612;88924;1714766308;953293183;world;0.135035038;0.018070454;0.00124174;0.001003809;-8.06E-05;-0.133129418;-0.991098225
2024/05/03/12:58:28.963215;88925;1714766308;962885906;world;0.135645732;0.018277448;0.001448454;0.000718274;-0.000260688;-0.134043291;-0.990975201
2024/05/03/12:58:28.983588;88926;1714766308;983213724;world;0.136286035;0.018497352;0.001343108;0.000885048;0.000275524;-0.134483248;-0.990915477
2024/05/03/12:58:29.013319;88927;1714766309;12977201;world;0.136966005;0.018643942;0.001232679;0.000879749;5.46E-05;-0.134770915;-0.990876377
2024/05/03/12:58:29.013347;88928;1714766309;13013139;world;0.137336701;0.018723343;0.001228443;0.000989012;0.000122497;-0.134996414;-0.990845621
2024/05/03/12:58:29.023567;88929;1714766309;23263139;world;0.138140082;0.01910932;0.00127836;0.001062758;0.000714736;-0.135595128;-0.990763485
2024/05/03/12:58:29.044597;88930;1714766309;44293729;world;0.138965353;0.019503765;0.001220336;0.00112082;0.001415775;-0.13587831;-0.990723908
2024/05/03/12:58:29.063382;88931;1714766309;63073236;world;0.139555573;0.019680306;0.001234375;0.001072119;0.001412435;-0.136651233;-0.990617692
2024/05/03/12:58:29.073449;88932;1714766309;72973718;world;0.14016667;0.019797508;0.001356519;0.00051714;0.000918533;-0.137626991;-0.990483642
2024/05/03/12:58:29.093422;88933;1714766309;93149331;world;0.14062646;0.019625647;0.001380269;0.001144424;0.000380295;-0.138448805;-0.990368903
2024/05/03/12:58:29.113357;88934;1714766309;113075790;world;0.140909716;0.01962677;0.001460964;0.001016699;9.02E-05;-0.138950154;-0.990298867
2024/05/03/12:58:29.123259;88935;1714766309;122976437;world;0.141494006;0.019757427;0.00155703;0.000490441;-0.00015958;-0.139846221;-0.990173101
2024/05/03/12:58:29.153663;88936;1714766309;153378175;world;0.14197965;0.019880913;0.001399148;0.000402304;-0.000343659;-0.140238419;-0.99011761
2024/05/03/12:58:29.153689;88937;1714766309;153411538;world;0.142692283;0.020133013;0.001384324;0.000670775;-8.07E-05;-0.140761837;-0.990043283
2024/05/03/12:58:29.163216;88938;1714766309;162882103;world;0.143518075;0.020757716;0.001395238;0.000398512;0.000650893;-0.141454145;-0.989944577
2024/05/03/12:58:29.183773;88939;1714766309;183399366;world;0.144282937;0.020997491;0.001322577;0.000876186;0.001299182;-0.141697079;-0.989908814
2024/05/03/12:58:29.203616;88940;1714766309;203322013;world;0.144986972;0.02124973;0.001393717;0.000900419;0.001225732;-0.14241004;-0.989806592
2024/05/03/12:58:29.213169;88941;1714766309;212907166;world;0.145463586;0.021173287;0.001441897;0.000908218;0.000845043;-0.143441975;-0.989657938
2024/05/03/12:58:29.233325;88942;1714766309;233017051;world;0.145645395;0.021107631;0.001472152;0.000805507;0.000404005;-0.144106805;-0.989561737
2024/05/03/12:58:29.243275;88943;1714766309;242973330;world;0.146169484;0.021057915;0.001599913;0.000803514;-0.000484446;-0.145015746;-0.989428937
2024/05/03/12:58:29.263484;88944;1714766309;263159341;world;0.14681752;0.021229926;0.001570296;0.000955365;-0.000434876;-0.145500019;-0.989357769
2024/05/03/12:58:29.283446;88945;1714766309;283173330;world;0.147960469;0.021779908;0.001482664;0.001120993;0.000523609;-0.146125212;-0.989265323
2024/05/03/12:58:29.293573;88946;1714766309;293187366;world;0.148359239;0.022052336;0.001458314;0.001067691;0.000783095;-0.146366328;-0.98922962
2024/05/03/12:58:29.323331;88947;1714766309;323000667;world;0.149151102;0.022454457;0.001402725;0.001211544;0.001417049;-0.146623269;-0.989190698
2024/05/03/12:58:29.333205;88948;1714766309;332929163;world;0.149778694;0.022609031;0.00139644;0.001246426;0.001520908;-0.14732708;-0.989085972
2024/05/03/12:58:29.343585;88949;1714766309;343260406;world;0.150372013;0.022787809;0.001456912;0.000903658;0.001396304;-0.148290798;-0.988942385
2024/05/03/12:58:29.353246;88950;1714766309;352951808;world;0.150934353;0.022910079;0.001549687;0.00060228;0.001225562;-0.149256617;-0.988797605
2024/05/03/12:58:29.373656;88951;1714766309;373167744;world;0.151268378;0.022578431;0.00149969;0.001051621;-0.000138517;-0.150098264;-0.988670588
2024/05/03/12:58:29.383422;88952;1714766309;383126292;world;0.151573271;0.022715719;0.00166948;0.000781917;-0.000210428;-0.150708377;-0.988577962
2024/05/03/12:58:29.403463;88953;1714766309;403130206;world;0.152180403;0.022939917;0.001699689;0.000735689;-0.000406827;-0.151444331;-0.988465428
2024/05/03/12:58:29.423564;88954;1714766309;423250755;world;0.152801335;0.023141738;0.001557005;0.000988731;-0.00035264;-0.151672617;-0.988430262
2024/05/03/12:58:29.433242;88955;1714766309;432937385;world;0.153412446;0.023299655;0.001526519;0.001475596;-0.000245692;-0.152239814;-0.988342464
2024/05/03/12:58:29.453560;88956;1714766309;453259413;world;0.154087871;0.023643853;0.00157851;0.001326251;-3.17E-05;-0.1530471;-0.988218009
2024/05/03/12:58:29.473920;88957;1714766309;473600806;world;0.154748037;0.023896337;0.001610829;0.000762175;-0.000151418;-0.153829589;-0.988097191
2024/05/03/12:58:29.483692;88958;1714766309;483388797;world;0.155326724;0.024002392;0.001434441;0.001260269;-0.000258276;-0.154011697;-0.988068163
2024/05/03/12:58:29.493322;88959;1714766309;493018702;world;0.155668825;0.024130233;0.00142881;0.001263333;-4.33E-05;-0.154340759;-0.988016844
2024/05/03/12:58:29.523971;88960;1714766309;523324659;world;0.156472564;0.024582375;0.001487085;0.001174186;0.000466931;-0.155077472;-0.987901568
2024/05/03/12:58:29.533231;88961;1714766309;532980372;world;0.157038942;0.024688875;0.001451444;0.001178908;0.00014157;-0.155734241;-0.987798274
2024/05/03/12:58:29.573907;88962;1714766309;573332317;world;0.157303661;0.024566436;0.001478781;0.001178532;-0.000795726;-0.15636456;-0.987698436
2024/05/03/12:58:29.573933;88964;1714766309;573585543;world;0.158489674;0.025146946;0.001549497;0.001285386;-0.00041063;-0.15785335;-0.987461627
2024/05/03/12:58:29.593517;88965;1714766309;593333190;world;0.159074917;0.02538183;0.001486714;0.00145362;0.000256246;-0.158413172;-0.987371802
2024/05/03/12:58:29.603437;88966;1714766309;603098649;world;0.159459606;0.025525212;0.001526687;0.001352198;0.000274783;-0.158811525;-0.987307966
2024/05/03/12:58:29.623321;88967;1714766309;623031226;world;0.160141334;0.025705202;0.001575231;0.001244942;0.000220841;-0.159343436;-0.987222493
2024/05/03/12:58:29.633163;88968;1714766309;632857741;world;0.160778075;0.025846796;0.001586251;0.001498238;2.65E-05;-0.160020828;-0.987112582
2024/05/03/12:58:29.663162;88969;1714766309;662937712;world;0.161540136;0.02610378;0.001604963;0.00124726;0.000526681;-0.160493702;-0.98703593
2024/05/03/12:58:29.673245;88970;1714766309;672936880;world;0.162195012;0.026242509;0.001722086;0.000805022;0.000366448;-0.161492184;-0.986873567
2024/05/03/12:58:29.683953;88971;1714766309;683154149;world;0.162727013;0.026368435;0.001787537;0.00079285;-8.41E-05;-0.162240461;-0.986750901
2024/05/03/12:58:29.703300;88972;1714766309;702861529;world;0.16332379;0.026584603;0.001741723;0.000988768;4.56E-05;-0.162560672;-0.986698091
2024/05/03/12:58:29.723969;88973;1714766309;723672195;world;0.163932681;0.02686337;0.00172709;0.000837052;0.000248286;-0.163271978;-0.986580729
2024/05/03/12:58:29.733512;88974;1714766309;733118926;world;0.164261177;0.027006064;0.001634014;0.001067506;0.000423627;-0.163621187;-0.986522615
2024/05/03/12:58:29.763272;88975;1714766309;762960189;world;0.164819494;0.027295543;0.001459542;0.00157724;0.001549408;-0.164331988;-0.98640269
2024/05/03/12:58:29.763295;88976;1714766309;762994583;world;0.165499583;0.02761554;0.001506502;0.001686442;0.001663504;-0.164964437;-0.986296654
2024/05/03/12:58:29.773216;88977;1714766309;772879849;world;0.16641134;0.027889539;0.001656283;0.001385496;0.001491295;-0.165561646;-0.986197412
2024/05/03/12:58:29.793417;88978;1714766309;793103571;world;0.167115673;0.028088897;0.001627099;0.001070098;0.001529629;-0.166216552;-0.986087501
2024/05/03/12:58:29.813190;88979;1714766309;812899950;world;0.16764994;0.028260656;0.001643849;0.001114558;0.001256342;-0.166911572;-0.985970438
2024/05/03/12:58:29.833510;88980;1714766309;833222838;world;0.16798833;0.0282811;0.001614074;0.001119455;0.000621752;-0.167645067;-0.985846579
2024/05/03/12:58:29.843340;88981;1714766309;843098948;world;0.168584153;0.028433405;0.001829715;0.000681234;4.07E-05;-0.168697581;-0.985667706
2024/05/03/12:58:29.873381;88982;1714766309;872906867;world;0.169267699;0.028646775;0.001670057;0.001329334;0.000399103;-0.169062659;-0.985604405
2024/05/03/12:58:29.873409;88983;1714766309;872948315;world;0.16975531;0.029018763;0.001696847;0.000925711;0.000857064;-0.169562727;-0.985518575
2024/05/03/12:58:29.883246;88984;1714766309;882934119;world;0.170488209;0.02938121;0.001688583;0.000954667;0.001423097;-0.170098945;-0.985425472
2024/05/03/12:58:29.903505;88985;1714766309;903088240;world;0.171125934;0.029548733;0.001674092;0.000953014;0.001353954;-0.170713559;-0.985319376
