time;.header.seq;.header.stamp.secs;.header.stamp.nsecs;.header.frame_id;.name;.position;.velocity;.effort
2024/05/03/12:51:14.831454;84071;1714765874;852920312;;['BL_Position', 'BL_Wheel', 'BR_Position', 'BR_Wheel', 'FL_Position', 'FL_Wheel', 'FR_Position', 'FR_Wheel'];(1.5707963705062866, 1110.2508544921875, 1.572330355644226, 1108.147705078125, 1.5707963705062866, 1108.1416015625, 1.5692623853683472, 1112.6561279296875);(0.0, 0.0, 0.0, 0.0, 0.0, 0.0, 0.0, 0.0);(0.0, 59.18000030517578, 0.0, 5.380000114440918, 0.0, -2.690000057220459, 10.760000228881836, 0.0)
2024/05/03/12:51:14.854033;84072;1714765874;868943662;;['BL_Position', 'BL_Wheel', 'BR_Position', 'BR_Wheel', 'FL_Position', 'FL_Wheel', 'FR_Position', 'FR_Wheel'];(1.5707963705062866, 1110.249267578125, 1.572330355644226, 1108.147705078125, 1.5707963705062866, 1108.1431884765625, 1.5692623853683472, 1112.654541015625);(0.0, 0.0, 0.0, 0.0, 0.0, 0.0, 0.0, 0.0);(0.0, 59.18000030517578, 0.0, 5.380000114440918, 0.0, -2.690000057220459, 10.760000228881836, 0.0)
2024/05/03/12:51:14.862052;84073;1714765874;884933808;;['BL_Position', 'BL_Wheel', 'BR_Position', 'BR_Wheel', 'FL_Position', 'FL_Wheel', 'FR_Position', 'FR_Wheel'];(1.5707963705062866, 1110.2508544921875, 1.572330355644226, 1108.1492919921875, 1.5707963705062866, 1108.1416015625, 1.5707963705062866, 1112.6561279296875);(0.0, 0.0, 0.0, 0.0, 0.0, 0.0, 0.0, 0.0);(0.0, 59.18000030517578, 0.0, 5.380000114440918, 0.0, -2.690000057220459, 10.760000228881836, 0.0)
2024/05/03/12:51:14.878515;84074;1714765874;900967435;;['BL_Position', 'BL_Wheel', 'BR_Position', 'BR_Wheel', 'FL_Position', 'FL_Wheel', 'FR_Position', 'FR_Wheel'];(1.5707963705062866, 1110.2508544921875, 1.572330355644226, 1108.147705078125, 1.5707963705062866, 1108.1431884765625, 1.5692623853683472, 1112.6561279296875);(0.0, 0.0, 0.0, 0.0, 0.0, 0.0, 0.0, 0.0);(0.0, 59.18000030517578, 0.0, 5.380000114440918, 0.0, -2.690000057220459, 8.069999694824219, 0.0)
2024/05/03/12:51:14.895263;84075;1714765874;916963082;;['BL_Position', 'BL_Wheel', 'BR_Position', 'BR_Wheel', 'FL_Position', 'FL_Wheel', 'FR_Position', 'FR_Wheel'];(1.5707963705062866, 1110.2508544921875, 1.5707963705062866, 1108.147705078125, 1.5707963705062866, 1108.1416015625, 1.5692623853683472, 1112.6561279296875);(0.0, 0.0, 0.0, 0.0, 0.0, 0.0, 0.0, 0.0);(0.0, 59.18000030517578, 0.0, 5.380000114440918, 0.0, -2.690000057220459, 10.760000228881836, 0.0)
2024/05/03/12:51:14.912326;84076;1714765874;932976932;;['BL_Position', 'BL_Wheel', 'BR_Position', 'BR_Wheel', 'FL_Position', 'FL_Wheel', 'FR_Position', 'FR_Wheel'];(1.5707963705062866, 1110.2508544921875, 1.572330355644226, 1108.147705078125, 1.5707963705062866, 1108.1431884765625, 1.5692623853683472, 1112.6561279296875);(0.0, 0.0, 0.0, 0.0, 0.0, 0.0, 0.0, 0.0);(0.0, 59.18000030517578, 0.0, 5.380000114440918, 0.0, -2.690000057220459, 5.380000114440918, 0.0)
2024/05/03/12:51:14.927259;84077;1714765874;948974596;;['BL_Position', 'BL_Wheel', 'BR_Position', 'BR_Wheel', 'FL_Position', 'FL_Wheel', 'FR_Position', 'FR_Wheel'];(1.5707963705062866, 1110.2508544921875, 1.5707963705062866, 1108.1492919921875, 1.5707963705062866, 1108.1431884765625, 1.5707963705062866, 1112.6561279296875);(0.0, 0.0, 0.0, 0.0, 0.0, 0.0, 0.0, 0.0);(0.0, 59.18000030517578, 0.0, 5.380000114440918, 0.0, -2.690000057220459, 10.760000228881836, 0.0)
2024/05/03/12:51:14.954761;84078;1714765874;965054131;;['BL_Position', 'BL_Wheel', 'BR_Position', 'BR_Wheel', 'FL_Position', 'FL_Wheel', 'FR_Position', 'FR_Wheel'];(1.5707963705062866, 1110.2508544921875, 1.572330355644226, 1108.147705078125, 1.572330355644226, 1108.1431884765625, 1.5692623853683472, 1112.6561279296875);(0.0, 0.0, 0.0, 0.0, 0.0, 0.0, 0.0, 0.0);(0.0, 59.18000030517578, 0.0, 5.380000114440918, 0.0, -2.690000057220459, 10.760000228881836, 0.0)
2024/05/03/12:51:14.960188;84079;1714765874;980963981;;['BL_Position', 'BL_Wheel', 'BR_Position', 'BR_Wheel', 'FL_Position', 'FL_Wheel', 'FR_Position', 'FR_Wheel'];(1.5707963705062866, 1110.2508544921875, 1.572330355644226, 1108.147705078125, 1.5707963705062866, 1108.1416015625, 1.5692623853683472, 1112.6561279296875);(0.0, 0.0, 0.0, 0.0, 0.0, 0.0, 0.0, 0.0);(0.0, 59.18000030517578, 0.0, 5.380000114440918, 0.0, -2.690000057220459, 10.760000228881836, 0.0)
2024/05/03/12:51:14.975219;84080;1714765874;996963813;;['BL_Position', 'BL_Wheel', 'BR_Position', 'BR_Wheel', 'FL_Position', 'FL_Wheel', 'FR_Position', 'FR_Wheel'];(1.5707963705062866, 1110.2508544921875, 1.5707963705062866, 1108.147705078125, 1.5707963705062866, 1108.1431884765625, 1.5692623853683472, 1112.6561279296875);(0.0, 0.0, 0.0, 0.0, 0.0, 0.0, 0.0, 0.0);(0.0, 59.18000030517578, 0.0, 5.380000114440918, 0.0, -2.690000057220459, 10.760000228881836, 0.0)
2024/05/03/12:51:14.991657;84081;1714765875;12949829;;['BL_Position', 'BL_Wheel', 'BR_Position', 'BR_Wheel', 'FL_Position', 'FL_Wheel', 'FR_Position', 'FR_Wheel'];(1.5707963705062866, 1110.249267578125, 1.572330355644226, 1108.147705078125, 1.5707963705062866, 1108.1431884765625, 1.5692623853683472, 1112.6561279296875);(0.0, 0.0, 0.0, 0.0, 0.0, 0.0, 0.0, 0.0);(0.0, 59.18000030517578, 0.0, 5.380000114440918, 0.0, -2.690000057220459, 10.760000228881836, 0.0)
2024/05/03/12:51:15.007257;84082;1714765875;28954068;;['BL_Position', 'BL_Wheel', 'BR_Position', 'BR_Wheel', 'FL_Position', 'FL_Wheel', 'FR_Position', 'FR_Wheel'];(1.5707963705062866, 1110.2508544921875, 1.572330355644226, 1108.1492919921875, 1.572330355644226, 1108.1431884765625, 1.5692623853683472, 1112.654541015625);(0.0, 0.0, 0.0, 0.0, 0.0, 0.0, 0.0, 0.0);(0.0, 59.18000030517578, 0.0, 5.380000114440918, 0.0, -2.690000057220459, 10.760000228881836, 0.0)
2024/05/03/12:51:15.024454;84083;1714765875;45053029;;['BL_Position', 'BL_Wheel', 'BR_Position', 'BR_Wheel', 'FL_Position', 'FL_Wheel', 'FR_Position', 'FR_Wheel'];(1.5707963705062866, 1110.2508544921875, 1.572330355644226, 1108.147705078125, 1.572330355644226, 1108.1431884765625, 1.5692623853683472, 1112.6561279296875);(0.0, 0.0, 0.0, 0.0, 0.0, 0.0, 0.0, 0.0);(0.0, 59.18000030517578, 0.0, 5.380000114440918, 0.0, -2.690000057220459, 13.450000762939453, 0.0)
2024/05/03/12:51:15.039228;84084;1714765875;60976509;;['BL_Position', 'BL_Wheel', 'BR_Position', 'BR_Wheel', 'FL_Position', 'FL_Wheel', 'FR_Position', 'FR_Wheel'];(1.5707963705062866, 1110.249267578125, 1.572330355644226, 1108.1492919921875, 1.5707963705062866, 1108.1431884765625, 1.5707963705062866, 1112.654541015625);(0.0, 0.0, 0.0, 0.0, 0.0, 0.0, 0.0, 0.0);(0.0, 59.18000030517578, 0.0, 5.380000114440918, 0.0, -2.690000057220459, 10.760000228881836, 0.0)
2024/05/03/12:51:15.058402;84085;1714765875;76992377;;['BL_Position', 'BL_Wheel', 'BR_Position', 'BR_Wheel', 'FL_Position', 'FL_Wheel', 'FR_Position', 'FR_Wheel'];(1.5707963705062866, 1110.2508544921875, 1.5707963705062866, 1108.147705078125, 1.572330355644226, 1108.1431884765625, 1.5692623853683472, 1112.6561279296875);(0.0, 0.0, 0.0, 0.0, 0.0, 0.0, 0.0, 0.0);(0.0, 59.18000030517578, 0.0, 5.380000114440918, 0.0, -2.690000057220459, 10.760000228881836, 0.0)
2024/05/03/12:51:15.071393;84086;1714765875;92946097;;['BL_Position', 'BL_Wheel', 'BR_Position', 'BR_Wheel', 'FL_Position', 'FL_Wheel', 'FR_Position', 'FR_Wheel'];(1.572330355644226, 1110.2508544921875, 1.572330355644226, 1108.147705078125, 1.5707963705062866, 1108.1431884765625, 1.5692623853683472, 1112.6561279296875);(0.0, 0.0, 0.0, 0.0, 0.0, 0.0, 0.0, 0.0);(0.0, 59.18000030517578, 0.0, 5.380000114440918, 0.0, -2.690000057220459, 10.760000228881836, 0.0)
2024/05/03/12:51:15.087687;84087;1714765875;108979484;;['BL_Position', 'BL_Wheel', 'BR_Position', 'BR_Wheel', 'FL_Position', 'FL_Wheel', 'FR_Position', 'FR_Wheel'];(1.5707963705062866, 1110.2508544921875, 1.572330355644226, 1108.1492919921875, 1.5707963705062866, 1108.1431884765625, 1.5692623853683472, 1112.654541015625);(0.0, 0.0, 0.0, 0.0, 0.0, 0.0, 0.0, 0.0);(0.0, 59.18000030517578, 0.0, 5.380000114440918, 0.0, -2.690000057220459, 10.760000228881836, 0.0)
2024/05/03/12:51:15.103247;84088;1714765875;124996297;;['BL_Position', 'BL_Wheel', 'BR_Position', 'BR_Wheel', 'FL_Position', 'FL_Wheel', 'FR_Position', 'FR_Wheel'];(1.5707963705062866, 1110.2508544921875, 1.572330355644226, 1108.1492919921875, 1.5707963705062866, 1108.1416015625, 1.5692623853683472, 1112.6561279296875);(0.0, 0.0, 0.0, 0.0, 0.0, 0.0, 0.0, 0.0);(0.0, 59.18000030517578, 0.0, 5.380000114440918, 0.0, -2.690000057220459, 10.760000228881836, 0.0)
2024/05/03/12:51:15.123067;84089;1714765875;143142591;;['BL_Position', 'BL_Wheel', 'BR_Position', 'BR_Wheel', 'FL_Position', 'FL_Wheel', 'FR_Position', 'FR_Wheel'];(1.5707963705062866, 1110.2508544921875, 1.572330355644226, 1108.147705078125, 1.5707963705062866, 1108.1416015625, 1.5692623853683472, 1112.6561279296875);(0.0, 0.0, 0.0, 0.0, 0.0, 0.0, 0.0, 0.0);(0.0, 59.18000030517578, 0.0, 5.380000114440918, 0.0, -2.690000057220459, 10.760000228881836, 0.0)
2024/05/03/12:51:15.135195;84090;1714765875;156913293;;['BL_Position', 'BL_Wheel', 'BR_Position', 'BR_Wheel', 'FL_Position', 'FL_Wheel', 'FR_Position', 'FR_Wheel'];(1.5707963705062866, 1110.2508544921875, 1.572330355644226, 1108.147705078125, 1.5707963705062866, 1108.1431884765625, 1.5692623853683472, 1112.654541015625);(0.0, 0.0, 0.0, 0.0, 0.0, 0.0, 0.0, 0.0);(0.0, 59.18000030517578, 0.0, 5.380000114440918, 0.0, -2.690000057220459, 10.760000228881836, 0.0)
2024/05/03/12:51:15.151344;84091;1714765875;172914088;;['BL_Position', 'BL_Wheel', 'BR_Position', 'BR_Wheel', 'FL_Position', 'FL_Wheel', 'FR_Position', 'FR_Wheel'];(1.5707963705062866, 1110.2508544921875, 1.572330355644226, 1108.147705078125, 1.5707963705062866, 1108.1431884765625, 1.5707963705062866, 1112.6561279296875);(0.0, 0.0, 0.0, 0.0, 0.0, 0.0, 0.0, 0.0);(0.0, 59.18000030517578, 0.0, 5.380000114440918, 0.0, -2.690000057220459, 10.760000228881836, 0.0)
2024/05/03/12:51:15.169235;84092;1714765875;189181827;;['BL_Position', 'BL_Wheel', 'BR_Position', 'BR_Wheel', 'FL_Position', 'FL_Wheel', 'FR_Position', 'FR_Wheel'];(1.5707963705062866, 1110.249267578125, 1.572330355644226, 1108.147705078125, 1.5707963705062866, 1108.1431884765625, 1.5692623853683472, 1112.654541015625);(0.0, 0.0, 0.0, 0.0, 0.0, 0.0, 0.0, 0.0);(0.0, 59.18000030517578, 0.0, 5.380000114440918, 0.0, -2.690000057220459, 10.760000228881836, 0.0)
2024/05/03/12:51:15.183700;84093;1714765875;204936213;;['BL_Position', 'BL_Wheel', 'BR_Position', 'BR_Wheel', 'FL_Position', 'FL_Wheel', 'FR_Position', 'FR_Wheel'];(1.5707963705062866, 1110.2508544921875, 1.572330355644226, 1108.147705078125, 1.5707963705062866, 1108.1431884765625, 1.5692623853683472, 1112.6561279296875);(0.0, 0.0, 0.0, 0.0, 0.0, 0.0, 0.0, 0.0);(2.690000057220459, 59.18000030517578, 0.0, 5.380000114440918, 0.0, -2.690000057220459, 10.760000228881836, 0.0)
2024/05/03/12:51:15.199207;84094;1714765875;220915471;;['BL_Position', 'BL_Wheel', 'BR_Position', 'BR_Wheel', 'FL_Position', 'FL_Wheel', 'FR_Position', 'FR_Wheel'];(1.5707963705062866, 1110.249267578125, 1.5707963705062866, 1108.1492919921875, 1.5707963705062866, 1108.1416015625, 1.5692623853683472, 1112.6561279296875);(0.0, 0.0, 0.0, 0.0, 0.0, 0.0, 0.0, 0.0);(2.690000057220459, 59.18000030517578, 0.0, 5.380000114440918, 0.0, -2.690000057220459, 10.760000228881836, 0.0)
2024/05/03/12:51:15.215328;84095;1714765875;236957802;;['BL_Position', 'BL_Wheel', 'BR_Position', 'BR_Wheel', 'FL_Position', 'FL_Wheel', 'FR_Position', 'FR_Wheel'];(1.572330355644226, 1110.249267578125, 1.572330355644226, 1108.147705078125, 1.5707963705062866, 1108.1431884765625, 1.5692623853683472, 1112.6561279296875);(0.0, 0.0, 0.0, 0.0, 0.0, 0.0, 0.0, 0.0);(0.0, 59.18000030517578, 0.0, 5.380000114440918, 0.0, -2.690000057220459, 5.380000114440918, 0.0)
2024/05/03/12:51:15.231145;84096;1714765875;252957004;;['BL_Position', 'BL_Wheel', 'BR_Position', 'BR_Wheel', 'FL_Position', 'FL_Wheel', 'FR_Position', 'FR_Wheel'];(1.5707963705062866, 1110.2508544921875, 1.572330355644226, 1108.147705078125, 1.5707963705062866, 1108.1416015625, 1.5692623853683472, 1112.6561279296875);(0.0, 0.0, 0.0, 0.0, 0.0, 0.0, 0.0, 0.0);(0.0, 59.18000030517578, 0.0, 5.380000114440918, 0.0, -2.690000057220459, 10.760000228881836, 0.0)
2024/05/03/12:51:15.247359;84097;1714765875;269001039;;['BL_Position', 'BL_Wheel', 'BR_Position', 'BR_Wheel', 'FL_Position', 'FL_Wheel', 'FR_Position', 'FR_Wheel'];(1.5707963705062866, 1110.2508544921875, 1.572330355644226, 1108.1492919921875, 1.5707963705062866, 1108.1431884765625, 1.5692623853683472, 1112.654541015625);(0.0, 0.0, 0.0, 0.0, 0.0, 0.0, 0.0, 0.0);(0.0, 59.18000030517578, 0.0, 5.380000114440918, 0.0, -2.690000057220459, 8.069999694824219, 0.0)
2024/05/03/12:51:15.264707;84098;1714765875;284924426;;['BL_Position', 'BL_Wheel', 'BR_Position', 'BR_Wheel', 'FL_Position', 'FL_Wheel', 'FR_Position', 'FR_Wheel'];(1.5707963705062866, 1110.2508544921875, 1.572330355644226, 1108.147705078125, 1.5707963705062866, 1108.1416015625, 1.5692623853683472, 1112.6561279296875);(0.0, 0.0, 0.0, 0.0, 0.0, 0.0, 0.0, 0.0);(2.690000057220459, 59.18000030517578, 0.0, 5.380000114440918, 0.0, -2.690000057220459, 10.760000228881836, 0.0)
2024/05/03/12:51:15.280443;84099;1714765875;300916628;;['BL_Position', 'BL_Wheel', 'BR_Position', 'BR_Wheel', 'FL_Position', 'FL_Wheel', 'FR_Position', 'FR_Wheel'];(1.572330355644226, 1110.249267578125, 1.5707963705062866, 1108.1492919921875, 1.5707963705062866, 1108.1416015625, 1.5692623853683472, 1112.6561279296875);(0.0, 0.0, 0.0, 0.0, 0.0, 0.0, 0.0, 0.0);(2.690000057220459, 59.18000030517578, 0.0, 5.380000114440918, 0.0, -2.690000057220459, 10.760000228881836, 0.0)
2024/05/03/12:51:15.295443;84100;1714765875;316947441;;['BL_Position', 'BL_Wheel', 'BR_Position', 'BR_Wheel', 'FL_Position', 'FL_Wheel', 'FR_Position', 'FR_Wheel'];(1.5707963705062866, 1110.2508544921875, 1.572330355644226, 1108.147705078125, 1.5707963705062866, 1108.1431884765625, 1.5707963705062866, 1112.6561279296875);(0.0, 0.0, 0.0, 0.0, 0.0, 0.0, 0.0, 0.0);(0.0, 59.18000030517578, 0.0, 5.380000114440918, 0.0, -2.690000057220459, 10.760000228881836, 0.0)
2024/05/03/12:51:15.311441;84101;1714765875;332934346;;['BL_Position', 'BL_Wheel', 'BR_Position', 'BR_Wheel', 'FL_Position', 'FL_Wheel', 'FR_Position', 'FR_Wheel'];(1.5707963705062866, 1110.2508544921875, 1.572330355644226, 1108.147705078125, 1.5707963705062866, 1108.1416015625, 1.5692623853683472, 1112.654541015625);(0.0, 0.0, 0.0, 0.0, 0.0, 0.0, 0.0, 0.0);(0.0, 59.18000030517578, 0.0, 5.380000114440918, 0.0, -2.690000057220459, 10.760000228881836, 0.0)
2024/05/03/12:51:15.328247;84102;1714765875;349000752;;['BL_Position', 'BL_Wheel', 'BR_Position', 'BR_Wheel', 'FL_Position', 'FL_Wheel', 'FR_Position', 'FR_Wheel'];(1.5707963705062866, 1110.249267578125, 1.572330355644226, 1108.1492919921875, 1.5707963705062866, 1108.1431884765625, 1.5692623853683472, 1112.654541015625);(0.0, 0.0, 0.0, 0.0, 0.0, 0.0, 0.0, 0.0);(0.0, 59.18000030517578, 0.0, 5.380000114440918, 0.0, -2.690000057220459, 8.069999694824219, 0.0)
2024/05/03/12:51:15.343829;84103;1714765875;364964583;;['BL_Position', 'BL_Wheel', 'BR_Position', 'BR_Wheel', 'FL_Position', 'FL_Wheel', 'FR_Position', 'FR_Wheel'];(1.5707963705062866, 1110.2508544921875, 1.572330355644226, 1108.1492919921875, 1.572330355644226, 1108.1431884765625, 1.5692623853683472, 1112.6561279296875);(0.0, 0.0, 0.0, 0.0, 0.0, 0.0, 0.0, 0.0);(0.0, 59.18000030517578, 0.0, 5.380000114440918, 0.0, -2.690000057220459, 10.760000228881836, 0.0)
2024/05/03/12:51:15.359345;84104;1714765875;380957137;;['BL_Position', 'BL_Wheel', 'BR_Position', 'BR_Wheel', 'FL_Position', 'FL_Wheel', 'FR_Position', 'FR_Wheel'];(1.5707963705062866, 1110.2508544921875, 1.572330355644226, 1108.147705078125, 1.5707963705062866, 1108.1431884765625, 1.5692623853683472, 1112.6561279296875);(0.0, 0.0, 0.0, 0.0, 0.0, 0.0, 0.0, 0.0);(0.0, 59.18000030517578, 0.0, 5.380000114440918, 0.0, -2.690000057220459, 8.069999694824219, 0.0)
2024/05/03/12:51:15.375956;84105;1714765875;396973338;;['BL_Position', 'BL_Wheel', 'BR_Position', 'BR_Wheel', 'FL_Position', 'FL_Wheel', 'FR_Position', 'FR_Wheel'];(1.5707963705062866, 1110.2508544921875, 1.5707963705062866, 1108.1492919921875, 1.5707963705062866, 1108.1431884765625, 1.5692623853683472, 1112.6561279296875);(0.0, 0.0, 0.0, 0.0, 0.0, 0.0, 0.0, 0.0);(0.0, 59.18000030517578, 0.0, 5.380000114440918, 0.0, -2.690000057220459, 10.760000228881836, 0.0)
2024/05/03/12:51:15.391821;84106;1714765875;412956577;;['BL_Position', 'BL_Wheel', 'BR_Position', 'BR_Wheel', 'FL_Position', 'FL_Wheel', 'FR_Position', 'FR_Wheel'];(1.5707963705062866, 1110.2508544921875, 1.572330355644226, 1108.147705078125, 1.5707963705062866, 1108.1431884765625, 1.5692623853683472, 1112.6561279296875);(0.0, 0.0, 0.0, 0.0, 0.0, 0.0, 0.0, 0.0);(0.0, 59.18000030517578, 0.0, 5.380000114440918, 0.0, -2.690000057220459, 10.760000228881836, 0.0)
2024/05/03/12:51:15.407672;84107;1714765875;429071946;;['BL_Position', 'BL_Wheel', 'BR_Position', 'BR_Wheel', 'FL_Position', 'FL_Wheel', 'FR_Position', 'FR_Wheel'];(1.5707963705062866, 1110.249267578125, 1.572330355644226, 1108.147705078125, 1.5707963705062866, 1108.1431884765625, 1.5692623853683472, 1112.6561279296875);(0.0, 0.0, 0.0, 0.0, 0.0, 0.0, 0.0, 0.0);(0.0, 59.18000030517578, 0.0, 5.380000114440918, 0.0, -2.690000057220459, 10.760000228881836, 0.0)
2024/05/03/12:51:15.423300;84108;1714765875;444922129;;['BL_Position', 'BL_Wheel', 'BR_Position', 'BR_Wheel', 'FL_Position', 'FL_Wheel', 'FR_Position', 'FR_Wheel'];(1.5707963705062866, 1110.2508544921875, 1.5707963705062866, 1108.1492919921875, 1.5707963705062866, 1108.1416015625, 1.5692623853683472, 1112.6561279296875);(0.0, 0.0, 0.0, 0.0, 0.0, 0.0, 0.0, 0.0);(0.0, 59.18000030517578, 0.0, 5.380000114440918, 0.0, -2.690000057220459, 10.760000228881836, 0.0)
2024/05/03/12:51:15.439973;84109;1714765875;460964720;;['BL_Position', 'BL_Wheel', 'BR_Position', 'BR_Wheel', 'FL_Position', 'FL_Wheel', 'FR_Position', 'FR_Wheel'];(1.5707963705062866, 1110.2508544921875, 1.5707963705062866, 1108.147705078125, 1.5707963705062866, 1108.1431884765625, 1.5692623853683472, 1112.654541015625);(0.0, 0.0, 0.0, 0.0, 0.0, 0.0, 0.0, 0.0);(2.690000057220459, 59.18000030517578, 0.0, 5.380000114440918, 0.0, -2.690000057220459, 10.760000228881836, 0.0)
2024/05/03/12:51:15.459503;84110;1714765875;480986273;;['BL_Position', 'BL_Wheel', 'BR_Position', 'BR_Wheel', 'FL_Position', 'FL_Wheel', 'FR_Position', 'FR_Wheel'];(1.5707963705062866, 1110.2508544921875, 1.5707963705062866, 1108.1492919921875, 1.5707963705062866, 1108.1416015625, 1.5692623853683472, 1112.6561279296875);(0.0, 0.0, 0.0, 0.0, 0.0, 0.0, 0.0, 0.0);(2.690000057220459, 59.18000030517578, 0.0, 5.380000114440918, 0.0, -2.690000057220459, 8.069999694824219, 0.0)
2024/05/03/12:51:15.472049;84111;1714765875;492957623;;['BL_Position', 'BL_Wheel', 'BR_Position', 'BR_Wheel', 'FL_Position', 'FL_Wheel', 'FR_Position', 'FR_Wheel'];(1.5707963705062866, 1110.249267578125, 1.572330355644226, 1108.147705078125, 1.5707963705062866, 1108.1431884765625, 1.5692623853683472, 1112.6561279296875);(0.0, 0.0, 0.0, 0.0, 0.0, 0.0, 0.0, 0.0);(2.690000057220459, 59.18000030517578, 0.0, 5.380000114440918, 0.0, -2.690000057220459, 10.760000228881836, 0.0)
2024/05/03/12:51:15.487247;84112;1714765875;508915047;;['BL_Position', 'BL_Wheel', 'BR_Position', 'BR_Wheel', 'FL_Position', 'FL_Wheel', 'FR_Position', 'FR_Wheel'];(1.5707963705062866, 1110.2508544921875, 1.572330355644226, 1108.147705078125, 1.5707963705062866, 1108.1431884765625, 1.5692623853683472, 1112.6561279296875);(0.0, 0.0, 0.0, 0.0, 0.0, 0.0, 0.0, 0.0);(0.0, 59.18000030517578, 0.0, 5.380000114440918, 0.0, -2.690000057220459, 10.760000228881836, 0.0)
2024/05/03/12:51:15.503441;84113;1714765875;524933027;;['BL_Position', 'BL_Wheel', 'BR_Position', 'BR_Wheel', 'FL_Position', 'FL_Wheel', 'FR_Position', 'FR_Wheel'];(1.5707963705062866, 1110.2508544921875, 1.572330355644226, 1108.1492919921875, 1.5707963705062866, 1108.1416015625, 1.5692623853683472, 1112.6561279296875);(0.0, 0.0, 0.0, 0.0, 0.0, 0.0, 0.0, 0.0);(0.0, 59.18000030517578, 0.0, 5.380000114440918, 0.0, -2.690000057220459, 10.760000228881836, 0.0)
2024/05/03/12:51:15.517727;84114;1714765875;540945988;;['BL_Position', 'BL_Wheel', 'BR_Position', 'BR_Wheel', 'FL_Position', 'FL_Wheel', 'FR_Position', 'FR_Wheel'];(1.5707963705062866, 1110.2508544921875, 1.572330355644226, 1108.1492919921875, 1.5707963705062866, 1108.1431884765625, 1.5692623853683472, 1112.654541015625);(0.0, 0.0, 0.0, 0.0, 0.0, 0.0, 0.0, 0.0);(0.0, 59.18000030517578, 0.0, 5.380000114440918, 0.0, -2.690000057220459, 10.760000228881836, 0.0)
2024/05/03/12:51:15.536434;84115;1714765875;556961745;;['BL_Position', 'BL_Wheel', 'BR_Position', 'BR_Wheel', 'FL_Position', 'FL_Wheel', 'FR_Position', 'FR_Wheel'];(1.5707963705062866, 1110.2508544921875, 1.572330355644226, 1108.147705078125, 1.572330355644226, 1108.1431884765625, 1.5692623853683472, 1112.6561279296875);(0.0, 0.0, 0.0, 0.0, 0.0, 0.0, 0.0, 0.0);(0.0, 59.18000030517578, 0.0, 5.380000114440918, 0.0, -2.690000057220459, 10.760000228881836, 0.0)
2024/05/03/12:51:15.549551;84116;1714765875;572937280;;['BL_Position', 'BL_Wheel', 'BR_Position', 'BR_Wheel', 'FL_Position', 'FL_Wheel', 'FR_Position', 'FR_Wheel'];(1.5707963705062866, 1110.2508544921875, 1.572330355644226, 1108.1492919921875, 1.572330355644226, 1108.1431884765625, 1.5692623853683472, 1112.6561279296875);(0.0, 0.0, 0.0, 0.0, 0.0, 0.0, 0.0, 0.0);(0.0, 59.18000030517578, 0.0, 5.380000114440918, 0.0, -2.690000057220459, 10.760000228881836, 0.0)
2024/05/03/12:51:15.572091;84117;1714765875;588956519;;['BL_Position', 'BL_Wheel', 'BR_Position', 'BR_Wheel', 'FL_Position', 'FL_Wheel', 'FR_Position', 'FR_Wheel'];(1.5707963705062866, 1110.2508544921875, 1.572330355644226, 1108.147705078125, 1.5707963705062866, 1108.1431884765625, 1.5707963705062866, 1112.6561279296875);(0.0, 0.0, 0.0, 0.0, 0.0, 0.0, 0.0, 0.0);(0.0, 59.18000030517578, 0.0, 5.380000114440918, 0.0, -2.690000057220459, 10.760000228881836, 0.0)
2024/05/03/12:51:15.583148;84118;1714765875;604950295;;['BL_Position', 'BL_Wheel', 'BR_Position', 'BR_Wheel', 'FL_Position', 'FL_Wheel', 'FR_Position', 'FR_Wheel'];(1.5707963705062866, 1110.2508544921875, 1.572330355644226, 1108.147705078125, 1.5707963705062866, 1108.1431884765625, 1.5692623853683472, 1112.6561279296875);(0.0, 0.0, 0.0, 0.0, 0.0, 0.0, 0.0, 0.0);(0.0, 59.18000030517578, 0.0, 5.380000114440918, 0.0, -2.690000057220459, 10.760000228881836, 0.0)
2024/05/03/12:51:15.599248;84119;1714765875;620919015;;['BL_Position', 'BL_Wheel', 'BR_Position', 'BR_Wheel', 'FL_Position', 'FL_Wheel', 'FR_Position', 'FR_Wheel'];(1.5707963705062866, 1110.2508544921875, 1.572330355644226, 1108.147705078125, 1.572330355644226, 1108.1416015625, 1.5692623853683472, 1112.6561279296875);(0.0, 0.0, 0.0, 0.0, 0.0, 0.0, 0.0, 0.0);(0.0, 59.18000030517578, 0.0, 5.380000114440918, 0.0, -2.690000057220459, 10.760000228881836, 0.0)
2024/05/03/12:51:15.615408;84120;1714765875;636916309;;['BL_Position', 'BL_Wheel', 'BR_Position', 'BR_Wheel', 'FL_Position', 'FL_Wheel', 'FR_Position', 'FR_Wheel'];(1.5707963705062866, 1110.249267578125, 1.572330355644226, 1108.1492919921875, 1.5707963705062866, 1108.1431884765625, 1.5707963705062866, 1112.6561279296875);(0.0, 0.0, 0.0, 0.0, 0.0, 0.0, 0.0, 0.0);(2.690000057220459, 59.18000030517578, 0.0, 5.380000114440918, 0.0, -2.690000057220459, 10.760000228881836, 0.0)
2024/05/03/12:51:15.632680;84121;1714765875;652921826;;['BL_Position', 'BL_Wheel', 'BR_Position', 'BR_Wheel', 'FL_Position', 'FL_Wheel', 'FR_Position', 'FR_Wheel'];(1.5707963705062866, 1110.249267578125, 1.572330355644226, 1108.147705078125, 1.5707963705062866, 1108.1416015625, 1.5692623853683472, 1112.654541015625);(0.0, 0.0, 0.0, 0.0, 0.0, 0.0, 0.0, 0.0);(2.690000057220459, 59.18000030517578, 0.0, 5.380000114440918, 0.0, -2.690000057220459, 10.760000228881836, 0.0)
2024/05/03/12:51:15.647278;84122;1714765875;668884620;;['BL_Position', 'BL_Wheel', 'BR_Position', 'BR_Wheel', 'FL_Position', 'FL_Wheel', 'FR_Position', 'FR_Wheel'];(1.5707963705062866, 1110.249267578125, 1.572330355644226, 1108.147705078125, 1.5707963705062866, 1108.1416015625, 1.5692623853683472, 1112.6561279296875);(0.0, 0.0, 0.0, 0.0, 0.0, 0.0, 0.0, 0.0);(2.690000057220459, 59.18000030517578, 0.0, 5.380000114440918, 0.0, -2.690000057220459, 10.760000228881836, 0.0)
2024/05/03/12:51:15.669070;84123;1714765875;684890174;;['BL_Position', 'BL_Wheel', 'BR_Position', 'BR_Wheel', 'FL_Position', 'FL_Wheel', 'FR_Position', 'FR_Wheel'];(1.5707963705062866, 1110.2508544921875, 1.572330355644226, 1108.147705078125, 1.5707963705062866, 1108.1416015625, 1.5707963705062866, 1112.6561279296875);(0.0, 0.0, 0.0, 0.0, 0.0, 0.0, 0.0, 0.0);(0.0, 59.18000030517578, 0.0, 5.380000114440918, 0.0, -2.690000057220459, 10.760000228881836, 0.0)
2024/05/03/12:51:15.679222;84124;1714765875;700875228;;['BL_Position', 'BL_Wheel', 'BR_Position', 'BR_Wheel', 'FL_Position', 'FL_Wheel', 'FR_Position', 'FR_Wheel'];(1.5707963705062866, 1110.2508544921875, 1.5707963705062866, 1108.147705078125, 1.5707963705062866, 1108.1431884765625, 1.5692623853683472, 1112.654541015625);(0.0, 0.0, 0.0, 0.0, 0.0, 0.0, 0.0, 0.0);(2.690000057220459, 59.18000030517578, 0.0, 5.380000114440918, 0.0, -2.690000057220459, 10.760000228881836, 0.0)
2024/05/03/12:51:15.695488;84125;1714765875;716905855;;['BL_Position', 'BL_Wheel', 'BR_Position', 'BR_Wheel', 'FL_Position', 'FL_Wheel', 'FR_Position', 'FR_Wheel'];(1.5707963705062866, 1110.249267578125, 1.572330355644226, 1108.1492919921875, 1.572330355644226, 1108.1431884765625, 1.5692623853683472, 1112.6561279296875);(0.0, 0.0, 0.0, 0.0, 0.0, 0.0, 0.0, 0.0);(0.0, 59.18000030517578, 0.0, 5.380000114440918, 0.0, -2.690000057220459, 8.069999694824219, 0.0)
2024/05/03/12:51:15.711193;84126;1714765875;732960094;;['BL_Position', 'BL_Wheel', 'BR_Position', 'BR_Wheel', 'FL_Position', 'FL_Wheel', 'FR_Position', 'FR_Wheel'];(1.5707963705062866, 1110.249267578125, 1.572330355644226, 1108.1492919921875, 1.5707963705062866, 1108.1431884765625, 1.5707963705062866, 1112.6561279296875);(0.0, 0.0, 0.0, 0.0, 0.0, 0.0, 0.0, 0.0);(0.0, 59.18000030517578, 0.0, 5.380000114440918, 0.0, -2.690000057220459, 10.760000228881836, 0.0)
2024/05/03/12:51:15.727086;84127;1714765875;748923777;;['BL_Position', 'BL_Wheel', 'BR_Position', 'BR_Wheel', 'FL_Position', 'FL_Wheel', 'FR_Position', 'FR_Wheel'];(1.5707963705062866, 1110.2508544921875, 1.5707963705062866, 1108.147705078125, 1.5707963705062866, 1108.1416015625, 1.5707963705062866, 1112.654541015625);(0.0, 0.0, 0.0, 0.0, 0.0, 0.0, 0.0, 0.0);(2.690000057220459, 59.18000030517578, 0.0, 5.380000114440918, 0.0, -2.690000057220459, 8.069999694824219, 0.0)
2024/05/03/12:51:15.743627;84128;1714765875;765027553;;['BL_Position', 'BL_Wheel', 'BR_Position', 'BR_Wheel', 'FL_Position', 'FL_Wheel', 'FR_Position', 'FR_Wheel'];(1.5707963705062866, 1110.2508544921875, 1.5707963705062866, 1108.147705078125, 1.572330355644226, 1108.1431884765625, 1.5692623853683472, 1112.654541015625);(0.0, 0.0, 0.0, 0.0, 0.0, 0.0, 0.0, 0.0);(2.690000057220459, 59.18000030517578, 0.0, 5.380000114440918, 0.0, -2.690000057220459, 10.760000228881836, 0.0)
2024/05/03/12:51:15.759628;84129;1714765875;780978866;;['BL_Position', 'BL_Wheel', 'BR_Position', 'BR_Wheel', 'FL_Position', 'FL_Wheel', 'FR_Position', 'FR_Wheel'];(1.5707963705062866, 1110.2508544921875, 1.572330355644226, 1108.147705078125, 1.5707963705062866, 1108.1431884765625, 1.5692623853683472, 1112.654541015625);(0.0, 0.0, 0.0, 0.0, 0.0, 0.0, 0.0, 0.0);(0.0, 59.18000030517578, 0.0, 5.380000114440918, 0.0, -2.690000057220459, 10.760000228881836, 0.0)
2024/05/03/12:51:15.780016;84130;1714765875;796917253;;['BL_Position', 'BL_Wheel', 'BR_Position', 'BR_Wheel', 'FL_Position', 'FL_Wheel', 'FR_Position', 'FR_Wheel'];(1.5707963705062866, 1110.249267578125, 1.5707963705062866, 1108.147705078125, 1.5707963705062866, 1108.1431884765625, 1.5692623853683472, 1112.6561279296875);(0.0, 0.0, 0.0, 0.0, 0.0, 0.0, 0.0, 0.0);(0.0, 59.18000030517578, 0.0, 5.380000114440918, 0.0, -2.690000057220459, 10.760000228881836, 0.0)
2024/05/03/12:51:15.793155;84131;1714765875;812907418;;['BL_Position', 'BL_Wheel', 'BR_Position', 'BR_Wheel', 'FL_Position', 'FL_Wheel', 'FR_Position', 'FR_Wheel'];(1.5707963705062866, 1110.2508544921875, 1.5707963705062866, 1108.1492919921875, 1.5707963705062866, 1108.1431884765625, 1.5692623853683472, 1112.6561279296875);(0.0, 0.0, 0.0, 0.0, 0.0, 0.0, 0.0, 0.0);(0.0, 59.18000030517578, 0.0, 5.380000114440918, 0.0, -2.690000057220459, 10.760000228881836, 0.0)
2024/05/03/12:51:15.807192;84132;1714765875;828904508;;['BL_Position', 'BL_Wheel', 'BR_Position', 'BR_Wheel', 'FL_Position', 'FL_Wheel', 'FR_Position', 'FR_Wheel'];(1.572330355644226, 1110.2508544921875, 1.5707963705062866, 1108.147705078125, 1.5707963705062866, 1108.1431884765625, 1.5692623853683472, 1112.6561279296875);(0.0, 0.0, 0.0, 0.0, 0.0, 0.0, 0.0, 0.0);(0.0, 59.18000030517578, 0.0, 5.380000114440918, 0.0, -2.690000057220459, 10.760000228881836, 0.0)
2024/05/03/12:51:15.823587;84133;1714765875;844927099;;['BL_Position', 'BL_Wheel', 'BR_Position', 'BR_Wheel', 'FL_Position', 'FL_Wheel', 'FR_Position', 'FR_Wheel'];(1.5707963705062866, 1110.2508544921875, 1.572330355644226, 1108.147705078125, 1.5707963705062866, 1108.1431884765625, 1.5692623853683472, 1112.6561279296875);(0.0, 0.0, 0.0, 0.0, 0.0, 0.0, 0.0, 0.0);(0.0, 59.18000030517578, 0.0, 5.380000114440918, 0.0, -2.690000057220459, 8.069999694824219, 0.0)
2024/05/03/12:51:15.840152;84134;1714765875;860924856;;['BL_Position', 'BL_Wheel', 'BR_Position', 'BR_Wheel', 'FL_Position', 'FL_Wheel', 'FR_Position', 'FR_Wheel'];(1.5707963705062866, 1110.2508544921875, 1.5707963705062866, 1108.147705078125, 1.5707963705062866, 1108.1431884765625, 1.5692623853683472, 1112.6561279296875);(0.0, 0.0, 0.0, 0.0, 0.0, 0.0, 0.0, 0.0);(0.0, 59.18000030517578, 0.0, 5.380000114440918, 0.0, -2.690000057220459, 5.380000114440918, 0.0)
2024/05/03/12:51:15.855052;84135;1714765875;877004614;;['BL_Position', 'BL_Wheel', 'BR_Position', 'BR_Wheel', 'FL_Position', 'FL_Wheel', 'FR_Position', 'FR_Wheel'];(1.5707963705062866, 1110.2508544921875, 1.5707963705062866, 1108.147705078125, 1.572330355644226, 1108.1431884765625, 1.5692623853683472, 1112.6561279296875);(0.0, 0.0, 0.0, 0.0, 0.0, 0.0, 0.0, 0.0);(0.0, 59.18000030517578, 0.0, 5.380000114440918, 0.0, -2.690000057220459, 10.760000228881836, 0.0)
2024/05/03/12:51:15.876791;84136;1714765875;892932186;;['BL_Position', 'BL_Wheel', 'BR_Position', 'BR_Wheel', 'FL_Position', 'FL_Wheel', 'FR_Position', 'FR_Wheel'];(1.5707963705062866, 1110.2508544921875, 1.5707963705062866, 1108.147705078125, 1.5707963705062866, 1108.1416015625, 1.5692623853683472, 1112.6561279296875);(0.0, 0.0, 0.0, 0.0, 0.0, 0.0, 0.0, 0.0);(0.0, 59.18000030517578, 0.0, 5.380000114440918, 0.0, -2.690000057220459, 10.760000228881836, 0.0)
2024/05/03/12:51:15.887326;84137;1714765875;909116425;;['BL_Position', 'BL_Wheel', 'BR_Position', 'BR_Wheel', 'FL_Position', 'FL_Wheel', 'FR_Position', 'FR_Wheel'];(1.5707963705062866, 1110.2508544921875, 1.5707963705062866, 1108.1492919921875, 1.572330355644226, 1108.1416015625, 1.5692623853683472, 1112.6561279296875);(0.0, 0.0, 0.0, 0.0, 0.0, 0.0, 0.0, 0.0);(0.0, 59.18000030517578, 0.0, 5.380000114440918, 0.0, -2.690000057220459, 10.760000228881836, 0.0)
2024/05/03/12:51:15.905733;84138;1714765875;925524404;;['BL_Position', 'BL_Wheel', 'BR_Position', 'BR_Wheel', 'FL_Position', 'FL_Wheel', 'FR_Position', 'FR_Wheel'];(1.572330355644226, 1110.2508544921875, 1.5707963705062866, 1108.147705078125, 1.5707963705062866, 1108.1431884765625, 1.5692623853683472, 1112.6561279296875);(0.0, 0.0, 0.0, 0.0, 0.0, 0.0, 0.0, 0.0);(0.0, 59.18000030517578, 0.0, 5.380000114440918, 0.0, -2.690000057220459, 10.760000228881836, 0.0)
2024/05/03/12:51:15.919066;84139;1714765875;940889939;;['BL_Position', 'BL_Wheel', 'BR_Position', 'BR_Wheel', 'FL_Position', 'FL_Wheel', 'FR_Position', 'FR_Wheel'];(1.572330355644226, 1110.2508544921875, 1.572330355644226, 1108.1492919921875, 1.5707963705062866, 1108.1431884765625, 1.5692623853683472, 1112.6561279296875);(0.0, 0.0, 0.0, 0.0, 0.0, 0.0, 0.0, 0.0);(0.0, 59.18000030517578, 0.0, 5.380000114440918, 0.0, -2.690000057220459, 10.760000228881836, 0.0)
2024/05/03/12:51:15.945825;84140;1714765875;956938567;;['BL_Position', 'BL_Wheel', 'BR_Position', 'BR_Wheel', 'FL_Position', 'FL_Wheel', 'FR_Position', 'FR_Wheel'];(1.5707963705062866, 1110.2508544921875, 1.5707963705062866, 1108.147705078125, 1.572330355644226, 1108.1416015625, 1.5692623853683472, 1112.6561279296875);(0.0, 0.0, 0.0, 0.0, 0.0, 0.0, 0.0, 0.0);(0.0, 59.18000030517578, 0.0, 5.380000114440918, 0.0, -2.690000057220459, 10.760000228881836, 0.0)
2024/05/03/12:51:15.951329;84141;1714765875;972919158;;['BL_Position', 'BL_Wheel', 'BR_Position', 'BR_Wheel', 'FL_Position', 'FL_Wheel', 'FR_Position', 'FR_Wheel'];(1.5707963705062866, 1110.2508544921875, 1.572330355644226, 1108.147705078125, 1.5707963705062866, 1108.1431884765625, 1.5692623853683472, 1112.654541015625);(0.0, 0.0, 0.0, 0.0, 0.0, 0.0, 0.0, 0.0);(0.0, 59.18000030517578, 0.0, 5.380000114440918, 0.0, -2.690000057220459, 10.760000228881836, 0.0)
2024/05/03/12:51:15.978610;84142;1714765875;988904285;;['BL_Position', 'BL_Wheel', 'BR_Position', 'BR_Wheel', 'FL_Position', 'FL_Wheel', 'FR_Position', 'FR_Wheel'];(1.5707963705062866, 1110.2508544921875, 1.572330355644226, 1108.147705078125, 1.5707963705062866, 1108.1431884765625, 1.5692623853683472, 1112.6561279296875);(0.0, 0.0, 0.0, 0.0, 0.0, 0.0, 0.0, 0.0);(0.0, 59.18000030517578, 0.0, 5.380000114440918, 0.0, -2.690000057220459, 10.760000228881836, 0.0)
2024/05/03/12:51:15.986405;84143;1714765876;4964802;;['BL_Position', 'BL_Wheel', 'BR_Position', 'BR_Wheel', 'FL_Position', 'FL_Wheel', 'FR_Position', 'FR_Wheel'];(1.5707963705062866, 1110.2508544921875, 1.572330355644226, 1108.1492919921875, 1.5707963705062866, 1108.1416015625, 1.5707963705062866, 1112.6561279296875);(0.0, 0.0, 0.0, 0.0, 0.0, 0.0, 0.0, 0.0);(0.0, 59.18000030517578, 0.0, 5.380000114440918, 0.0, -2.690000057220459, 8.069999694824219, 0.0)
2024/05/03/12:51:16.001045;84144;1714765876;20911985;;['BL_Position', 'BL_Wheel', 'BR_Position', 'BR_Wheel', 'FL_Position', 'FL_Wheel', 'FR_Position', 'FR_Wheel'];(1.572330355644226, 1110.2508544921875, 1.572330355644226, 1108.1492919921875, 1.5707963705062866, 1108.1431884765625, 1.5692623853683472, 1112.654541015625);(0.0, 0.0, 0.0, 0.0, 0.0, 0.0, 0.0, 0.0);(0.0, 59.18000030517578, 0.0, 5.380000114440918, 0.0, -2.690000057220459, 10.760000228881836, 0.0)
2024/05/03/12:51:16.016320;84145;1714765876;37009076;;['BL_Position', 'BL_Wheel', 'BR_Position', 'BR_Wheel', 'FL_Position', 'FL_Wheel', 'FR_Position', 'FR_Wheel'];(1.5707963705062866, 1110.249267578125, 1.5707963705062866, 1108.147705078125, 1.5707963705062866, 1108.1431884765625, 1.5692623853683472, 1112.6561279296875);(0.0, 0.0, 0.0, 0.0, 0.0, 0.0, 0.0, 0.0);(0.0, 59.18000030517578, 0.0, 5.380000114440918, 0.0, -2.690000057220459, 10.760000228881836, 0.0)
2024/05/03/12:51:16.032306;84146;1714765876;52907833;;['BL_Position', 'BL_Wheel', 'BR_Position', 'BR_Wheel', 'FL_Position', 'FL_Wheel', 'FR_Position', 'FR_Wheel'];(1.5707963705062866, 1110.2508544921875, 1.5707963705062866, 1108.147705078125, 1.572330355644226, 1108.1431884765625, 1.5707963705062866, 1112.6561279296875);(0.0, 0.0, 0.0, 0.0, 0.0, 0.0, 0.0, 0.0);(0.0, 59.18000030517578, 0.0, 5.380000114440918, 0.0, -2.690000057220459, 10.760000228881836, 0.0)
2024/05/03/12:51:16.048382;84147;1714765876;68909979;;['BL_Position', 'BL_Wheel', 'BR_Position', 'BR_Wheel', 'FL_Position', 'FL_Wheel', 'FR_Position', 'FR_Wheel'];(1.5707963705062866, 1110.249267578125, 1.5707963705062866, 1108.147705078125, 1.5707963705062866, 1108.1431884765625, 1.5692623853683472, 1112.6561279296875);(0.0, 0.0, 0.0, 0.0, 0.0, 0.0, 0.0, 0.0);(0.0, 59.18000030517578, 0.0, 5.380000114440918, 0.0, -2.690000057220459, 8.069999694824219, 0.0)
2024/05/03/12:51:16.063496;84148;1714765876;84889181;;['BL_Position', 'BL_Wheel', 'BR_Position', 'BR_Wheel', 'FL_Position', 'FL_Wheel', 'FR_Position', 'FR_Wheel'];(1.572330355644226, 1110.2508544921875, 1.5707963705062866, 1108.147705078125, 1.572330355644226, 1108.1431884765625, 1.5692623853683472, 1112.654541015625);(0.0, 0.0, 0.0, 0.0, 0.0, 0.0, 0.0, 0.0);(0.0, 59.18000030517578, 0.0, 5.380000114440918, 0.0, -2.690000057220459, 10.760000228881836, 0.0)
2024/05/03/12:51:16.083258;84149;1714765876;100946605;;['BL_Position', 'BL_Wheel', 'BR_Position', 'BR_Wheel', 'FL_Position', 'FL_Wheel', 'FR_Position', 'FR_Wheel'];(1.5707963705062866, 1110.249267578125, 1.5707963705062866, 1108.1492919921875, 1.5707963705062866, 1108.1431884765625, 1.5707963705062866, 1112.6561279296875);(0.0, 0.0, 0.0, 0.0, 0.0, 0.0, 0.0, 0.0);(0.0, 59.18000030517578, 0.0, 5.380000114440918, 0.0, -2.690000057220459, 8.069999694824219, 0.0)
2024/05/03/12:51:16.095345;84150;1714765876;116971159;;['BL_Position', 'BL_Wheel', 'BR_Position', 'BR_Wheel', 'FL_Position', 'FL_Wheel', 'FR_Position', 'FR_Wheel'];(1.5707963705062866, 1110.249267578125, 1.572330355644226, 1108.147705078125, 1.5707963705062866, 1108.1431884765625, 1.5692623853683472, 1112.654541015625);(0.0, 0.0, 0.0, 0.0, 0.0, 0.0, 0.0, 0.0);(0.0, 59.18000030517578, 0.0, 5.380000114440918, 0.0, -2.690000057220459, 10.760000228881836, 0.0)
2024/05/03/12:51:16.111842;84151;1714765876;132996101;;['BL_Position', 'BL_Wheel', 'BR_Position', 'BR_Wheel', 'FL_Position', 'FL_Wheel', 'FR_Position', 'FR_Wheel'];(1.572330355644226, 1110.2508544921875, 1.5707963705062866, 1108.147705078125, 1.5707963705062866, 1108.1431884765625, 1.5707963705062866, 1112.6561279296875);(0.0, 0.0, 0.0, 0.0, 0.0, 0.0, 0.0, 0.0);(0.0, 59.18000030517578, 0.0, 5.380000114440918, 0.0, -2.690000057220459, 10.760000228881836, 0.0)
2024/05/03/12:51:16.129500;84152;1714765876;148898784;;['BL_Position', 'BL_Wheel', 'BR_Position', 'BR_Wheel', 'FL_Position', 'FL_Wheel', 'FR_Position', 'FR_Wheel'];(1.5707963705062866, 1110.2508544921875, 1.5707963705062866, 1108.147705078125, 1.5707963705062866, 1108.1431884765625, 1.5692623853683472, 1112.654541015625);(0.0, 0.0, 0.0, 0.0, 0.0, 0.0, 0.0, 0.0);(2.690000057220459, 59.18000030517578, 0.0, 5.380000114440918, 0.0, -2.690000057220459, 8.069999694824219, 0.0)
2024/05/03/12:51:16.144499;84153;1714765876;164979208;;['BL_Position', 'BL_Wheel', 'BR_Position', 'BR_Wheel', 'FL_Position', 'FL_Wheel', 'FR_Position', 'FR_Wheel'];(1.5707963705062866, 1110.249267578125, 1.5707963705062866, 1108.1492919921875, 1.572330355644226, 1108.1416015625, 1.5692623853683472, 1112.6561279296875);(0.0, 0.0, 0.0, 0.0, 0.0, 0.0, 0.0, 0.0);(0.0, 59.18000030517578, 0.0, 5.380000114440918, 0.0, -2.690000057220459, 10.760000228881836, 0.0)
2024/05/03/12:51:16.159900;84154;1714765876;180922892;;['BL_Position', 'BL_Wheel', 'BR_Position', 'BR_Wheel', 'FL_Position', 'FL_Wheel', 'FR_Position', 'FR_Wheel'];(1.572330355644226, 1110.2508544921875, 1.572330355644226, 1108.1492919921875, 1.5707963705062866, 1108.1416015625, 1.5692623853683472, 1112.654541015625);(0.0, 0.0, 0.0, 0.0, 0.0, 0.0, 0.0, 0.0);(0.0, 59.18000030517578, 0.0, 5.380000114440918, 0.0, -2.690000057220459, 10.760000228881836, 0.0)
2024/05/03/12:51:16.185136;84155;1714765876;196916371;;['BL_Position', 'BL_Wheel', 'BR_Position', 'BR_Wheel', 'FL_Position', 'FL_Wheel', 'FR_Position', 'FR_Wheel'];(1.5707963705062866, 1110.249267578125, 1.572330355644226, 1108.1492919921875, 1.5707963705062866, 1108.1431884765625, 1.5692623853683472, 1112.6561279296875);(0.0, 0.0, 0.0, 0.0, 0.0, 0.0, 0.0, 0.0);(0.0, 59.18000030517578, 0.0, 5.380000114440918, 0.0, -2.690000057220459, 10.760000228881836, 0.0)
2024/05/03/12:51:16.190965;84156;1714765876;212880036;;['BL_Position', 'BL_Wheel', 'BR_Position', 'BR_Wheel', 'FL_Position', 'FL_Wheel', 'FR_Position', 'FR_Wheel'];(1.5707963705062866, 1110.2508544921875, 1.5707963705062866, 1108.1492919921875, 1.5707963705062866, 1108.1431884765625, 1.5707963705062866, 1112.654541015625);(0.0, 0.0, 0.0, 0.0, 0.0, 0.0, 0.0, 0.0);(0.0, 59.18000030517578, 0.0, 5.380000114440918, 0.0, -2.690000057220459, 10.760000228881836, 0.0)
2024/05/03/12:51:16.207800;84157;1714765876;228916719;;['BL_Position', 'BL_Wheel', 'BR_Position', 'BR_Wheel', 'FL_Position', 'FL_Wheel', 'FR_Position', 'FR_Wheel'];(1.5707963705062866, 1110.2508544921875, 1.572330355644226, 1108.147705078125, 1.572330355644226, 1108.1431884765625, 1.5707963705062866, 1112.6561279296875);(0.0, 0.0, 0.0, 0.0, 0.0, 0.0, 0.0, 0.0);(0.0, 59.18000030517578, 0.0, 5.380000114440918, 0.0, -2.690000057220459, 10.760000228881836, 0.0)
2024/05/03/12:51:16.223289;84158;1714765876;244938847;;['BL_Position', 'BL_Wheel', 'BR_Position', 'BR_Wheel', 'FL_Position', 'FL_Wheel', 'FR_Position', 'FR_Wheel'];(1.5707963705062866, 1110.2508544921875, 1.572330355644226, 1108.147705078125, 1.5707963705062866, 1108.1431884765625, 1.5692623853683472, 1112.6561279296875);(0.0, 0.0, 0.0, 0.0, 0.0, 0.0, 0.0, 0.0);(0.0, 59.18000030517578, 0.0, 5.380000114440918, 0.0, -2.690000057220459, 10.760000228881836, 0.0)
2024/05/03/12:51:16.240670;84159;1714765876;260893512;;['BL_Position', 'BL_Wheel', 'BR_Position', 'BR_Wheel', 'FL_Position', 'FL_Wheel', 'FR_Position', 'FR_Wheel'];(1.5707963705062866, 1110.249267578125, 1.572330355644226, 1108.147705078125, 1.5707963705062866, 1108.1416015625, 1.5692623853683472, 1112.654541015625);(0.0, 0.0, 0.0, 0.0, 0.0, 0.0, 0.0, 0.0);(0.0, 59.18000030517578, 0.0, 5.380000114440918, 0.0, -2.690000057220459, 10.760000228881836, 0.0)
2024/05/03/12:51:16.260340;84160;1714765876;276922713;;['BL_Position', 'BL_Wheel', 'BR_Position', 'BR_Wheel', 'FL_Position', 'FL_Wheel', 'FR_Position', 'FR_Wheel'];(1.5707963705062866, 1110.2508544921875, 1.5707963705062866, 1108.147705078125, 1.5707963705062866, 1108.1431884765625, 1.5692623853683472, 1112.6561279296875);(0.0, 0.0, 0.0, 0.0, 0.0, 0.0, 0.0, 0.0);(0.0, 59.18000030517578, 0.0, 5.380000114440918, 0.0, -2.690000057220459, 10.760000228881836, 0.0)
2024/05/03/12:51:16.270392;84161;1714765876;292850749;;['BL_Position', 'BL_Wheel', 'BR_Position', 'BR_Wheel', 'FL_Position', 'FL_Wheel', 'FR_Position', 'FR_Wheel'];(1.5707963705062866, 1110.249267578125, 1.572330355644226, 1108.1492919921875, 1.5707963705062866, 1108.1431884765625, 1.5692623853683472, 1112.6561279296875);(0.0, 0.0, 0.0, 0.0, 0.0, 0.0, 0.0, 0.0);(0.0, 59.18000030517578, 0.0, 5.380000114440918, 0.0, -2.690000057220459, 10.760000228881836, 0.0)
2024/05/03/12:51:16.294007;84162;1714765876;308901135;;['BL_Position', 'BL_Wheel', 'BR_Position', 'BR_Wheel', 'FL_Position', 'FL_Wheel', 'FR_Position', 'FR_Wheel'];(1.572330355644226, 1110.2508544921875, 1.572330355644226, 1108.147705078125, 1.5707963705062866, 1108.1416015625, 1.5692623853683472, 1112.6561279296875);(0.0, 0.0, 0.0, 0.0, 0.0, 0.0, 0.0, 0.0);(0.0, 59.18000030517578, 0.0, 5.380000114440918, 0.0, -2.690000057220459, 10.760000228881836, 0.0)
2024/05/03/12:51:16.305105;84163;1714765876;324930374;;['BL_Position', 'BL_Wheel', 'BR_Position', 'BR_Wheel', 'FL_Position', 'FL_Wheel', 'FR_Position', 'FR_Wheel'];(1.5707963705062866, 1110.2554931640625, 1.5707963705062866, 1108.15087890625, 1.5707963705062866, 1108.1431884765625, 1.5692623853683472, 1112.6591796875);(0.0, 0.0, 0.0, 0.0, 0.0, 0.0, 0.0, 0.0);(0.0, 196.37001037597656, 0.0, 115.67000579833984, 0.0, 107.60000610351562, 10.760000228881836, 139.8800048828125)
2024/05/03/12:51:16.319426;84164;1714765876;340869965;;['BL_Position', 'BL_Wheel', 'BR_Position', 'BR_Wheel', 'FL_Position', 'FL_Wheel', 'FR_Position', 'FR_Wheel'];(1.5707963705062866, 1110.2738037109375, 1.572330355644226, 1108.167724609375, 1.572330355644226, 1108.1630859375, 1.5692623853683472, 1112.6776123046875);(0.0, 0.11990412324666977, 0.0, 0.0959232971072197, 0.0, 0.07194247096776962, 0.0, 0.0959232971072197);(0.0, 217.88999938964844, 0.0, 121.05000305175781, 0.0, 110.29000091552734, 10.760000228881836, 161.40000915527344)
2024/05/03/12:51:16.335544;84165;1714765876;356944444;;['BL_Position', 'BL_Wheel', 'BR_Position', 'BR_Wheel', 'FL_Position', 'FL_Wheel', 'FR_Position', 'FR_Wheel'];(1.5707963705062866, 1110.3045654296875, 1.572330355644226, 1108.199951171875, 1.5707963705062866, 1108.1937255859375, 1.5707963705062866, 1112.706787109375);(0.0, 0.40767401456832886, 0.0, 0.3597123622894287, 0.0, 0.33573153614997864, 0.0, 0.3597123622894287);(0.0, 212.510009765625, 0.0, 121.05000305175781, 0.0, 112.9800033569336, 10.760000228881836, 142.57000732421875)
2024/05/03/12:51:16.354204;84166;1714765876;372907091;;['BL_Position', 'BL_Wheel', 'BR_Position', 'BR_Wheel', 'FL_Position', 'FL_Wheel', 'FR_Position', 'FR_Wheel'];(1.5707963705062866, 1110.3443603515625, 1.5707963705062866, 1108.244384765625, 1.5707963705062866, 1108.23828125, 1.5692623853683472, 1112.7496337890625);(0.0, 0.8393288254737854, 0.0, 0.8153480291366577, 0.0, 0.7913671731948853, 0.0, 0.8153480291366577);(0.0, 185.61000061035156, 0.0, 104.91000366210938, 0.0, 88.77000427246094, 5.380000114440918, 94.1500015258789)
2024/05/03/12:51:16.366451;84167;1714765876;388931792;;['BL_Position', 'BL_Wheel', 'BR_Position', 'BR_Wheel', 'FL_Position', 'FL_Wheel', 'FR_Position', 'FR_Wheel'];(1.5707963705062866, 1110.39501953125, 1.5707963705062866, 1108.29345703125, 1.5707963705062866, 1108.2904052734375, 1.5692623853683472, 1112.80029296875);(0.0, 1.4388494491577148, 0.0, 1.4388494491577148, 0.0, 1.4388494491577148, 0.0, 1.3908878564834595);(0.0, 166.77999877929688, 0.0, 88.77000427246094, 0.0, 78.01000213623047, 10.760000228881836, 75.31999969482422)
2024/05/03/12:51:16.386895;84168;1714765876;404905531;;['BL_Position', 'BL_Wheel', 'BR_Position', 'BR_Wheel', 'FL_Position', 'FL_Wheel', 'FR_Position', 'FR_Wheel'];(1.5707963705062866, 1110.4517822265625, 1.5707963705062866, 1108.3548583984375, 1.5707963705062866, 1108.351806640625, 1.5692623853683472, 1112.860107421875);(0.0, 2.086331605911255, 0.0, 2.1342933177948, 0.0, 2.1582741737365723, 0.0, 2.1103124618530273);(2.690000057220459, 153.3300018310547, -10.760000228881836, 80.70000457763672, 0.0, 69.94000244140625, 0.0, 51.11000061035156)
2024/05/03/12:51:16.398864;84169;1714765876;421005752;;['BL_Position', 'BL_Wheel', 'BR_Position', 'BR_Wheel', 'FL_Position', 'FL_Wheel', 'FR_Position', 'FR_Wheel'];(1.5707963705062866, 1110.5146484375, 1.572330355644226, 1108.417724609375, 1.5707963705062866, 1108.4161376953125, 1.5692623853683472, 1112.919921875);(0.0, 2.685852289199829, 0.0, 2.7577948570251465, 0.0, 2.781775712966919, 0.0, 2.685852289199829);(0.0, 142.57000732421875, -10.760000228881836, 72.6300048828125, 0.0, 56.4900016784668, 2.690000057220459, 29.59000015258789)
2024/05/03/12:51:16.415364;84170;1714765876;436906083;;['BL_Position', 'BL_Wheel', 'BR_Position', 'BR_Wheel', 'FL_Position', 'FL_Wheel', 'FR_Position', 'FR_Wheel'];(1.5707963705062866, 1110.585205078125, 1.572330355644226, 1108.48681640625, 1.5707963705062866, 1108.48681640625, 1.5692623853683472, 1112.989013671875);(0.0, 3.213430404663086, 0.0, 3.2853729724884033, 0.0, 3.309353828430176, 0.0, 3.2374112606048584);(2.690000057220459, 131.80999755859375, -8.069999694824219, 64.55999755859375, 0.0, 48.42000198364258, 0.0, 16.139999389648438)
2024/05/03/12:51:16.430332;84171;1714765876;452876025;;['BL_Position', 'BL_Wheel', 'BR_Position', 'BR_Wheel', 'FL_Position', 'FL_Wheel', 'FR_Position', 'FR_Wheel'];(1.5707963705062866, 1110.65576171875, 1.572330355644226, 1108.5604248046875, 1.5707963705062866, 1108.558837890625, 1.5692623853683472, 1113.0626220703125);(0.0, 3.645085334777832, 0.0, 3.7170276641845703, 0.0, 3.7170276641845703, 0.0, 3.645085334777832);(2.690000057220459, 123.74000549316406, -8.069999694824219, 64.55999755859375, 0.0, 43.040000915527344, 0.0, 24.21000099182129)
2024/05/03/12:51:16.448121;84172;1714765876;468912172;;['BL_Position', 'BL_Wheel', 'BR_Position', 'BR_Wheel', 'FL_Position', 'FL_Wheel', 'FR_Position', 'FR_Wheel'];(1.5707963705062866, 1110.724853515625, 1.572330355644226, 1108.6309814453125, 1.5707963705062866, 1108.62939453125, 1.5692623853683472, 1113.134765625);(0.0, 3.956835985183716, 0.0, 4.004797458648682, 0.0, 4.028778553009033, 0.0, 3.956835985183716);(0.0, 112.9800033569336, -10.760000228881836, 67.25, 0.0, 34.970001220703125, 0.0, 24.21000099182129)
2024/05/03/12:51:16.463319;84173;1714765876;484911614;;['BL_Position', 'BL_Wheel', 'BR_Position', 'BR_Wheel', 'FL_Position', 'FL_Wheel', 'FR_Position', 'FR_Wheel'];(1.5707963705062866, 1110.7969970703125, 1.572330355644226, 1108.7030029296875, 1.5707963705062866, 1108.70458984375, 1.5692623853683472, 1113.206787109375);(0.0, 4.196644306182861, 0.0, 4.244606018066406, 0.0, 4.292567729949951, 0.0, 4.220624923706055);(0.0, 110.29000091552734, -8.069999694824219, 67.25, 0.0, 24.21000099182129, 0.0, 10.760000228881836)
2024/05/03/12:51:16.490963;84174;1714765876;500923779;;['BL_Position', 'BL_Wheel', 'BR_Position', 'BR_Wheel', 'FL_Position', 'FL_Wheel', 'FR_Position', 'FR_Wheel'];(1.5707963705062866, 1110.87060546875, 1.5707963705062866, 1108.7767333984375, 1.5707963705062866, 1108.77978515625, 1.5692623853683472, 1113.2835693359375);(0.0, 4.340528964996338, 0.0, 4.412471771240234, 0.0, 4.460433483123779, 0.0, 4.412471771240234);(0.0, 104.91000366210938, -8.069999694824219, 64.55999755859375, 0.0, 18.829999923706055, 0.0, 5.380000114440918)
2024/05/03/12:51:16.497117;84175;1714765876;516852981;;['BL_Position', 'BL_Wheel', 'BR_Position', 'BR_Wheel', 'FL_Position', 'FL_Wheel', 'FR_Position', 'FR_Wheel'];(1.5707963705062866, 1110.9442138671875, 1.572330355644226, 1108.8548583984375, 1.572330355644226, 1108.8533935546875, 1.5692623853683472, 1113.3602294921875);(0.0, 4.436452388763428, 0.0, 4.532375812530518, 0.0, 4.556356430053711, 0.0, 4.532375812530518);(0.0, 102.22000122070312, -8.069999694824219, 59.18000030517578, 0.0, 10.760000228881836, 0.0, 0.0)
2024/05/03/12:51:16.509693;84176;1714765876;532833701;;['BL_Position', 'BL_Wheel', 'BR_Position', 'BR_Wheel', 'FL_Position', 'FL_Wheel', 'FR_Position', 'FR_Wheel'];(1.5707963705062866, 1111.0147705078125, 1.5707963705062866, 1108.925537109375, 1.572330355644226, 1108.9239501953125, 1.5692623853683472, 1113.427734375);(0.0, 4.508395195007324, 0.0, 4.5803375244140625, 0.0, 4.628299236297607, 0.0, 4.604318141937256);(0.0, 96.84000396728516, -8.069999694824219, 48.42000198364258, 0.0, 2.690000057220459, 0.0, -10.760000228881836)
2024/05/03/12:51:16.527062;84177;1714765876;548866477;;['BL_Position', 'BL_Wheel', 'BR_Position', 'BR_Wheel', 'FL_Position', 'FL_Wheel', 'FR_Position', 'FR_Wheel'];(1.5707963705062866, 1111.0899658203125, 1.572330355644226, 1109.0006103515625, 1.5707963705062866, 1109.002197265625, 1.5707963705062866, 1113.5029296875);(0.0, 4.532375812530518, 0.0, 4.5803375244140625, 0.0, 4.628299236297607, 0.0, 4.604318141937256);(2.690000057220459, 96.84000396728516, -8.069999694824219, 43.040000915527344, 0.0, 2.690000057220459, 0.0, -10.760000228881836)
2024/05/03/12:51:16.543861;84178;1714765876;564880123;;['BL_Position', 'BL_Wheel', 'BR_Position', 'BR_Wheel', 'FL_Position', 'FL_Wheel', 'FR_Position', 'FR_Wheel'];(1.5707963705062866, 1111.158935546875, 1.572330355644226, 1109.066650390625, 1.5707963705062866, 1109.068115234375, 1.5692623853683472, 1113.5704345703125);(0.0, 4.532375812530518, 0.0, 4.556356430053711, 0.0, 4.604318141937256, 0.0, 4.5803375244140625);(-2.690000057220459, 86.08000183105469, 0.0, 21.520000457763672, -5.380000114440918, 0.0, 10.760000228881836, -26.900001525878906)
2024/05/03/12:51:16.561551;84179;1714765876;580924195;;['BL_Position', 'BL_Wheel', 'BR_Position', 'BR_Wheel', 'FL_Position', 'FL_Wheel', 'FR_Position', 'FR_Wheel'];(1.5707963705062866, 1111.2418212890625, 1.5707963705062866, 1109.1524658203125, 1.5707963705062866, 1109.1510009765625, 1.5707963705062866, 1113.65478515625);(0.0, 4.460433483123779, 0.0, 4.484414100646973, 0.0, 4.484414100646973, 0.0, 4.484414100646973);(-2.690000057220459, 88.77000427246094, 0.0, 8.069999694824219, -8.069999694824219, -2.690000057220459, 10.760000228881836, -37.65999984741211)
2024/05/03/12:51:16.575809;84180;1714765876;596921675;;['BL_Position', 'BL_Wheel', 'BR_Position', 'BR_Wheel', 'FL_Position', 'FL_Wheel', 'FR_Position', 'FR_Wheel'];(1.5707963705062866, 1111.289306640625, 1.5707963705062866, 1109.198486328125, 1.5707963705062866, 1109.198486328125, 1.5692623853683472, 1113.7022705078125);(0.0, 4.388490676879883, 0.0, 4.412471771240234, 0.0, 4.412471771240234, 0.0, 4.388490676879883);(-2.690000057220459, 86.08000183105469, 0.0, 2.690000057220459, -8.069999694824219, -10.760000228881836, 10.760000228881836, -43.040000915527344)
2024/05/03/12:51:16.595124;84181;1714765876;612883191;;['BL_Position', 'BL_Wheel', 'BR_Position', 'BR_Wheel', 'FL_Position', 'FL_Wheel', 'FR_Position', 'FR_Wheel'];(1.5707963705062866, 1111.3507080078125, 1.5707963705062866, 1109.261474609375, 1.5707963705062866, 1109.25830078125, 1.5692623853683472, 1113.7620849609375);(0.0, 4.244606018066406, 0.0, 4.2685866355896, 0.0, 4.244606018066406, 0.0, 4.244606018066406);(-2.690000057220459, 88.77000427246094, 0.0, 0.0, -8.069999694824219, -10.760000228881836, 10.760000228881836, -24.21000099182129)
2024/05/03/12:51:16.607557;84182;1714765876;629137967;;['BL_Position', 'BL_Wheel', 'BR_Position', 'BR_Wheel', 'FL_Position', 'FL_Wheel', 'FR_Position', 'FR_Wheel'];(1.5707963705062866, 1111.4044189453125, 1.572330355644226, 1109.316650390625, 1.5707963705062866, 1109.3135986328125, 1.5692623853683472, 1113.812744140625);(0.0, 4.076740264892578, 0.0, 4.1007208824157715, 0.0, 4.1007208824157715, 0.0, 4.076740264892578);(-2.690000057220459, 86.08000183105469, 0.0, 0.0, -8.069999694824219, -13.450000762939453, 10.760000228881836, -24.21000099182129)
2024/05/03/12:51:16.623180;84183;1714765876;644897280;;['BL_Position', 'BL_Wheel', 'BR_Position', 'BR_Wheel', 'FL_Position', 'FL_Wheel', 'FR_Position', 'FR_Wheel'];(1.5707963705062866, 1111.462646484375, 1.572330355644226, 1109.3734130859375, 1.5707963705062866, 1109.371826171875, 1.5692623853683472, 1113.87255859375);(0.0, 3.860912799835205, 0.0, 3.8848934173583984, 0.0, 3.8848934173583984, 0.0, 3.860912799835205);(-2.690000057220459, 99.52999877929688, 0.0, 2.690000057220459, -8.069999694824219, -8.069999694824219, 10.760000228881836, -13.450000762939453)
2024/05/03/12:51:16.640236;84184;1714765876;660900963;;['BL_Position', 'BL_Wheel', 'BR_Position', 'BR_Wheel', 'FL_Position', 'FL_Wheel', 'FR_Position', 'FR_Wheel'];(1.5707963705062866, 1111.5086669921875, 1.5707963705062866, 1109.4208984375, 1.5707963705062866, 1109.41943359375, 1.5692623853683472, 1113.921630859375);(0.0, 3.6690661907196045, 0.0, 3.693047046661377, 0.0, 3.693047046661377, 0.0, 3.6690661907196045);(-2.690000057220459, 88.77000427246094, 0.0, 0.0, -8.069999694824219, -13.450000762939453, 10.760000228881836, -10.760000228881836)
2024/05/03/12:51:16.658098;84185;1714765876;676893443;;['BL_Position', 'BL_Wheel', 'BR_Position', 'BR_Wheel', 'FL_Position', 'FL_Wheel', 'FR_Position', 'FR_Wheel'];(1.5707963705062866, 1111.5546875, 1.572330355644226, 1109.4654541015625, 1.5707963705062866, 1109.4638671875, 1.5692623853683472, 1113.9661865234375);(0.0, 3.4532387256622314, 0.0, 3.477219581604004, 0.0, 3.477219581604004, 0.0, 3.477219581604004);(-2.690000057220459, 91.45999908447266, 0.0, 0.0, -8.069999694824219, -16.139999389648438, 10.760000228881836, -5.380000114440918)
2024/05/03/12:51:16.671914;84186;1714765876;692892552;;['BL_Position', 'BL_Wheel', 'BR_Position', 'BR_Wheel', 'FL_Position', 'FL_Wheel', 'FR_Position', 'FR_Wheel'];(1.5707963705062866, 1111.59765625, 1.5707963705062866, 1109.511474609375, 1.5707963705062866, 1109.5084228515625, 1.5692623853683472, 1114.01220703125);(0.0, 3.2374112606048584, 0.0, 3.2374112606048584, 0.0, 3.261392116546631, 0.0, 3.261392116546631);(-13.450000762939453, 99.52999877929688, 0.0, 0.0, -21.520000457763672, -10.760000228881836, 10.760000228881836, 0.0)
2024/05/03/12:51:16.688276;84187;1714765876;708984772;;['BL_Position', 'BL_Wheel', 'BR_Position', 'BR_Wheel', 'FL_Position', 'FL_Wheel', 'FR_Position', 'FR_Wheel'];(1.5707963705062866, 1111.6390380859375, 1.572330355644226, 1109.5498046875, 1.5707963705062866, 1109.5482177734375, 1.5707963705062866, 1114.050537109375);(0.0, 3.0215837955474854, 0.0, 3.0215837955474854, 0.0, 3.045564651489258, 0.0, 3.0695455074310303);(-16.139999389648438, 96.84000396728516, 0.0, 0.0, -21.520000457763672, -10.760000228881836, 10.760000228881836, 0.0)
2024/05/03/12:51:16.705188;84188;1714765876;724952826;;['BL_Position', 'BL_Wheel', 'BR_Position', 'BR_Wheel', 'FL_Position', 'FL_Wheel', 'FR_Position', 'FR_Wheel'];(1.5707963705062866, 1111.6759033203125, 1.572330355644226, 1109.588134765625, 1.5707963705062866, 1109.5850830078125, 1.5692623853683472, 1114.0888671875);(0.0, 2.8297371864318848, 0.0, 2.8297371864318848, 0.0, 2.8297371864318848, 0.0, 2.8776988983154297);(-21.520000457763672, 94.1500015258789, 2.690000057220459, 0.0, -26.900001525878906, -10.760000228881836, 26.900001525878906, 0.0)
2024/05/03/12:51:16.719876;84189;1714765876;740903398;;['BL_Position', 'BL_Wheel', 'BR_Position', 'BR_Wheel', 'FL_Position', 'FL_Wheel', 'FR_Position', 'FR_Wheel'];(1.5707963705062866, 1111.711181640625, 1.572330355644226, 1109.6234130859375, 1.5707963705062866, 1109.620361328125, 1.5707963705062866, 1114.1241455078125);(0.0, 2.637890577316284, 0.0, 2.613909959793091, 0.0, 2.637890577316284, 0.0, 2.685852289199829);(-21.520000457763672, 96.84000396728516, 2.690000057220459, 0.0, -26.900001525878906, -10.760000228881836, 29.59000015258789, 0.0)
2024/05/03/12:51:16.736388;84190;1714765876;756920248;;['BL_Position', 'BL_Wheel', 'BR_Position', 'BR_Wheel', 'FL_Position', 'FL_Wheel', 'FR_Position', 'FR_Wheel'];(1.5707963705062866, 1111.743408203125, 1.5707963705062866, 1109.6556396484375, 1.5707963705062866, 1109.6510009765625, 1.5707963705062866, 1114.15478515625);(0.0, 2.470024824142456, 0.0, 2.4460439682006836, 0.0, 2.4460439682006836, 0.0, 2.4940056800842285);(-21.520000457763672, 99.52999877929688, 2.690000057220459, 2.690000057220459, -26.900001525878906, -8.069999694824219, 26.900001525878906, 0.0)
2024/05/03/12:51:16.750279;84191;1714765876;772854820;;['BL_Position', 'BL_Wheel', 'BR_Position', 'BR_Wheel', 'FL_Position', 'FL_Wheel', 'FR_Position', 'FR_Wheel'];(1.5707963705062866, 1111.7740478515625, 1.572330355644226, 1109.6878662109375, 1.5707963705062866, 1109.6817626953125, 1.5707963705062866, 1114.185546875);(0.0, 2.302159070968628, 0.0, 2.2781782150268555, 0.0, 2.2781782150268555, 0.0, 2.3261399269104004);(-21.520000457763672, 94.1500015258789, 2.690000057220459, 2.690000057220459, -26.900001525878906, -5.380000114440918, 29.59000015258789, 2.690000057220459)
2024/05/03/12:51:16.768056;84192;1714765876;788897707;;['BL_Position', 'BL_Wheel', 'BR_Position', 'BR_Wheel', 'FL_Position', 'FL_Wheel', 'FR_Position', 'FR_Wheel'];(1.5707963705062866, 1111.80322265625, 1.5707963705062866, 1109.7154541015625, 1.5707963705062866, 1109.7109375, 1.5692623853683472, 1114.2161865234375);(0.0, 2.1342933177948, 0.0, 2.1342933177948, 0.0, 2.1342933177948, 0.0, 2.1582741737365723);(-21.520000457763672, 99.52999877929688, 5.380000114440918, 2.690000057220459, -26.900001525878906, -5.380000114440918, 26.900001525878906, 5.380000114440918)
2024/05/03/12:51:16.787578;84193;1714765876;805008242;;['BL_Position', 'BL_Wheel', 'BR_Position', 'BR_Wheel', 'FL_Position', 'FL_Wheel', 'FR_Position', 'FR_Wheel'];(1.5707963705062866, 1111.830810546875, 1.5707963705062866, 1109.7430419921875, 1.5707963705062866, 1109.7369384765625, 1.5692623853683472, 1114.2423095703125);(0.0, 2.0143892765045166, 0.0, 2.0143892765045166, 0.0, 2.0143892765045166, 0.0, 2.0143892765045166);(-29.59000015258789, 104.91000366210938, 5.380000114440918, 5.380000114440918, -37.65999984741211, -5.380000114440918, 43.040000915527344, 5.380000114440918)
