time;.header.seq;.header.stamp.secs;.header.stamp.nsecs;.header.frame_id;.name;.position;.velocity;.effort
2024/05/03/13:20:04.840815;192201;1714767604;869910592;;['BL_Position', 'BL_Wheel', 'BR_Position', 'BR_Wheel', 'FL_Position', 'FL_Wheel', 'FR_Position', 'FR_Wheel'];(0.0, 2555.23779296875, 0.006135923322290182, 2663.266845703125, -0.0015339808305725455, 2553.52734375, 0.0, 2667.569580078125);(0.0, 0.0, 0.0, 0.0, 0.0, 0.0, 0.0, 0.0);(8.069999694824219, 86.08000183105469, -61.87000274658203, 5.380000114440918, 13.450000762939453, 2.690000057220459, 0.0, 0.0)
2024/05/03/13:20:04.857038;192202;1714767604;886294481;;['BL_Position', 'BL_Wheel', 'BR_Position', 'BR_Wheel', 'FL_Position', 'FL_Wheel', 'FR_Position', 'FR_Wheel'];(-0.0015339808305725455, 2555.236328125, 0.006135923322290182, 2663.266845703125, -0.003067961661145091, 2553.52734375, 0.0, 2667.568115234375);(0.0, 0.0, 0.0, 0.0, 0.0, 0.0, 0.0, 0.0);(5.380000114440918, 86.08000183105469, -61.87000274658203, 5.380000114440918, 26.900001525878906, 2.690000057220459, 0.0, 0.0)
2024/05/03/13:20:04.872507;192203;1714767604;901945962;;['BL_Position', 'BL_Wheel', 'BR_Position', 'BR_Wheel', 'FL_Position', 'FL_Wheel', 'FR_Position', 'FR_Wheel'];(0.0, 2555.236328125, 0.006135923322290182, 2663.266845703125, -0.0015339808305725455, 2553.52734375, 0.0, 2667.568115234375);(0.0, 0.0, 0.0, 0.0, 0.0, 0.0, 0.0, 0.0);(5.380000114440918, 86.08000183105469, -61.87000274658203, 5.380000114440918, 40.35000228881836, 2.690000057220459, 0.0, 0.0)
2024/05/03/13:20:04.888747;192204;1714767604;918171776;;['BL_Position', 'BL_Wheel', 'BR_Position', 'BR_Wheel', 'FL_Position', 'FL_Wheel', 'FR_Position', 'FR_Wheel'];(0.0, 2555.236328125, 0.006135923322290182, 2663.266845703125, -0.0015339808305725455, 2553.52734375, 0.0, 2667.568115234375);(0.0, 0.0, 0.0, 0.0, 0.0, 0.0, 0.0, 0.0);(5.380000114440918, 86.08000183105469, -61.87000274658203, 5.380000114440918, 37.65999984741211, 2.690000057220459, 0.0, 0.0)
2024/05/03/13:20:04.906475;192205;1714767604;933976850;;['BL_Position', 'BL_Wheel', 'BR_Position', 'BR_Wheel', 'FL_Position', 'FL_Wheel', 'FR_Position', 'FR_Wheel'];(0.0, 2555.236328125, 0.006135923322290182, 2663.268310546875, -0.003067961661145091, 2553.52734375, 0.0, 2667.569580078125);(0.0, 0.0, 0.0, 0.0, 0.0, 0.0, 0.0, 0.0);(5.380000114440918, 86.08000183105469, -61.87000274658203, 5.380000114440918, 26.900001525878906, 2.690000057220459, 0.0, 0.0)
2024/05/03/13:20:04.923804;192206;1714767604;950039275;;['BL_Position', 'BL_Wheel', 'BR_Position', 'BR_Wheel', 'FL_Position', 'FL_Wheel', 'FR_Position', 'FR_Wheel'];(0.0, 2555.236328125, 0.006135923322290182, 2663.266845703125, -0.003067961661145091, 2553.52734375, 0.0, 2667.569580078125);(0.0, 0.0, 0.0, 0.0, 0.0, 0.0, 0.0, 0.0);(5.380000114440918, 86.08000183105469, -61.87000274658203, 5.380000114440918, 24.21000099182129, 2.690000057220459, 0.0, 0.0)
2024/05/03/13:20:04.936313;192207;1714767604;965980979;;['BL_Position', 'BL_Wheel', 'BR_Position', 'BR_Wheel', 'FL_Position', 'FL_Wheel', 'FR_Position', 'FR_Wheel'];(0.0, 2555.236328125, 0.006135923322290182, 2663.266845703125, -0.003067961661145091, 2553.52734375, 0.0, 2667.568115234375);(0.0, 0.0, 0.0, 0.0, 0.0, 0.0, 0.0, 0.0);(5.380000114440918, 86.08000183105469, -61.87000274658203, 5.380000114440918, 26.900001525878906, 2.690000057220459, 0.0, 0.0)
2024/05/03/13:20:04.951914;192208;1714767604;981857812;;['BL_Position', 'BL_Wheel', 'BR_Position', 'BR_Wheel', 'FL_Position', 'FL_Wheel', 'FR_Position', 'FR_Wheel'];(-0.0015339808305725455, 2555.236328125, 0.006135923322290182, 2663.268310546875, -0.0015339808305725455, 2553.52734375, 0.0, 2667.568115234375);(0.0, 0.0, 0.0, 0.0, 0.0, 0.0, 0.0, 0.0);(5.380000114440918, 86.08000183105469, -61.87000274658203, 5.380000114440918, 48.42000198364258, 2.690000057220459, 0.0, 0.0)
2024/05/03/13:20:04.968613;192209;1714767604;997892422;;['BL_Position', 'BL_Wheel', 'BR_Position', 'BR_Wheel', 'FL_Position', 'FL_Wheel', 'FR_Position', 'FR_Wheel'];(0.0, 2555.236328125, 0.006135923322290182, 2663.266845703125, -0.0015339808305725455, 2553.52734375, 0.0, 2667.569580078125);(0.0, 0.0, 0.0, 0.0, 0.0, 0.0, 0.0, 0.0);(5.380000114440918, 86.08000183105469, -61.87000274658203, 5.380000114440918, 26.900001525878906, 2.690000057220459, 0.0, 0.0)
2024/05/03/13:20:04.984470;192210;1714767605;13866922;;['BL_Position', 'BL_Wheel', 'BR_Position', 'BR_Wheel', 'FL_Position', 'FL_Wheel', 'FR_Position', 'FR_Wheel'];(0.0, 2555.236328125, 0.006135923322290182, 2663.266845703125, -0.0015339808305725455, 2553.52734375, 0.0, 2667.569580078125);(0.0, 0.0, 0.0, 0.0, 0.0, 0.0, 0.0, 0.0);(5.380000114440918, 86.08000183105469, -61.87000274658203, 5.380000114440918, 51.11000061035156, 2.690000057220459, 0.0, 0.0)
2024/05/03/13:20:05.012012;192211;1714767605;29873236;;['BL_Position', 'BL_Wheel', 'BR_Position', 'BR_Wheel', 'FL_Position', 'FL_Wheel', 'FR_Position', 'FR_Wheel'];(0.0, 2555.23779296875, 0.006135923322290182, 2663.268310546875, -0.0015339808305725455, 2553.52734375, 0.0, 2667.568115234375);(0.0, 0.0, 0.0, 0.0, 0.0, 0.0, 0.0, 0.0);(5.380000114440918, 86.08000183105469, -61.87000274658203, 5.380000114440918, 32.279998779296875, 2.690000057220459, 0.0, 0.0)
2024/05/03/13:20:05.016505;192212;1714767605;45857236;;['BL_Position', 'BL_Wheel', 'BR_Position', 'BR_Wheel', 'FL_Position', 'FL_Wheel', 'FR_Position', 'FR_Wheel'];(0.0, 2555.236328125, 0.006135923322290182, 2663.266845703125, -0.003067961661145091, 2553.52734375, 0.0, 2667.569580078125);(0.0, 0.0, 0.0, 0.0, 0.0, 0.0, 0.0, 0.0);(5.380000114440918, 86.08000183105469, -61.87000274658203, 5.380000114440918, 29.59000015258789, 2.690000057220459, 0.0, 0.0)
2024/05/03/13:20:05.038750;192213;1714767605;61888365;;['BL_Position', 'BL_Wheel', 'BR_Position', 'BR_Wheel', 'FL_Position', 'FL_Wheel', 'FR_Position', 'FR_Wheel'];(0.0, 2555.236328125, 0.006135923322290182, 2663.268310546875, -0.0015339808305725455, 2553.52734375, 0.0, 2667.569580078125);(0.0, 0.0, 0.0, 0.0, 0.0, 0.0, 0.0, 0.0);(5.380000114440918, 86.08000183105469, -61.87000274658203, 5.380000114440918, 40.35000228881836, 2.690000057220459, 0.0, 0.0)
2024/05/03/13:20:05.050391;192214;1714767605;77925957;;['BL_Position', 'BL_Wheel', 'BR_Position', 'BR_Wheel', 'FL_Position', 'FL_Wheel', 'FR_Position', 'FR_Wheel'];(0.0, 2555.236328125, 0.006135923322290182, 2663.266845703125, -0.0015339808305725455, 2553.52734375, 0.0, 2667.568115234375);(0.0, 0.0, 0.0, 0.0, 0.0, 0.0, 0.0, 0.0);(5.380000114440918, 86.08000183105469, -59.18000030517578, 5.380000114440918, 34.970001220703125, 2.690000057220459, 0.0, 0.0)
2024/05/03/13:20:05.064172;192215;1714767605;93918753;;['BL_Position', 'BL_Wheel', 'BR_Position', 'BR_Wheel', 'FL_Position', 'FL_Wheel', 'FR_Position', 'FR_Wheel'];(-0.0015339808305725455, 2555.236328125, 0.006135923322290182, 2663.268310546875, -0.003067961661145091, 2553.52734375, 0.0, 2667.568115234375);(0.0, 0.0, 0.0, 0.0, 0.0, 0.0, 0.0, 0.0);(5.380000114440918, 86.08000183105469, -61.87000274658203, 5.380000114440918, 24.21000099182129, 2.690000057220459, 0.0, 0.0)
2024/05/03/13:20:05.081283;192216;1714767605;109919272;;['BL_Position', 'BL_Wheel', 'BR_Position', 'BR_Wheel', 'FL_Position', 'FL_Wheel', 'FR_Position', 'FR_Wheel'];(0.0, 2555.236328125, 0.006135923322290182, 2663.266845703125, -0.003067961661145091, 2553.52734375, 0.0, 2667.568115234375);(0.0, 0.0, 0.0, 0.0, 0.0, 0.0, 0.0, 0.0);(5.380000114440918, 86.08000183105469, -61.87000274658203, 5.380000114440918, 16.139999389648438, 2.690000057220459, 0.0, 0.0)
2024/05/03/13:20:05.096625;192217;1714767605;126035123;;['BL_Position', 'BL_Wheel', 'BR_Position', 'BR_Wheel', 'FL_Position', 'FL_Wheel', 'FR_Position', 'FR_Wheel'];(0.0, 2555.236328125, 0.006135923322290182, 2663.268310546875, -0.0015339808305725455, 2553.52734375, 0.0, 2667.569580078125);(0.0, 0.0, 0.0, 0.0, 0.0, 0.0, 0.0, 0.0);(5.380000114440918, 86.08000183105469, -61.87000274658203, 5.380000114440918, 10.760000228881836, 2.690000057220459, 0.0, 0.0)
2024/05/03/13:20:05.111205;192218;1714767605;141976252;;['BL_Position', 'BL_Wheel', 'BR_Position', 'BR_Wheel', 'FL_Position', 'FL_Wheel', 'FR_Position', 'FR_Wheel'];(0.0, 2555.236328125, 0.006135923322290182, 2663.268310546875, -0.003067961661145091, 2553.52734375, 0.0, 2667.569580078125);(0.0, 0.0, 0.0, 0.0, 0.0, 0.0, 0.0, 0.0);(5.380000114440918, 86.08000183105469, -61.87000274658203, 5.380000114440918, 13.450000762939453, 2.690000057220459, 0.0, 0.0)
2024/05/03/13:20:05.133735;192219;1714767605;158054030;;['BL_Position', 'BL_Wheel', 'BR_Position', 'BR_Wheel', 'FL_Position', 'FL_Wheel', 'FR_Position', 'FR_Wheel'];(0.0, 2555.236328125, 0.006135923322290182, 2663.268310546875, -0.003067961661145091, 2553.52587890625, 0.0, 2667.568115234375);(0.0, 0.0, 0.0, 0.0, 0.0, 0.0, 0.0, 0.0);(5.380000114440918, 86.08000183105469, -59.18000030517578, 5.380000114440918, 13.450000762939453, 2.690000057220459, 0.0, 0.0)
2024/05/03/13:20:05.144797;192220;1714767605;173888048;;['BL_Position', 'BL_Wheel', 'BR_Position', 'BR_Wheel', 'FL_Position', 'FL_Wheel', 'FR_Position', 'FR_Wheel'];(0.0, 2555.236328125, 0.006135923322290182, 2663.268310546875, -0.003067961661145091, 2553.52734375, 0.0, 2667.569580078125);(0.0, 0.0, 0.0, 0.0, 0.0, 0.0, 0.0, 0.0);(5.380000114440918, 86.08000183105469, -61.87000274658203, 5.380000114440918, 10.760000228881836, 2.690000057220459, 0.0, 0.0)
2024/05/03/13:20:05.160430;192221;1714767605;189937288;;['BL_Position', 'BL_Wheel', 'BR_Position', 'BR_Wheel', 'FL_Position', 'FL_Wheel', 'FR_Position', 'FR_Wheel'];(0.0, 2555.236328125, 0.006135923322290182, 2663.266845703125, -0.003067961661145091, 2553.52734375, 0.0, 2667.568115234375);(0.0, 0.0, 0.0, 0.0, 0.0, 0.0, 0.0, 0.0);(5.380000114440918, 86.08000183105469, -61.87000274658203, 5.380000114440918, 18.829999923706055, 2.690000057220459, 0.0, 0.0)
2024/05/03/13:20:05.176736;192222;1714767605;205931843;;['BL_Position', 'BL_Wheel', 'BR_Position', 'BR_Wheel', 'FL_Position', 'FL_Wheel', 'FR_Position', 'FR_Wheel'];(0.0, 2555.236328125, 0.006135923322290182, 2663.268310546875, -0.003067961661145091, 2553.52734375, 0.0, 2667.568115234375);(0.0, 0.0, 0.0, 0.0, 0.0, 0.0, 0.0, 0.0);(5.380000114440918, 86.08000183105469, -61.87000274658203, 5.380000114440918, 16.139999389648438, 2.690000057220459, 0.0, 0.0)
2024/05/03/13:20:05.192502;192223;1714767605;221909417;;['BL_Position', 'BL_Wheel', 'BR_Position', 'BR_Wheel', 'FL_Position', 'FL_Wheel', 'FR_Position', 'FR_Wheel'];(-0.0015339808305725455, 2555.236328125, 0.006135923322290182, 2663.266845703125, -0.0015339808305725455, 2553.52734375, 0.0, 2667.568115234375);(0.0, 0.0, 0.0, 0.0, 0.0, 0.0, 0.0, 0.0);(5.380000114440918, 86.08000183105469, -59.18000030517578, 5.380000114440918, 16.139999389648438, 2.690000057220459, 0.0, 0.0)
2024/05/03/13:20:05.216194;192224;1714767605;237903954;;['BL_Position', 'BL_Wheel', 'BR_Position', 'BR_Wheel', 'FL_Position', 'FL_Wheel', 'FR_Position', 'FR_Wheel'];(0.0, 2555.236328125, 0.006135923322290182, 2663.266845703125, -0.0015339808305725455, 2553.52734375, 0.0, 2667.568115234375);(0.0, 0.0, 0.0, 0.0, 0.0, 0.0, 0.0, 0.0);(5.380000114440918, 86.08000183105469, -61.87000274658203, 5.380000114440918, 29.59000015258789, 2.690000057220459, 0.0, 0.0)
2024/05/03/13:20:05.236226;192225;1714767605;256734305;;['BL_Position', 'BL_Wheel', 'BR_Position', 'BR_Wheel', 'FL_Position', 'FL_Wheel', 'FR_Position', 'FR_Wheel'];(0.0, 2555.236328125, 0.006135923322290182, 2663.268310546875, -0.003067961661145091, 2553.52587890625, 0.0, 2667.568115234375);(0.0, 0.0, 0.0, 0.0, 0.0, 0.0, 0.0, 0.0);(5.380000114440918, 86.08000183105469, -61.87000274658203, 5.380000114440918, 34.970001220703125, 2.690000057220459, 0.0, 0.0)
2024/05/03/13:20:05.245739;192226;1714767605;269895805;;['BL_Position', 'BL_Wheel', 'BR_Position', 'BR_Wheel', 'FL_Position', 'FL_Wheel', 'FR_Position', 'FR_Wheel'];(0.0, 2555.236328125, 0.006135923322290182, 2663.266845703125, -0.003067961661145091, 2553.52734375, 0.0, 2667.568115234375);(0.0, 0.0, 0.0, 0.0, 0.0, 0.0, 0.0, 0.0);(5.380000114440918, 86.08000183105469, -61.87000274658203, 5.380000114440918, 10.760000228881836, 2.690000057220459, 0.0, 0.0)
2024/05/03/13:20:05.256626;192227;1714767605;285861675;;['BL_Position', 'BL_Wheel', 'BR_Position', 'BR_Wheel', 'FL_Position', 'FL_Wheel', 'FR_Position', 'FR_Wheel'];(0.0, 2555.236328125, 0.006135923322290182, 2663.268310546875, -0.0015339808305725455, 2553.52734375, 0.0, 2667.568115234375);(0.0, 0.0, 0.0, 0.0, 0.0, 0.0, 0.0, 0.0);(5.380000114440918, 86.08000183105469, -61.87000274658203, 5.380000114440918, 40.35000228881836, 2.690000057220459, 0.0, 0.0)
2024/05/03/13:20:05.272939;192228;1714767605;301982952;;['BL_Position', 'BL_Wheel', 'BR_Position', 'BR_Wheel', 'FL_Position', 'FL_Wheel', 'FR_Position', 'FR_Wheel'];(0.0, 2555.236328125, 0.006135923322290182, 2663.266845703125, -0.003067961661145091, 2553.52734375, 0.0, 2667.568115234375);(0.0, 0.0, 0.0, 0.0, 0.0, 0.0, 0.0, 0.0);(5.380000114440918, 86.08000183105469, -61.87000274658203, 5.380000114440918, 37.65999984741211, 2.690000057220459, 0.0, 0.0)
2024/05/03/13:20:05.288219;192229;1714767605;317886507;;['BL_Position', 'BL_Wheel', 'BR_Position', 'BR_Wheel', 'FL_Position', 'FL_Wheel', 'FR_Position', 'FR_Wheel'];(0.0, 2555.236328125, 0.006135923322290182, 2663.268310546875, -0.0015339808305725455, 2553.52734375, 0.0, 2667.568115234375);(0.0, 0.0, 0.0, 0.0, 0.0, 0.0, 0.0, 0.0);(5.380000114440918, 86.08000183105469, -61.87000274658203, 5.380000114440918, 48.42000198364258, 2.690000057220459, 0.0, 0.0)
2024/05/03/13:20:05.304593;192230;1714767605;333901507;;['BL_Position', 'BL_Wheel', 'BR_Position', 'BR_Wheel', 'FL_Position', 'FL_Wheel', 'FR_Position', 'FR_Wheel'];(0.0, 2555.236328125, 0.006135923322290182, 2663.266845703125, -0.0015339808305725455, 2553.52734375, 0.0, 2667.569580078125);(0.0, 0.0, 0.0, 0.0, 0.0, 0.0, 0.0, 0.0);(5.380000114440918, 86.08000183105469, -61.87000274658203, 5.380000114440918, 24.21000099182129, 2.690000057220459, 0.0, 0.0)
2024/05/03/13:20:05.320478;192231;1714767605;349882858;;['BL_Position', 'BL_Wheel', 'BR_Position', 'BR_Wheel', 'FL_Position', 'FL_Wheel', 'FR_Position', 'FR_Wheel'];(0.0, 2555.236328125, 0.006135923322290182, 2663.266845703125, -0.0015339808305725455, 2553.52734375, 0.0, 2667.569580078125);(0.0, 0.0, 0.0, 0.0, 0.0, 0.0, 0.0, 0.0);(5.380000114440918, 86.08000183105469, -61.87000274658203, 5.380000114440918, 21.520000457763672, 2.690000057220459, 0.0, 0.0)
2024/05/03/13:20:05.341969;192232;1714767605;365856247;;['BL_Position', 'BL_Wheel', 'BR_Position', 'BR_Wheel', 'FL_Position', 'FL_Wheel', 'FR_Position', 'FR_Wheel'];(0.0, 2555.236328125, 0.006135923322290182, 2663.268310546875, -0.003067961661145091, 2553.52734375, 0.0, 2667.569580078125);(0.0, 0.0, 0.0, 0.0, 0.0, 0.0, 0.0, 0.0);(5.380000114440918, 86.08000183105469, -61.87000274658203, 5.380000114440918, 18.829999923706055, 2.690000057220459, 0.0, 0.0)
2024/05/03/13:20:05.352137;192233;1714767605;381926895;;['BL_Position', 'BL_Wheel', 'BR_Position', 'BR_Wheel', 'FL_Position', 'FL_Wheel', 'FR_Position', 'FR_Wheel'];(0.0, 2555.236328125, 0.006135923322290182, 2663.266845703125, -0.003067961661145091, 2553.52734375, 0.0, 2667.568115234375);(0.0, 0.0, 0.0, 0.0, 0.0, 0.0, 0.0, 0.0);(5.380000114440918, 86.08000183105469, -59.18000030517578, 5.380000114440918, 18.829999923706055, 2.690000057220459, 0.0, 0.0)
2024/05/03/13:20:05.367983;192234;1714767605;397887431;;['BL_Position', 'BL_Wheel', 'BR_Position', 'BR_Wheel', 'FL_Position', 'FL_Wheel', 'FR_Position', 'FR_Wheel'];(0.0, 2555.23779296875, 0.006135923322290182, 2663.268310546875, -0.0015339808305725455, 2553.52734375, 0.0, 2667.569580078125);(0.0, 0.0, 0.0, 0.0, 0.0, 0.0, 0.0, 0.0);(5.380000114440918, 86.08000183105469, -61.87000274658203, 5.380000114440918, 13.450000762939453, 2.690000057220459, 0.0, 0.0)
2024/05/03/13:20:05.385541;192235;1714767605;413834264;;['BL_Position', 'BL_Wheel', 'BR_Position', 'BR_Wheel', 'FL_Position', 'FL_Wheel', 'FR_Position', 'FR_Wheel'];(0.0, 2555.236328125, 0.006135923322290182, 2663.268310546875, -0.003067961661145091, 2553.52734375, 0.0, 2667.568115234375);(0.0, 0.0, 0.0, 0.0, 0.0, 0.0, 0.0, 0.0);(5.380000114440918, 86.08000183105469, -61.87000274658203, 5.380000114440918, 16.139999389648438, 2.690000057220459, 0.0, 0.0)
2024/05/03/13:20:05.400053;192236;1714767605;429878171;;['BL_Position', 'BL_Wheel', 'BR_Position', 'BR_Wheel', 'FL_Position', 'FL_Wheel', 'FR_Position', 'FR_Wheel'];(0.0, 2555.236328125, 0.006135923322290182, 2663.268310546875, -0.003067961661145091, 2553.52734375, 0.0, 2667.568115234375);(0.0, 0.0, 0.0, 0.0, 0.0, 0.0, 0.0, 0.0);(5.380000114440918, 86.08000183105469, -61.87000274658203, 5.380000114440918, 21.520000457763672, 2.690000057220459, 0.0, 0.0)
2024/05/03/13:20:05.419641;192237;1714767605;445948856;;['BL_Position', 'BL_Wheel', 'BR_Position', 'BR_Wheel', 'FL_Position', 'FL_Wheel', 'FR_Position', 'FR_Wheel'];(0.0, 2555.236328125, 0.006135923322290182, 2663.266845703125, -0.003067961661145091, 2553.52734375, 0.0, 2667.568115234375);(0.0, 0.0, 0.0, 0.0, 0.0, 0.0, 0.0, 0.0);(5.380000114440918, 86.08000183105469, -61.87000274658203, 5.380000114440918, 16.139999389648438, 2.690000057220459, 0.0, 0.0)
2024/05/03/13:20:05.442491;192238;1714767605;461898708;;['BL_Position', 'BL_Wheel', 'BR_Position', 'BR_Wheel', 'FL_Position', 'FL_Wheel', 'FR_Position', 'FR_Wheel'];(0.0, 2555.236328125, 0.006135923322290182, 2663.266845703125, -0.0015339808305725455, 2553.52734375, 0.0, 2667.569580078125);(0.0, 0.0, 0.0, 0.0, 0.0, 0.0, 0.0, 0.0);(5.380000114440918, 86.08000183105469, -61.87000274658203, 5.380000114440918, 16.139999389648438, 2.690000057220459, 0.0, 0.0)
2024/05/03/13:20:05.448515;192239;1714767605;477954133;;['BL_Position', 'BL_Wheel', 'BR_Position', 'BR_Wheel', 'FL_Position', 'FL_Wheel', 'FR_Position', 'FR_Wheel'];(0.0, 2555.236328125, 0.006135923322290182, 2663.266845703125, -0.003067961661145091, 2553.52734375, 0.0, 2667.569580078125);(0.0, 0.0, 0.0, 0.0, 0.0, 0.0, 0.0, 0.0);(5.380000114440918, 86.08000183105469, -61.87000274658203, 5.380000114440918, 16.139999389648438, 2.690000057220459, 0.0, 0.0)
2024/05/03/13:20:05.464523;192240;1714767605;493972948;;['BL_Position', 'BL_Wheel', 'BR_Position', 'BR_Wheel', 'FL_Position', 'FL_Wheel', 'FR_Position', 'FR_Wheel'];(0.0, 2555.23779296875, 0.006135923322290182, 2663.268310546875, -0.003067961661145091, 2553.52734375, 0.0, 2667.568115234375);(0.0, 0.0, 0.0, 0.0, 0.0, 0.0, 0.0, 0.0);(5.380000114440918, 86.08000183105469, -61.87000274658203, 5.380000114440918, 10.760000228881836, 2.690000057220459, 0.0, 0.0)
2024/05/03/13:20:05.480115;192241;1714767605;509891762;;['BL_Position', 'BL_Wheel', 'BR_Position', 'BR_Wheel', 'FL_Position', 'FL_Wheel', 'FR_Position', 'FR_Wheel'];(0.0, 2555.236328125, 0.006135923322290182, 2663.266845703125, -0.0015339808305725455, 2553.52734375, 0.0, 2667.569580078125);(0.0, 0.0, 0.0, 0.0, 0.0, 0.0, 0.0, 0.0);(5.380000114440918, 86.08000183105469, -61.87000274658203, 5.380000114440918, 13.450000762939453, 2.690000057220459, 0.0, 0.0)
2024/05/03/13:20:05.497083;192242;1714767605;525902558;;['BL_Position', 'BL_Wheel', 'BR_Position', 'BR_Wheel', 'FL_Position', 'FL_Wheel', 'FR_Position', 'FR_Wheel'];(0.0, 2555.236328125, 0.006135923322290182, 2663.268310546875, -0.0015339808305725455, 2553.52734375, 0.0, 2667.569580078125);(0.0, 0.0, 0.0, 0.0, 0.0, 0.0, 0.0, 0.0);(5.380000114440918, 86.08000183105469, -61.87000274658203, 5.380000114440918, 16.139999389648438, 2.690000057220459, 0.0, 0.0)
2024/05/03/13:20:05.523705;192243;1714767605;541866280;;['BL_Position', 'BL_Wheel', 'BR_Position', 'BR_Wheel', 'FL_Position', 'FL_Wheel', 'FR_Position', 'FR_Wheel'];(0.0, 2555.236328125, 0.006135923322290182, 2663.268310546875, -0.0015339808305725455, 2553.52734375, 0.0, 2667.568115234375);(0.0, 0.0, 0.0, 0.0, 0.0, 0.0, 0.0, 0.0);(5.380000114440918, 86.08000183105469, -59.18000030517578, 5.380000114440918, 16.139999389648438, 2.690000057220459, 0.0, 0.0)
2024/05/03/13:20:05.549874;192244;1714767605;557931224;;['BL_Position', 'BL_Wheel', 'BR_Position', 'BR_Wheel', 'FL_Position', 'FL_Wheel', 'FR_Position', 'FR_Wheel'];(0.0, 2555.236328125, 0.006135923322290182, 2663.268310546875, -0.0015339808305725455, 2553.52587890625, 0.0, 2667.569580078125);(0.0, 0.0, 0.0, 0.0, 0.0, 0.0, 0.0, 0.0);(5.380000114440918, 86.08000183105469, -61.87000274658203, 5.380000114440918, 16.139999389648438, 2.690000057220459, 0.0, 0.0)
2024/05/03/13:20:05.556992;192245;1714767605;573854205;;['BL_Position', 'BL_Wheel', 'BR_Position', 'BR_Wheel', 'FL_Position', 'FL_Wheel', 'FR_Position', 'FR_Wheel'];(-0.0015339808305725455, 2555.236328125, 0.006135923322290182, 2663.268310546875, -0.0015339808305725455, 2553.52734375, 0.0, 2667.569580078125);(0.0, 0.0, 0.0, 0.0, 0.0, 0.0, 0.0, 0.0);(5.380000114440918, 86.08000183105469, -61.87000274658203, 5.380000114440918, 18.829999923706055, 2.690000057220459, 0.0, 0.0)
2024/05/03/13:20:05.562802;192246;1714767605;589880353;;['BL_Position', 'BL_Wheel', 'BR_Position', 'BR_Wheel', 'FL_Position', 'FL_Wheel', 'FR_Position', 'FR_Wheel'];(-0.0015339808305725455, 2555.236328125, 0.006135923322290182, 2663.266845703125, -0.003067961661145091, 2553.52734375, 0.0, 2667.568115234375);(0.0, 0.0, 0.0, 0.0, 0.0, 0.0, 0.0, 0.0);(8.069999694824219, 86.08000183105469, -61.87000274658203, 5.380000114440918, 16.139999389648438, 2.690000057220459, 0.0, 0.0)
2024/05/03/13:20:05.576507;192247;1714767605;605964852;;['BL_Position', 'BL_Wheel', 'BR_Position', 'BR_Wheel', 'FL_Position', 'FL_Wheel', 'FR_Position', 'FR_Wheel'];(-0.0015339808305725455, 2555.236328125, 0.006135923322290182, 2663.266845703125, -0.0015339808305725455, 2553.52734375, 0.0, 2667.568115234375);(0.0, 0.0, 0.0, 0.0, 0.0, 0.0, 0.0, 0.0);(5.380000114440918, 86.08000183105469, -61.87000274658203, 5.380000114440918, 16.139999389648438, 2.690000057220459, 0.0, 0.0)
2024/05/03/13:20:05.592222;192248;1714767605;621926870;;['BL_Position', 'BL_Wheel', 'BR_Position', 'BR_Wheel', 'FL_Position', 'FL_Wheel', 'FR_Position', 'FR_Wheel'];(0.0, 2555.236328125, 0.006135923322290182, 2663.268310546875, -0.0015339808305725455, 2553.52734375, 0.0, 2667.568115234375);(0.0, 0.0, 0.0, 0.0, 0.0, 0.0, 0.0, 0.0);(5.380000114440918, 86.08000183105469, -61.87000274658203, 5.380000114440918, 21.520000457763672, 2.690000057220459, 0.0, 0.0)
2024/05/03/13:20:05.610712;192249;1714767605;637915166;;['BL_Position', 'BL_Wheel', 'BR_Position', 'BR_Wheel', 'FL_Position', 'FL_Wheel', 'FR_Position', 'FR_Wheel'];(0.0, 2555.236328125, 0.006135923322290182, 2663.266845703125, -0.003067961661145091, 2553.52734375, 0.0, 2667.568115234375);(0.0, 0.0, 0.0, 0.0, 0.0, 0.0, 0.0, 0.0);(5.380000114440918, 86.08000183105469, -61.87000274658203, 5.380000114440918, 18.829999923706055, 2.690000057220459, 0.0, 0.0)
2024/05/03/13:20:05.623529;192250;1714767605;653924981;;['BL_Position', 'BL_Wheel', 'BR_Position', 'BR_Wheel', 'FL_Position', 'FL_Wheel', 'FR_Position', 'FR_Wheel'];(0.0, 2555.236328125, 0.006135923322290182, 2663.268310546875, -0.003067961661145091, 2553.52734375, 0.0, 2667.569580078125);(0.0, 0.0, 0.0, 0.0, 0.0, 0.0, 0.0, 0.0);(5.380000114440918, 86.08000183105469, -61.87000274658203, 5.380000114440918, 16.139999389648438, 2.690000057220459, 0.0, 0.0)
2024/05/03/13:20:05.649565;192251;1714767605;669924555;;['BL_Position', 'BL_Wheel', 'BR_Position', 'BR_Wheel', 'FL_Position', 'FL_Wheel', 'FR_Position', 'FR_Wheel'];(0.0, 2555.236328125, 0.006135923322290182, 2663.266845703125, -0.003067961661145091, 2553.52734375, 0.0, 2667.568115234375);(0.0, 0.0, 0.0, 0.0, 0.0, 0.0, 0.0, 0.0);(5.380000114440918, 86.08000183105469, -61.87000274658203, 5.380000114440918, 18.829999923706055, 2.690000057220459, 0.0, 0.0)
2024/05/03/13:20:05.655987;192252;1714767605;685889313;;['BL_Position', 'BL_Wheel', 'BR_Position', 'BR_Wheel', 'FL_Position', 'FL_Wheel', 'FR_Position', 'FR_Wheel'];(0.0, 2555.236328125, 0.006135923322290182, 2663.266845703125, -0.0015339808305725455, 2553.52734375, 0.0, 2667.568115234375);(0.0, 0.0, 0.0, 0.0, 0.0, 0.0, 0.0, 0.0);(5.380000114440918, 86.08000183105469, -61.87000274658203, 5.380000114440918, 18.829999923706055, 2.690000057220459, 0.0, 0.0)
2024/05/03/13:20:05.671243;192253;1714767605;701870813;;['BL_Position', 'BL_Wheel', 'BR_Position', 'BR_Wheel', 'FL_Position', 'FL_Wheel', 'FR_Position', 'FR_Wheel'];(-0.0015339808305725455, 2555.236328125, 0.006135923322290182, 2663.266845703125, -0.0015339808305725455, 2553.52734375, 0.0, 2667.569580078125);(0.0, 0.0, 0.0, 0.0, 0.0, 0.0, 0.0, 0.0);(5.380000114440918, 86.08000183105469, -61.87000274658203, 5.380000114440918, 21.520000457763672, 2.690000057220459, 0.0, 0.0)
2024/05/03/13:20:05.687939;192254;1714767605;717853516;;['BL_Position', 'BL_Wheel', 'BR_Position', 'BR_Wheel', 'FL_Position', 'FL_Wheel', 'FR_Position', 'FR_Wheel'];(0.0, 2555.236328125, 0.006135923322290182, 2663.268310546875, -0.0015339808305725455, 2553.52734375, 0.0, 2667.569580078125);(0.0, 0.0, 0.0, 0.0, 0.0, 0.0, 0.0, 0.0);(5.380000114440918, 86.08000183105469, -61.87000274658203, 5.380000114440918, 16.139999389648438, 2.690000057220459, 0.0, 0.0)
2024/05/03/13:20:05.702849;192255;1714767605;733821146;;['BL_Position', 'BL_Wheel', 'BR_Position', 'BR_Wheel', 'FL_Position', 'FL_Wheel', 'FR_Position', 'FR_Wheel'];(0.0, 2555.236328125, 0.006135923322290182, 2663.268310546875, -0.0015339808305725455, 2553.52734375, 0.0015339808305725455, 2667.568115234375);(0.0, 0.0, 0.0, 0.0, 0.0, 0.0, 0.0, 0.0);(5.380000114440918, 86.08000183105469, -61.87000274658203, 5.380000114440918, 18.829999923706055, 2.690000057220459, 0.0, 0.0)
2024/05/03/13:20:05.726493;192256;1714767605;749845349;;['BL_Position', 'BL_Wheel', 'BR_Position', 'BR_Wheel', 'FL_Position', 'FL_Wheel', 'FR_Position', 'FR_Wheel'];(0.0, 2555.236328125, 0.006135923322290182, 2663.268310546875, -0.003067961661145091, 2553.52734375, 0.0, 2667.568115234375);(0.0, 0.0, 0.0, 0.0, 0.0, 0.0, 0.0, 0.0);(5.380000114440918, 86.08000183105469, -61.87000274658203, 5.380000114440918, 16.139999389648438, 2.690000057220459, 0.0, 0.0)
2024/05/03/13:20:05.751590;192257;1714767605;765826423;;['BL_Position', 'BL_Wheel', 'BR_Position', 'BR_Wheel', 'FL_Position', 'FL_Wheel', 'FR_Position', 'FR_Wheel'];(0.0, 2555.236328125, 0.006135923322290182, 2663.266845703125, -0.0015339808305725455, 2553.52734375, 0.0, 2667.569580078125);(0.0, 0.0, 0.0, 0.0, 0.0, 0.0, 0.0, 0.0);(5.380000114440918, 86.08000183105469, -61.87000274658203, 5.380000114440918, 34.970001220703125, 2.690000057220459, 0.0, 0.0)
2024/05/03/13:20:05.756574;192258;1714767605;781828033;;['BL_Position', 'BL_Wheel', 'BR_Position', 'BR_Wheel', 'FL_Position', 'FL_Wheel', 'FR_Position', 'FR_Wheel'];(0.0, 2555.236328125, 0.006135923322290182, 2663.266845703125, -0.0015339808305725455, 2553.52734375, 0.0, 2667.568115234375);(0.0, 0.0, 0.0, 0.0, 0.0, 0.0, 0.0, 0.0);(5.380000114440918, 86.08000183105469, -61.87000274658203, 5.380000114440918, 43.040000915527344, 2.690000057220459, 0.0, 0.0)
2024/05/03/13:20:05.768614;192259;1714767605;798096329;;['BL_Position', 'BL_Wheel', 'BR_Position', 'BR_Wheel', 'FL_Position', 'FL_Wheel', 'FR_Position', 'FR_Wheel'];(0.0, 2555.236328125, 0.006135923322290182, 2663.268310546875, -0.003067961661145091, 2553.52734375, 0.0, 2667.569580078125);(0.0, 0.0, 0.0, 0.0, 0.0, 0.0, 0.0, 0.0);(5.380000114440918, 86.08000183105469, -61.87000274658203, 5.380000114440918, 43.040000915527344, 2.690000057220459, 0.0, 0.0)
2024/05/03/13:20:05.784242;192260;1714767605;813951125;;['BL_Position', 'BL_Wheel', 'BR_Position', 'BR_Wheel', 'FL_Position', 'FL_Wheel', 'FR_Position', 'FR_Wheel'];(0.0, 2555.236328125, 0.006135923322290182, 2663.268310546875, -0.0015339808305725455, 2553.52734375, 0.0, 2667.568115234375);(0.0, 0.0, 0.0, 0.0, 0.0, 0.0, 0.0, 0.0);(5.380000114440918, 86.08000183105469, -61.87000274658203, 5.380000114440918, 32.279998779296875, 2.690000057220459, 0.0, 0.0)
2024/05/03/13:20:05.801092;192261;1714767605;830768014;;['BL_Position', 'BL_Wheel', 'BR_Position', 'BR_Wheel', 'FL_Position', 'FL_Wheel', 'FR_Position', 'FR_Wheel'];(0.0, 2555.236328125, 0.006135923322290182, 2663.266845703125, -0.0015339808305725455, 2553.52734375, 0.0, 2667.569580078125);(0.0, 0.0, 0.0, 0.0, 0.0, 0.0, 0.0, 0.0);(5.380000114440918, 86.08000183105469, -61.87000274658203, 5.380000114440918, 37.65999984741211, 2.690000057220459, 0.0, 0.0)
2024/05/03/13:20:05.815828;192262;1714767605;845878199;;['BL_Position', 'BL_Wheel', 'BR_Position', 'BR_Wheel', 'FL_Position', 'FL_Wheel', 'FR_Position', 'FR_Wheel'];(0.0, 2555.236328125, 0.006135923322290182, 2663.266845703125, -0.0015339808305725455, 2553.52734375, 0.0, 2667.568115234375);(0.0, 0.0, 0.0, 0.0, 0.0, 0.0, 0.0, 0.0);(5.380000114440918, 86.08000183105469, -59.18000030517578, 5.380000114440918, 10.760000228881836, 2.690000057220459, 0.0, 0.0)
2024/05/03/13:20:05.832365;192263;1714767605;861909735;;['BL_Position', 'BL_Wheel', 'BR_Position', 'BR_Wheel', 'FL_Position', 'FL_Wheel', 'FR_Position', 'FR_Wheel'];(0.0, 2555.236328125, 0.006135923322290182, 2663.266845703125, -0.003067961661145091, 2553.52734375, 0.0, 2667.568115234375);(0.0, 0.0, 0.0, 0.0, 0.0, 0.0, 0.0, 0.0);(5.380000114440918, 86.08000183105469, -61.87000274658203, 5.380000114440918, 34.970001220703125, 2.690000057220459, 0.0, 0.0)
2024/05/03/13:20:05.860214;192264;1714767605;877862735;;['BL_Position', 'BL_Wheel', 'BR_Position', 'BR_Wheel', 'FL_Position', 'FL_Wheel', 'FR_Position', 'FR_Wheel'];(0.0, 2555.236328125, 0.006135923322290182, 2663.268310546875, -0.0015339808305725455, 2553.52587890625, 0.0, 2667.569580078125);(0.0, 0.0, 0.0, 0.0, 0.0, 0.0, 0.0, 0.0);(5.380000114440918, 86.08000183105469, -61.87000274658203, 5.380000114440918, 24.21000099182129, 2.690000057220459, 0.0, 0.0)
2024/05/03/13:20:05.865628;192265;1714767605;893923790;;['BL_Position', 'BL_Wheel', 'BR_Position', 'BR_Wheel', 'FL_Position', 'FL_Wheel', 'FR_Position', 'FR_Wheel'];(0.0, 2555.236328125, 0.006135923322290182, 2663.266845703125, -0.0015339808305725455, 2553.52734375, 0.0, 2667.569580078125);(0.0, 0.0, 0.0, 0.0, 0.0, 0.0, 0.0, 0.0);(5.380000114440918, 86.08000183105469, -59.18000030517578, 5.380000114440918, 29.59000015258789, 2.690000057220459, 0.0, 0.0)
2024/05/03/13:20:05.881142;192266;1714767605;909869919;;['BL_Position', 'BL_Wheel', 'BR_Position', 'BR_Wheel', 'FL_Position', 'FL_Wheel', 'FR_Position', 'FR_Wheel'];(0.0, 2555.236328125, 0.006135923322290182, 2663.266845703125, -0.0015339808305725455, 2553.52734375, 0.0, 2667.568115234375);(0.0, 0.0, 0.0, 0.0, 0.0, 0.0, 0.0, 0.0);(5.380000114440918, 86.08000183105469, -61.87000274658203, 5.380000114440918, 26.900001525878906, 2.690000057220459, 0.0, 0.0)
2024/05/03/13:20:05.894902;192267;1714767605;925918123;;['BL_Position', 'BL_Wheel', 'BR_Position', 'BR_Wheel', 'FL_Position', 'FL_Wheel', 'FR_Position', 'FR_Wheel'];(0.0, 2555.236328125, 0.006135923322290182, 2663.268310546875, -0.003067961661145091, 2553.52734375, 0.0, 2667.568115234375);(0.0, 0.0, 0.0, 0.0, 0.0, 0.0, 0.0, 0.0);(5.380000114440918, 86.08000183105469, -59.18000030517578, 5.380000114440918, 21.520000457763672, 2.690000057220459, 0.0, 0.0)
2024/05/03/13:20:05.912630;192268;1714767605;941994733;;['BL_Position', 'BL_Wheel', 'BR_Position', 'BR_Wheel', 'FL_Position', 'FL_Wheel', 'FR_Position', 'FR_Wheel'];(0.0, 2555.236328125, 0.006135923322290182, 2663.268310546875, -0.003067961661145091, 2553.52734375, 0.0, 2667.568115234375);(0.0, 0.0, 0.0, 0.0, 0.0, 0.0, 0.0, 0.0);(5.380000114440918, 86.08000183105469, -61.87000274658203, 5.380000114440918, 16.139999389648438, 2.690000057220459, 0.0, 0.0)
2024/05/03/13:20:05.933211;192269;1714767605;959237714;;['BL_Position', 'BL_Wheel', 'BR_Position', 'BR_Wheel', 'FL_Position', 'FL_Wheel', 'FR_Position', 'FR_Wheel'];(0.0, 2555.236328125, 0.006135923322290182, 2663.266845703125, -0.003067961661145091, 2553.52587890625, 0.0, 2667.568115234375);(0.0, 0.0, 0.0, 0.0, 0.0, 0.0, 0.0, 0.0);(5.380000114440918, 86.08000183105469, -61.87000274658203, 5.380000114440918, 26.900001525878906, 2.690000057220459, 0.0, 0.0)
2024/05/03/13:20:05.952394;192270;1714767605;973974288;;['BL_Position', 'BL_Wheel', 'BR_Position', 'BR_Wheel', 'FL_Position', 'FL_Wheel', 'FR_Position', 'FR_Wheel'];(0.0, 2555.236328125, 0.006135923322290182, 2663.268310546875, -0.003067961661145091, 2553.52734375, 0.0, 2667.569580078125);(0.0, 0.0, 0.0, 0.0, 0.0, 0.0, 0.0, 0.0);(5.380000114440918, 86.08000183105469, -61.87000274658203, 5.380000114440918, 13.450000762939453, 2.690000057220459, 0.0, 0.0)
2024/05/03/13:20:05.962391;192271;1714767605;989910306;;['BL_Position', 'BL_Wheel', 'BR_Position', 'BR_Wheel', 'FL_Position', 'FL_Wheel', 'FR_Position', 'FR_Wheel'];(-0.0015339808305725455, 2555.236328125, 0.006135923322290182, 2663.266845703125, -0.0015339808305725455, 2553.52734375, 0.0, 2667.568115234375);(0.0, 0.0, 0.0, 0.0, 0.0, 0.0, 0.0, 0.0);(5.380000114440918, 86.08000183105469, -61.87000274658203, 5.380000114440918, 24.21000099182129, 2.690000057220459, 0.0, 0.0)
2024/05/03/13:20:05.976300;192272;1714767606;5844380;;['BL_Position', 'BL_Wheel', 'BR_Position', 'BR_Wheel', 'FL_Position', 'FL_Wheel', 'FR_Position', 'FR_Wheel'];(0.0, 2555.236328125, 0.006135923322290182, 2663.268310546875, -0.0015339808305725455, 2553.52734375, 0.0, 2667.569580078125);(0.0, 0.0, 0.0, 0.0, 0.0, 0.0, 0.0, 0.0);(5.380000114440918, 86.08000183105469, -61.87000274658203, 5.380000114440918, 24.21000099182129, 2.690000057220459, 0.0, 0.0)
2024/05/03/13:20:05.992924;192273;1714767606;21909954;;['BL_Position', 'BL_Wheel', 'BR_Position', 'BR_Wheel', 'FL_Position', 'FL_Wheel', 'FR_Position', 'FR_Wheel'];(0.0, 2555.236328125, 0.006135923322290182, 2663.268310546875, -0.0015339808305725455, 2553.52587890625, 0.0, 2667.568115234375);(0.0, 0.0, 0.0, 0.0, 0.0, 0.0, 0.0, 0.0);(5.380000114440918, 86.08000183105469, -61.87000274658203, 5.380000114440918, 34.970001220703125, 2.690000057220459, 0.0, 0.0)
2024/05/03/13:20:06.008246;192274;1714767606;38141916;;['BL_Position', 'BL_Wheel', 'BR_Position', 'BR_Wheel', 'FL_Position', 'FL_Wheel', 'FR_Position', 'FR_Wheel'];(0.0, 2555.236328125, 0.006135923322290182, 2663.266845703125, -0.003067961661145091, 2553.52734375, 0.0, 2667.568115234375);(0.0, 0.0, 0.0, 0.0, 0.0, 0.0, 0.0, 0.0);(5.380000114440918, 86.08000183105469, -61.87000274658203, 5.380000114440918, 29.59000015258789, 2.690000057220459, 0.0, 0.0)
2024/05/03/13:20:06.030368;192275;1714767606;53979045;;['BL_Position', 'BL_Wheel', 'BR_Position', 'BR_Wheel', 'FL_Position', 'FL_Wheel', 'FR_Position', 'FR_Wheel'];(-0.0015339808305725455, 2555.236328125, 0.006135923322290182, 2663.266845703125, -0.003067961661145091, 2553.52734375, 0.0, 2667.569580078125);(0.0, 0.0, 0.0, 0.0, 0.0, 0.0, 0.0, 0.0);(5.380000114440918, 86.08000183105469, -61.87000274658203, 5.380000114440918, 21.520000457763672, 2.690000057220459, 0.0, 0.0)
2024/05/03/13:20:06.040507;192276;1714767606;69912286;;['BL_Position', 'BL_Wheel', 'BR_Position', 'BR_Wheel', 'FL_Position', 'FL_Wheel', 'FR_Position', 'FR_Wheel'];(0.0, 2555.236328125, 0.006135923322290182, 2663.266845703125, -0.003067961661145091, 2553.52587890625, 0.0, 2667.569580078125);(0.0, 0.0, 0.0, 0.0, 0.0, 0.0, 0.0, 0.0);(5.380000114440918, 86.08000183105469, -61.87000274658203, 5.380000114440918, 32.279998779296875, 2.690000057220459, 0.0, 0.0)
2024/05/03/13:20:06.061859;192277;1714767606;85930359;;['BL_Position', 'BL_Wheel', 'BR_Position', 'BR_Wheel', 'FL_Position', 'FL_Wheel', 'FR_Position', 'FR_Wheel'];(0.0, 2555.236328125, 0.006135923322290182, 2663.268310546875, -0.0015339808305725455, 2553.52587890625, 0.0, 2667.568115234375);(0.0, 0.0, 0.0, 0.0, 0.0, 0.0, 0.0, 0.0);(5.380000114440918, 86.08000183105469, -59.18000030517578, 5.380000114440918, 26.900001525878906, 2.690000057220459, 0.0, 0.0)
2024/05/03/13:20:06.074085;192278;1714767606;101831729;;['BL_Position', 'BL_Wheel', 'BR_Position', 'BR_Wheel', 'FL_Position', 'FL_Wheel', 'FR_Position', 'FR_Wheel'];(-0.0015339808305725455, 2555.236328125, 0.006135923322290182, 2663.266845703125, -0.0015339808305725455, 2553.52587890625, 0.0, 2667.569580078125);(0.0, 0.0, 0.0, 0.0, 0.0, 0.0, 0.0, 0.0);(5.380000114440918, 86.08000183105469, -61.87000274658203, 5.380000114440918, 45.72999954223633, 2.690000057220459, 0.0, 0.0)
2024/05/03/13:20:06.088292;192279;1714767606;117866377;;['BL_Position', 'BL_Wheel', 'BR_Position', 'BR_Wheel', 'FL_Position', 'FL_Wheel', 'FR_Position', 'FR_Wheel'];(0.0, 2555.236328125, 0.006135923322290182, 2663.266845703125, -0.003067961661145091, 2553.52587890625, 0.0, 2667.568115234375);(0.0, 0.0, 0.0, 0.0, 0.0, 0.0, 0.0, 0.0);(5.380000114440918, 86.08000183105469, -61.87000274658203, 5.380000114440918, 24.21000099182129, 2.690000057220459, 0.0, 0.0)
2024/05/03/13:20:06.104136;192280;1714767606;133861858;;['BL_Position', 'BL_Wheel', 'BR_Position', 'BR_Wheel', 'FL_Position', 'FL_Wheel', 'FR_Position', 'FR_Wheel'];(0.0, 2555.236328125, 0.006135923322290182, 2663.268310546875, -0.0015339808305725455, 2553.52734375, 0.0, 2667.568115234375);(0.0, 0.0, 0.0, 0.0, 0.0, 0.0, 0.0, 0.0);(5.380000114440918, 86.08000183105469, -64.55999755859375, 5.380000114440918, 37.65999984741211, 2.690000057220459, 0.0, 0.0)
2024/05/03/13:20:06.119810;192281;1714767606;149814025;;['BL_Position', 'BL_Wheel', 'BR_Position', 'BR_Wheel', 'FL_Position', 'FL_Wheel', 'FR_Position', 'FR_Wheel'];(0.0, 2555.23779296875, 0.006135923322290182, 2663.268310546875, -0.003067961661145091, 2553.52734375, 0.0, 2667.568115234375);(0.0, 0.0, 0.0, 0.0, 0.0, 0.0, 0.0, 0.0);(5.380000114440918, 86.08000183105469, -64.55999755859375, 5.380000114440918, 21.520000457763672, 2.690000057220459, 0.0, 0.0)
2024/05/03/13:20:06.134769;192282;1714767606;165886691;;['BL_Position', 'BL_Wheel', 'BR_Position', 'BR_Wheel', 'FL_Position', 'FL_Wheel', 'FR_Position', 'FR_Wheel'];(0.0, 2555.236328125, 0.006135923322290182, 2663.266845703125, -0.0015339808305725455, 2553.52734375, 0.0, 2667.568115234375);(0.0, 0.0, 0.0, 0.0, 0.0, 0.0, 0.0, 0.0);(5.380000114440918, 86.08000183105469, -61.87000274658203, 5.380000114440918, 32.279998779296875, 2.690000057220459, 0.0, 0.0)
2024/05/03/13:20:06.166746;192283;1714767606;181923746;;['BL_Position', 'BL_Wheel', 'BR_Position', 'BR_Wheel', 'FL_Position', 'FL_Wheel', 'FR_Position', 'FR_Wheel'];(0.0, 2555.236328125, 0.006135923322290182, 2663.268310546875, -0.003067961661145091, 2553.52734375, 0.0, 2667.568115234375);(0.0, 0.0, 0.0, 0.0, 0.0, 0.0, 0.0, 0.0);(5.380000114440918, 86.08000183105469, -61.87000274658203, 5.380000114440918, 37.65999984741211, 2.690000057220459, 0.0, 0.0)
2024/05/03/13:20:06.172027;192284;1714767606;198018746;;['BL_Position', 'BL_Wheel', 'BR_Position', 'BR_Wheel', 'FL_Position', 'FL_Wheel', 'FR_Position', 'FR_Wheel'];(-0.0015339808305725455, 2555.236328125, 0.006135923322290182, 2663.266845703125, -0.003067961661145091, 2553.52734375, 0.0, 2667.568115234375);(0.0, 0.0, 0.0, 0.0, 0.0, 0.0, 0.0, 0.0);(5.380000114440918, 86.08000183105469, -61.87000274658203, 5.380000114440918, 18.829999923706055, 2.690000057220459, 0.0, 0.0)
2024/05/03/13:20:06.184196;192285;1714767606;213884042;;['BL_Position', 'BL_Wheel', 'BR_Position', 'BR_Wheel', 'FL_Position', 'FL_Wheel', 'FR_Position', 'FR_Wheel'];(0.0, 2555.236328125, 0.006135923322290182, 2663.266845703125, -0.0015339808305725455, 2553.52734375, 0.0, 2667.569580078125);(0.0, 0.0, 0.0, 0.0, 0.0, 0.0, 0.0, 0.0);(5.380000114440918, 86.08000183105469, -61.87000274658203, 5.380000114440918, 21.520000457763672, 2.690000057220459, 0.0, 0.0)
2024/05/03/13:20:06.200804;192286;1714767606;229920801;;['BL_Position', 'BL_Wheel', 'BR_Position', 'BR_Wheel', 'FL_Position', 'FL_Wheel', 'FR_Position', 'FR_Wheel'];(-0.0015339808305725455, 2555.236328125, 0.006135923322290182, 2663.268310546875, -0.0015339808305725455, 2553.52734375, 0.0, 2667.569580078125);(0.0, 0.0, 0.0, 0.0, 0.0, 0.0, 0.0, 0.0);(5.380000114440918, 86.08000183105469, -61.87000274658203, 5.380000114440918, 16.139999389648438, 2.690000057220459, 0.0, 0.0)
2024/05/03/13:20:06.216251;192287;1714767606;245877374;;['BL_Position', 'BL_Wheel', 'BR_Position', 'BR_Wheel', 'FL_Position', 'FL_Wheel', 'FR_Position', 'FR_Wheel'];(0.0, 2555.236328125, 0.006135923322290182, 2663.268310546875, -0.003067961661145091, 2553.52734375, 0.0, 2667.569580078125);(0.0, 0.0, 0.0, 0.0, 0.0, 0.0, 0.0, 0.0);(5.380000114440918, 86.08000183105469, -61.87000274658203, 5.380000114440918, 16.139999389648438, 2.690000057220459, 0.0, 0.0)
2024/05/03/13:20:06.237123;192288;1714767606;261871411;;['BL_Position', 'BL_Wheel', 'BR_Position', 'BR_Wheel', 'FL_Position', 'FL_Wheel', 'FR_Position', 'FR_Wheel'];(0.0, 2555.23779296875, 0.006135923322290182, 2663.266845703125, -0.003067961661145091, 2553.52734375, 0.0, 2667.569580078125);(0.0, 0.0, 0.0, 0.0, 0.0, 0.0, 0.0, 0.0);(5.380000114440918, 86.08000183105469, -61.87000274658203, 5.380000114440918, 21.520000457763672, 2.690000057220459, 0.0, 0.0)
2024/05/03/13:20:06.267877;192289;1714767606;277860244;;['BL_Position', 'BL_Wheel', 'BR_Position', 'BR_Wheel', 'FL_Position', 'FL_Wheel', 'FR_Position', 'FR_Wheel'];(-0.0015339808305725455, 2555.236328125, 0.006135923322290182, 2663.268310546875, -0.0015339808305725455, 2553.52734375, 0.0, 2667.569580078125);(0.0, 0.0, 0.0, 0.0, 0.0, 0.0, 0.0, 0.0);(5.380000114440918, 86.08000183105469, -61.87000274658203, 5.380000114440918, 21.520000457763672, 2.690000057220459, 0.0, 0.0)
2024/05/03/13:20:06.274049;192290;1714767606;293882318;;['BL_Position', 'BL_Wheel', 'BR_Position', 'BR_Wheel', 'FL_Position', 'FL_Wheel', 'FR_Position', 'FR_Wheel'];(0.0, 2555.236328125, 0.006135923322290182, 2663.266845703125, -0.003067961661145091, 2553.52734375, 0.0, 2667.568115234375);(0.0, 0.0, 0.0, 0.0, 0.0, 0.0, 0.0, 0.0);(5.380000114440918, 86.08000183105469, -61.87000274658203, 5.380000114440918, 21.520000457763672, 2.690000057220459, 0.0, 0.0)
2024/05/03/13:20:06.281145;192291;1714767606;309857891;;['BL_Position', 'BL_Wheel', 'BR_Position', 'BR_Wheel', 'FL_Position', 'FL_Wheel', 'FR_Position', 'FR_Wheel'];(0.0, 2555.236328125, 0.006135923322290182, 2663.266845703125, -0.003067961661145091, 2553.52734375, 0.0, 2667.569580078125);(0.0, 0.0, 0.0, 0.0, 0.0, 0.0, 0.0, 0.0);(5.380000114440918, 86.08000183105469, -61.87000274658203, 5.380000114440918, 37.65999984741211, 2.690000057220459, 0.0, 0.0)
2024/05/03/13:20:06.296070;192292;1714767606;325810613;;['BL_Position', 'BL_Wheel', 'BR_Position', 'BR_Wheel', 'FL_Position', 'FL_Wheel', 'FR_Position', 'FR_Wheel'];(-0.0015339808305725455, 2555.236328125, 0.006135923322290182, 2663.266845703125, -0.003067961661145091, 2553.52734375, 0.0, 2667.568115234375);(0.0, 0.0, 0.0, 0.0, 0.0, 0.0, 0.0, 0.0);(5.380000114440918, 86.08000183105469, -61.87000274658203, 5.380000114440918, 29.59000015258789, 2.690000057220459, 0.0, 0.0)
2024/05/03/13:20:06.311559;192293;1714767606;341797113;;['BL_Position', 'BL_Wheel', 'BR_Position', 'BR_Wheel', 'FL_Position', 'FL_Wheel', 'FR_Position', 'FR_Wheel'];(0.0, 2555.236328125, 0.006135923322290182, 2663.266845703125, -0.0015339808305725455, 2553.52587890625, 0.0, 2667.569580078125);(0.0, 0.0, 0.0, 0.0, 0.0, 0.0, 0.0, 0.0);(5.380000114440918, 86.08000183105469, -61.87000274658203, 5.380000114440918, 16.139999389648438, 2.690000057220459, 0.0, 0.0)
2024/05/03/13:20:06.328619;192294;1714767606;357847594;;['BL_Position', 'BL_Wheel', 'BR_Position', 'BR_Wheel', 'FL_Position', 'FL_Wheel', 'FR_Position', 'FR_Wheel'];(0.0, 2555.236328125, 0.006135923322290182, 2663.266845703125, -0.003067961661145091, 2553.52734375, 0.0, 2667.569580078125);(0.0, 0.0, 0.0, 0.0, 0.0, 0.0, 0.0, 0.0);(5.380000114440918, 86.08000183105469, -61.87000274658203, 5.380000114440918, 13.450000762939453, 2.690000057220459, 0.0, 0.0)
2024/05/03/13:20:06.343781;192295;1714767606;373922038;;['BL_Position', 'BL_Wheel', 'BR_Position', 'BR_Wheel', 'FL_Position', 'FL_Wheel', 'FR_Position', 'FR_Wheel'];(0.0, 2555.236328125, 0.006135923322290182, 2663.268310546875, -0.003067961661145091, 2553.52734375, 0.0, 2667.569580078125);(0.0, 0.0, 0.0, 0.0, 0.0, 0.0, 0.0, 0.0);(5.380000114440918, 86.08000183105469, -61.87000274658203, 5.380000114440918, 26.900001525878906, 2.690000057220459, 0.0, 0.0)
2024/05/03/13:20:06.369054;192296;1714767606;389889593;;['BL_Position', 'BL_Wheel', 'BR_Position', 'BR_Wheel', 'FL_Position', 'FL_Wheel', 'FR_Position', 'FR_Wheel'];(0.0, 2555.236328125, 0.006135923322290182, 2663.268310546875, -0.0015339808305725455, 2553.52734375, 0.0, 2667.569580078125);(0.0, 0.0, 0.0, 0.0, 0.0, 0.0, 0.0, 0.0);(8.069999694824219, 86.08000183105469, -61.87000274658203, 5.380000114440918, 32.279998779296875, 2.690000057220459, 0.0, 0.0)
2024/05/03/13:20:06.374857;192297;1714767606;405840407;;['BL_Position', 'BL_Wheel', 'BR_Position', 'BR_Wheel', 'FL_Position', 'FL_Wheel', 'FR_Position', 'FR_Wheel'];(0.0, 2555.236328125, 0.006135923322290182, 2663.268310546875, -0.0015339808305725455, 2553.52734375, 0.0, 2667.568115234375);(0.0, 0.0, 0.0, 0.0, 0.0, 0.0, 0.0, 0.0);(5.380000114440918, 86.08000183105469, -61.87000274658203, 5.380000114440918, 37.65999984741211, 2.690000057220459, 0.0, 0.0)
2024/05/03/13:20:06.391350;192298;1714767606;421865722;;['BL_Position', 'BL_Wheel', 'BR_Position', 'BR_Wheel', 'FL_Position', 'FL_Wheel', 'FR_Position', 'FR_Wheel'];(0.0, 2555.236328125, 0.006135923322290182, 2663.268310546875, -0.003067961661145091, 2553.52734375, 0.0, 2667.568115234375);(0.0, 0.0, 0.0, 0.0, 0.0, 0.0, 0.0, 0.0);(5.380000114440918, 86.08000183105469, -61.87000274658203, 5.380000114440918, 48.42000198364258, 2.690000057220459, 0.0, 0.0)
2024/05/03/13:20:06.407855;192299;1714767606;437847073;;['BL_Position', 'BL_Wheel', 'BR_Position', 'BR_Wheel', 'FL_Position', 'FL_Wheel', 'FR_Position', 'FR_Wheel'];(0.0, 2555.236328125, 0.006135923322290182, 2663.268310546875, -0.0015339808305725455, 2553.52734375, 0.0, 2667.568115234375);(0.0, 0.0, 0.0, 0.0, 0.0, 0.0, 0.0, 0.0);(5.380000114440918, 86.08000183105469, -61.87000274658203, 5.380000114440918, 24.21000099182129, 2.690000057220459, 0.0, 0.0)
2024/05/03/13:20:06.424724;192300;1714767606;453899258;;['BL_Position', 'BL_Wheel', 'BR_Position', 'BR_Wheel', 'FL_Position', 'FL_Wheel', 'FR_Position', 'FR_Wheel'];(0.0, 2555.236328125, 0.006135923322290182, 2663.266845703125, -0.0015339808305725455, 2553.52734375, 0.0, 2667.569580078125);(0.0, 0.0, 0.0, 0.0, 0.0, 0.0, 0.0, 0.0);(5.380000114440918, 86.08000183105469, -61.87000274658203, 5.380000114440918, 29.59000015258789, 2.690000057220459, 0.0, 0.0)
2024/05/03/13:20:06.441950;192301;1714767606;469822128;;['BL_Position', 'BL_Wheel', 'BR_Position', 'BR_Wheel', 'FL_Position', 'FL_Wheel', 'FR_Position', 'FR_Wheel'];(0.0, 2555.236328125, 0.006135923322290182, 2663.268310546875, -0.0015339808305725455, 2553.52734375, 0.0, 2667.568115234375);(0.0, 0.0, 0.0, 0.0, 0.0, 0.0, 0.0, 0.0);(5.380000114440918, 86.08000183105469, -59.18000030517578, 5.380000114440918, 16.139999389648438, 2.690000057220459, 0.0, 0.0)
2024/05/03/13:20:06.471334;192302;1714767606;485792887;;['BL_Position', 'BL_Wheel', 'BR_Position', 'BR_Wheel', 'FL_Position', 'FL_Wheel', 'FR_Position', 'FR_Wheel'];(0.0, 2555.236328125, 0.006135923322290182, 2663.266845703125, -0.003067961661145091, 2553.52734375, 0.0, 2667.568115234375);(0.0, 0.0, 0.0, 0.0, 0.0, 0.0, 0.0, 0.0);(5.380000114440918, 86.08000183105469, -61.87000274658203, 5.380000114440918, 10.760000228881836, 2.690000057220459, 0.0, 0.0)
2024/05/03/13:20:06.477712;192303;1714767606;501816072;;['BL_Position', 'BL_Wheel', 'BR_Position', 'BR_Wheel', 'FL_Position', 'FL_Wheel', 'FR_Position', 'FR_Wheel'];(0.0, 2555.236328125, 0.006135923322290182, 2663.268310546875, -0.0015339808305725455, 2553.52734375, 0.0, 2667.569580078125);(0.0, 0.0, 0.0, 0.0, 0.0, 0.0, 0.0, 0.0);(5.380000114440918, 86.08000183105469, -61.87000274658203, 5.380000114440918, 24.21000099182129, 2.690000057220459, 0.0, 0.0)
2024/05/03/13:20:06.487184;192304;1714767606;517836794;;['BL_Position', 'BL_Wheel', 'BR_Position', 'BR_Wheel', 'FL_Position', 'FL_Wheel', 'FR_Position', 'FR_Wheel'];(0.0, 2555.236328125, 0.006135923322290182, 2663.266845703125, -0.0015339808305725455, 2553.52734375, 0.0, 2667.569580078125);(0.0, 0.0, 0.0, 0.0, 0.0, 0.0, 0.0, 0.0);(5.380000114440918, 86.08000183105469, -61.87000274658203, 5.380000114440918, 34.970001220703125, 2.690000057220459, 0.0, 0.0)
2024/05/03/13:20:06.503834;192305;1714767606;533819923;;['BL_Position', 'BL_Wheel', 'BR_Position', 'BR_Wheel', 'FL_Position', 'FL_Wheel', 'FR_Position', 'FR_Wheel'];(0.0, 2555.236328125, 0.006135923322290182, 2663.268310546875, -0.003067961661145091, 2553.52734375, 0.0, 2667.568115234375);(0.0, 0.0, 0.0, 0.0, 0.0, 0.0, 0.0, 0.0);(5.380000114440918, 86.08000183105469, -61.87000274658203, 5.380000114440918, 43.040000915527344, 2.690000057220459, 0.0, 0.0)
2024/05/03/13:20:06.519213;192306;1714767606;549833089;;['BL_Position', 'BL_Wheel', 'BR_Position', 'BR_Wheel', 'FL_Position', 'FL_Wheel', 'FR_Position', 'FR_Wheel'];(0.0, 2555.236328125, 0.006135923322290182, 2663.266845703125, -0.0015339808305725455, 2553.52734375, 0.0, 2667.568115234375);(0.0, 0.0, 0.0, 0.0, 0.0, 0.0, 0.0, 0.0);(5.380000114440918, 86.08000183105469, -61.87000274658203, 5.380000114440918, 40.35000228881836, 2.690000057220459, 0.0, 0.0)
2024/05/03/13:20:06.545827;192307;1714767606;565885718;;['BL_Position', 'BL_Wheel', 'BR_Position', 'BR_Wheel', 'FL_Position', 'FL_Wheel', 'FR_Position', 'FR_Wheel'];(0.0, 2555.236328125, 0.006135923322290182, 2663.266845703125, -0.0015339808305725455, 2553.52734375, 0.0, 2667.569580078125);(0.0, 0.0, 0.0, 0.0, 0.0, 0.0, 0.0, 0.0);(5.380000114440918, 86.08000183105469, -61.87000274658203, 5.380000114440918, 10.760000228881836, 2.690000057220459, 0.0, 0.0)
2024/05/03/13:20:06.574037;192308;1714767606;585564033;;['BL_Position', 'BL_Wheel', 'BR_Position', 'BR_Wheel', 'FL_Position', 'FL_Wheel', 'FR_Position', 'FR_Wheel'];(0.0, 2555.236328125, 0.006135923322290182, 2663.266845703125, -0.003067961661145091, 2553.52734375, 0.0, 2667.568115234375);(0.0, 0.0, 0.0, 0.0, 0.0, 0.0, 0.0, 0.0);(5.380000114440918, 86.08000183105469, -61.87000274658203, 5.380000114440918, 13.450000762939453, 2.690000057220459, 0.0, 0.0)
2024/05/03/13:20:06.580518;192309;1714767606;597865107;;['BL_Position', 'BL_Wheel', 'BR_Position', 'BR_Wheel', 'FL_Position', 'FL_Wheel', 'FR_Position', 'FR_Wheel'];(0.0, 2555.236328125, 0.006135923322290182, 2663.266845703125, -0.0015339808305725455, 2553.52734375, 0.0, 2667.568115234375);(0.0, 0.0, 0.0, 0.0, 0.0, 0.0, 0.0, 0.0);(5.380000114440918, 86.08000183105469, -59.18000030517578, 5.380000114440918, 16.139999389648438, 2.690000057220459, 0.0, 0.0)
2024/05/03/13:20:06.588792;192310;1714767606;613815106;;['BL_Position', 'BL_Wheel', 'BR_Position', 'BR_Wheel', 'FL_Position', 'FL_Wheel', 'FR_Position', 'FR_Wheel'];(0.0, 2555.236328125, 0.006135923322290182, 2663.268310546875, -0.003067961661145091, 2553.52734375, 0.0, 2667.568115234375);(0.0, 0.0, 0.0, 0.0, 0.0, 0.0, 0.0, 0.0);(5.380000114440918, 86.08000183105469, -61.87000274658203, 5.380000114440918, 26.900001525878906, 2.690000057220459, 0.0, 0.0)
2024/05/03/13:20:06.600952;192311;1714767606;629848365;;['BL_Position', 'BL_Wheel', 'BR_Position', 'BR_Wheel', 'FL_Position', 'FL_Wheel', 'FR_Position', 'FR_Wheel'];(-0.0015339808305725455, 2555.236328125, 0.006135923322290182, 2663.266845703125, -0.003067961661145091, 2553.52734375, 0.0, 2667.568115234375);(0.0, 0.0, 0.0, 0.0, 0.0, 0.0, 0.0, 0.0);(5.380000114440918, 86.08000183105469, -61.87000274658203, 5.380000114440918, 37.65999984741211, 2.690000057220459, 0.0, 0.0)
2024/05/03/13:20:06.616339;192312;1714767606;645878105;;['BL_Position', 'BL_Wheel', 'BR_Position', 'BR_Wheel', 'FL_Position', 'FL_Wheel', 'FR_Position', 'FR_Wheel'];(0.0, 2555.236328125, 0.006135923322290182, 2663.266845703125, -0.0015339808305725455, 2553.52587890625, 0.0, 2667.568115234375);(0.0, 0.0, 0.0, 0.0, 0.0, 0.0, 0.0, 0.0);(5.380000114440918, 86.08000183105469, -61.87000274658203, 5.380000114440918, 40.35000228881836, 2.690000057220459, 0.0, 0.0)
2024/05/03/13:20:06.633021;192313;1714767606;661850698;;['BL_Position', 'BL_Wheel', 'BR_Position', 'BR_Wheel', 'FL_Position', 'FL_Wheel', 'FR_Position', 'FR_Wheel'];(0.0, 2555.236328125, 0.006135923322290182, 2663.268310546875, -0.003067961661145091, 2553.52734375, 0.0, 2667.568115234375);(0.0, 0.0, 0.0, 0.0, 0.0, 0.0, 0.0, 0.0);(5.380000114440918, 86.08000183105469, -61.87000274658203, 5.380000114440918, 29.59000015258789, 2.690000057220459, 0.0, 0.0)
2024/05/03/13:20:06.651439;192314;1714767606;677870382;;['BL_Position', 'BL_Wheel', 'BR_Position', 'BR_Wheel', 'FL_Position', 'FL_Wheel', 'FR_Position', 'FR_Wheel'];(0.0, 2555.236328125, 0.006135923322290182, 2663.266845703125, -0.003067961661145091, 2553.52734375, 0.0, 2667.568115234375);(0.0, 0.0, 0.0, 0.0, 0.0, 0.0, 0.0, 0.0);(5.380000114440918, 86.08000183105469, -61.87000274658203, 5.380000114440918, 37.65999984741211, 2.690000057220459, 0.0, 0.0)
2024/05/03/13:20:06.679917;192315;1714767606;693927734;;['BL_Position', 'BL_Wheel', 'BR_Position', 'BR_Wheel', 'FL_Position', 'FL_Wheel', 'FR_Position', 'FR_Wheel'];(0.0, 2555.236328125, 0.006135923322290182, 2663.268310546875, -0.003067961661145091, 2553.52734375, 0.0, 2667.568115234375);(0.0, 0.0, 0.0, 0.0, 0.0, 0.0, 0.0, 0.0);(5.380000114440918, 86.08000183105469, -61.87000274658203, 5.380000114440918, 21.520000457763672, 2.690000057220459, 0.0, 0.0)
2024/05/03/13:20:06.685021;192316;1714767606;709863493;;['BL_Position', 'BL_Wheel', 'BR_Position', 'BR_Wheel', 'FL_Position', 'FL_Wheel', 'FR_Position', 'FR_Wheel'];(0.0, 2555.236328125, 0.006135923322290182, 2663.268310546875, -0.003067961661145091, 2553.52734375, 0.0, 2667.569580078125);(0.0, 0.0, 0.0, 0.0, 0.0, 0.0, 0.0, 0.0);(5.380000114440918, 86.08000183105469, -61.87000274658203, 5.380000114440918, 13.450000762939453, 2.690000057220459, 0.0, 0.0)
2024/05/03/13:20:06.696229;192317;1714767606;725872326;;['BL_Position', 'BL_Wheel', 'BR_Position', 'BR_Wheel', 'FL_Position', 'FL_Wheel', 'FR_Position', 'FR_Wheel'];(0.0, 2555.236328125, 0.006135923322290182, 2663.266845703125, -0.0015339808305725455, 2553.52734375, 0.0, 2667.569580078125);(0.0, 0.0, 0.0, 0.0, 0.0, 0.0, 0.0, 0.0);(5.380000114440918, 86.08000183105469, -61.87000274658203, 5.380000114440918, 13.450000762939453, 2.690000057220459, 0.0, 0.0)
2024/05/03/13:20:06.717144;192318;1714767606;746979677;;['BL_Position', 'BL_Wheel', 'BR_Position', 'BR_Wheel', 'FL_Position', 'FL_Wheel', 'FR_Position', 'FR_Wheel'];(0.0, 2555.236328125, 0.006135923322290182, 2663.268310546875, -0.0015339808305725455, 2553.52587890625, 0.0, 2667.568115234375);(0.0, 0.0, 0.0, 0.0, 0.0, 0.0, 0.0, 0.0);(5.380000114440918, 86.08000183105469, -61.87000274658203, 5.380000114440918, 16.139999389648438, 2.690000057220459, 0.0, 0.0)
2024/05/03/13:20:06.727278;192319;1714767606;757820769;;['BL_Position', 'BL_Wheel', 'BR_Position', 'BR_Wheel', 'FL_Position', 'FL_Wheel', 'FR_Position', 'FR_Wheel'];(0.0, 2555.236328125, 0.006135923322290182, 2663.268310546875, -0.0015339808305725455, 2553.52734375, 0.0, 2667.568115234375);(0.0, 0.0, 0.0, 0.0, 0.0, 0.0, 0.0, 0.0);(5.380000114440918, 86.08000183105469, -61.87000274658203, 5.380000114440918, 34.970001220703125, 2.690000057220459, 0.0, 0.0)
2024/05/03/13:20:06.752162;192320;1714767606;773809010;;['BL_Position', 'BL_Wheel', 'BR_Position', 'BR_Wheel', 'FL_Position', 'FL_Wheel', 'FR_Position', 'FR_Wheel'];(0.0, 2555.236328125, 0.006135923322290182, 2663.268310546875, -0.0015339808305725455, 2553.52734375, 0.0, 2667.568115234375);(0.0, 0.0, 0.0, 0.0, 0.0, 0.0, 0.0, 0.0);(5.380000114440918, 86.08000183105469, -61.87000274658203, 5.380000114440918, 18.829999923706055, 2.690000057220459, 0.0, 0.0)
2024/05/03/13:20:06.782430;192321;1714767606;789937991;;['BL_Position', 'BL_Wheel', 'BR_Position', 'BR_Wheel', 'FL_Position', 'FL_Wheel', 'FR_Position', 'FR_Wheel'];(0.0, 2555.236328125, 0.006135923322290182, 2663.268310546875, -0.003067961661145091, 2553.52734375, 0.0, 2667.569580078125);(0.0, 0.0, 0.0, 0.0, 0.0, 0.0, 0.0, 0.0);(5.380000114440918, 86.08000183105469, -61.87000274658203, 5.380000114440918, 40.35000228881836, 2.690000057220459, 0.0, 0.0)
2024/05/03/13:20:06.787357;192322;1714767606;806224546;;['BL_Position', 'BL_Wheel', 'BR_Position', 'BR_Wheel', 'FL_Position', 'FL_Wheel', 'FR_Position', 'FR_Wheel'];(0.0, 2555.236328125, 0.006135923322290182, 2663.266845703125, -0.003067961661145091, 2553.52734375, 0.0, 2667.568115234375);(0.0, 0.0, 0.0, 0.0, 0.0, 0.0, 0.0, 0.0);(5.380000114440918, 86.08000183105469, -61.87000274658203, 5.380000114440918, 21.520000457763672, 2.690000057220459, 0.0, 0.0)
2024/05/03/13:20:06.801528;192323;1714767606;821818861;;['BL_Position', 'BL_Wheel', 'BR_Position', 'BR_Wheel', 'FL_Position', 'FL_Wheel', 'FR_Position', 'FR_Wheel'];(0.0, 2555.236328125, 0.006135923322290182, 2663.266845703125, -0.0015339808305725455, 2553.52734375, 0.0, 2667.568115234375);(0.0, 0.0, 0.0, 0.0, 0.0, 0.0, 0.0, 0.0);(5.380000114440918, 86.08000183105469, -61.87000274658203, 5.380000114440918, 18.829999923706055, 2.690000057220459, 0.0, 0.0)
2024/05/03/13:20:06.812784;192324;1714767606;837939582;;['BL_Position', 'BL_Wheel', 'BR_Position', 'BR_Wheel', 'FL_Position', 'FL_Wheel', 'FR_Position', 'FR_Wheel'];(0.0, 2555.236328125, 0.006135923322290182, 2663.268310546875, -0.003067961661145091, 2553.52587890625, 0.0, 2667.568115234375);(0.0, 0.0, 0.0, 0.0, 0.0, 0.0, 0.0, 0.0);(5.380000114440918, 86.08000183105469, -61.87000274658203, 5.380000114440918, 16.139999389648438, 2.690000057220459, 0.0, 0.0)
2024/05/03/13:20:06.824763;192325;1714767606;853979638;;['BL_Position', 'BL_Wheel', 'BR_Position', 'BR_Wheel', 'FL_Position', 'FL_Wheel', 'FR_Position', 'FR_Wheel'];(0.0, 2555.236328125, 0.006135923322290182, 2663.266845703125, -0.0015339808305725455, 2553.52734375, 0.0, 2667.568115234375);(0.0, 0.0, 0.0, 0.0, 0.0, 0.0, 0.0, 0.0);(5.380000114440918, 86.08000183105469, -61.87000274658203, 5.380000114440918, 24.21000099182129, 2.690000057220459, 0.0, 0.0)
2024/05/03/13:20:06.843141;192326;1714767606;869845711;;['BL_Position', 'BL_Wheel', 'BR_Position', 'BR_Wheel', 'FL_Position', 'FL_Wheel', 'FR_Position', 'FR_Wheel'];(0.0, 2555.236328125, 0.006135923322290182, 2663.266845703125, -0.003067961661145091, 2553.52587890625, 0.0, 2667.568115234375);(0.0, 0.0, 0.0, 0.0, 0.0, 0.0, 0.0, 0.0);(5.380000114440918, 86.08000183105469, -61.87000274658203, 5.380000114440918, 29.59000015258789, 2.690000057220459, 0.0, 0.0)
2024/05/03/13:20:06.855912;192327;1714767606;885837266;;['BL_Position', 'BL_Wheel', 'BR_Position', 'BR_Wheel', 'FL_Position', 'FL_Wheel', 'FR_Position', 'FR_Wheel'];(0.0, 2555.236328125, 0.006135923322290182, 2663.266845703125, -0.003067961661145091, 2553.52734375, 0.0, 2667.569580078125);(0.0, 0.0, 0.0, 0.0, 0.0, 0.0, 0.0, 0.0);(5.380000114440918, 86.08000183105469, -61.87000274658203, 5.380000114440918, 18.829999923706055, 2.690000057220459, 0.0, 0.0)
2024/05/03/13:20:06.884361;192328;1714767606;901780340;;['BL_Position', 'BL_Wheel', 'BR_Position', 'BR_Wheel', 'FL_Position', 'FL_Wheel', 'FR_Position', 'FR_Wheel'];(0.0, 2555.236328125, 0.006135923322290182, 2663.268310546875, -0.0015339808305725455, 2553.52587890625, 0.0, 2667.569580078125);(0.0, 0.0, 0.0, 0.0, 0.0, 0.0, 0.0, 0.0);(5.380000114440918, 86.08000183105469, -61.87000274658203, 5.380000114440918, 24.21000099182129, 2.690000057220459, 0.0, 0.0)
2024/05/03/13:20:06.889372;192329;1714767606;917808377;;['BL_Position', 'BL_Wheel', 'BR_Position', 'BR_Wheel', 'FL_Position', 'FL_Wheel', 'FR_Position', 'FR_Wheel'];(0.0, 2555.236328125, 0.006135923322290182, 2663.268310546875, -0.0015339808305725455, 2553.52734375, 0.0, 2667.568115234375);(0.0, 0.0, 0.0, 0.0, 0.0, 0.0, 0.0, 0.0);(5.380000114440918, 86.08000183105469, -61.87000274658203, 5.380000114440918, 21.520000457763672, 2.690000057220459, 0.0, 0.0)
