time;.header.seq;.header.stamp.secs;.header.stamp.nsecs;.header.frame_id;.name;.position;.velocity;.effort
2024/05/03/13:05:02.268557;135787;1714766702;278958332;;['BL_Position', 'BL_Wheel', 'BR_Position', 'BR_Wheel', 'FL_Position', 'FL_Wheel', 'FR_Position', 'FR_Wheel'];(0.0, 1887.9193115234375, -0.003067961661145091, 2050.4599609375, 0.0015339808305725455, 1885.951171875, 0.0, 2054.856201171875);(0.0, 0.0, 0.0, 0.0, 0.0, 0.0, 0.0, 0.0);(5.380000114440918, 13.450000762939453, 40.35000228881836, 10.760000228881836, -5.380000114440918, -2.690000057220459, 2.690000057220459, 0.0)
2024/05/03/13:05:02.272990;135788;1714766702;295300980;;['BL_Position', 'BL_Wheel', 'BR_Position', 'BR_Wheel', 'FL_Position', 'FL_Wheel', 'FR_Position', 'FR_Wheel'];(-0.0015339808305725455, 1887.9193115234375, -0.003067961661145091, 2050.4599609375, 0.0015339808305725455, 1885.951171875, 0.0, 2054.85791015625);(0.0, 0.0, 0.0, 0.0, 0.0, 0.0, 0.0, 0.0);(5.380000114440918, 13.450000762939453, 48.42000198364258, 10.760000228881836, -5.380000114440918, -2.690000057220459, 2.690000057220459, 0.0)
2024/05/03/13:05:02.286665;135789;1714766702;310798368;;['BL_Position', 'BL_Wheel', 'BR_Position', 'BR_Wheel', 'FL_Position', 'FL_Wheel', 'FR_Position', 'FR_Wheel'];(0.0, 1887.9193115234375, -0.003067961661145091, 2050.4599609375, 0.0015339808305725455, 1885.951171875, 0.0, 2054.85791015625);(0.0, 0.0, 0.0, 0.0, 0.0, 0.0, 0.0, 0.0);(8.069999694824219, 13.450000762939453, 43.040000915527344, 10.760000228881836, -5.380000114440918, -2.690000057220459, 2.690000057220459, 0.0)
2024/05/03/13:05:02.303112;135790;1714766702;326810793;;['BL_Position', 'BL_Wheel', 'BR_Position', 'BR_Wheel', 'FL_Position', 'FL_Wheel', 'FR_Position', 'FR_Wheel'];(0.0, 1887.9193115234375, -0.004601942375302315, 2050.4599609375, 0.0015339808305725455, 1885.951171875, 0.0, 2054.856201171875);(0.0, 0.0, 0.0, 0.0, 0.0, 0.0, 0.0, 0.0);(8.069999694824219, 13.450000762939453, 43.040000915527344, 10.760000228881836, -5.380000114440918, -2.690000057220459, 2.690000057220459, 0.0)
2024/05/03/13:05:02.318601;135791;1714766702;342831015;;['BL_Position', 'BL_Wheel', 'BR_Position', 'BR_Wheel', 'FL_Position', 'FL_Wheel', 'FR_Position', 'FR_Wheel'];(0.0, 1887.9193115234375, -0.003067961661145091, 2050.4599609375, 0.0015339808305725455, 1885.951171875, -0.0015339808305725455, 2054.85791015625);(0.0, 0.0, 0.0, 0.0, 0.0, 0.0, 0.0, 0.0);(5.380000114440918, 13.450000762939453, 40.35000228881836, 10.760000228881836, -5.380000114440918, -2.690000057220459, 2.690000057220459, 0.0)
2024/05/03/13:05:02.334688;135792;1714766702;358853736;;['BL_Position', 'BL_Wheel', 'BR_Position', 'BR_Wheel', 'FL_Position', 'FL_Wheel', 'FR_Position', 'FR_Wheel'];(0.0, 1887.9193115234375, -0.004601942375302315, 2050.4599609375, 0.0015339808305725455, 1885.951171875, 0.0, 2054.856201171875);(0.0, 0.0, 0.0, 0.0, 0.0, 0.0, 0.0, 0.0);(5.380000114440918, 13.450000762939453, 43.040000915527344, 10.760000228881836, -5.380000114440918, -2.690000057220459, 2.690000057220459, 0.0)
2024/05/03/13:05:02.353847;135793;1714766702;374929995;;['BL_Position', 'BL_Wheel', 'BR_Position', 'BR_Wheel', 'FL_Position', 'FL_Wheel', 'FR_Position', 'FR_Wheel'];(0.0, 1887.9193115234375, -0.004601942375302315, 2050.4599609375, 0.0015339808305725455, 1885.951171875, -0.0015339808305725455, 2054.856201171875);(0.0, 0.0, 0.0, 0.0, 0.0, 0.0, 0.0, 0.0);(5.380000114440918, 13.450000762939453, 34.970001220703125, 10.760000228881836, -5.380000114440918, -2.690000057220459, 2.690000057220459, 0.0)
2024/05/03/13:05:02.366405;135794;1714766702;390854124;;['BL_Position', 'BL_Wheel', 'BR_Position', 'BR_Wheel', 'FL_Position', 'FL_Wheel', 'FR_Position', 'FR_Wheel'];(0.0, 1887.9193115234375, -0.003067961661145091, 2050.4599609375, 0.0015339808305725455, 1885.951171875, 0.0, 2054.856201171875);(0.0, 0.0, 0.0, 0.0, 0.0, 0.0, 0.0, 0.0);(5.380000114440918, 13.450000762939453, 43.040000915527344, 10.760000228881836, -5.380000114440918, -2.690000057220459, 2.690000057220459, 0.0)
2024/05/03/13:05:02.382749;135795;1714766702;406848049;;['BL_Position', 'BL_Wheel', 'BR_Position', 'BR_Wheel', 'FL_Position', 'FL_Wheel', 'FR_Position', 'FR_Wheel'];(-0.0015339808305725455, 1887.9193115234375, -0.003067961661145091, 2050.4599609375, 0.0015339808305725455, 1885.951171875, -0.0015339808305725455, 2054.856201171875);(0.0, 0.0, 0.0, 0.0, 0.0, 0.0, 0.0, 0.0);(5.380000114440918, 13.450000762939453, 43.040000915527344, 10.760000228881836, -5.380000114440918, -2.690000057220459, 2.690000057220459, 0.0)
2024/05/03/13:05:02.398739;135796;1714766702;422860808;;['BL_Position', 'BL_Wheel', 'BR_Position', 'BR_Wheel', 'FL_Position', 'FL_Wheel', 'FR_Position', 'FR_Wheel'];(0.0, 1887.9193115234375, -0.003067961661145091, 2050.4599609375, 0.0015339808305725455, 1885.951171875, 0.0, 2054.85791015625);(0.0, 0.0, 0.0, 0.0, 0.0, 0.0, 0.0, 0.0);(8.069999694824219, 13.450000762939453, 40.35000228881836, 10.760000228881836, -5.380000114440918, -2.690000057220459, 5.380000114440918, 0.0)
2024/05/03/13:05:02.414473;135797;1714766702;438849974;;['BL_Position', 'BL_Wheel', 'BR_Position', 'BR_Wheel', 'FL_Position', 'FL_Wheel', 'FR_Position', 'FR_Wheel'];(0.0, 1887.9193115234375, -0.003067961661145091, 2050.4599609375, 0.0015339808305725455, 1885.951171875, 0.0, 2054.856201171875);(0.0, 0.0, 0.0, 0.0, 0.0, 0.0, 0.0, 0.0);(5.380000114440918, 13.450000762939453, 34.970001220703125, 10.760000228881836, -5.380000114440918, -2.690000057220459, 2.690000057220459, 0.0)
2024/05/03/13:05:02.436221;135798;1714766702;454798269;;['BL_Position', 'BL_Wheel', 'BR_Position', 'BR_Wheel', 'FL_Position', 'FL_Wheel', 'FR_Position', 'FR_Wheel'];(-0.0015339808305725455, 1887.9193115234375, -0.003067961661145091, 2050.4599609375, 0.0015339808305725455, 1885.951171875, 0.0, 2054.85791015625);(0.0, 0.0, 0.0, 0.0, 0.0, 0.0, 0.0, 0.0);(5.380000114440918, 13.450000762939453, 48.42000198364258, 10.760000228881836, -5.380000114440918, -2.690000057220459, 2.690000057220459, 0.0)
2024/05/03/13:05:02.446828;135799;1714766702;470824695;;['BL_Position', 'BL_Wheel', 'BR_Position', 'BR_Wheel', 'FL_Position', 'FL_Wheel', 'FR_Position', 'FR_Wheel'];(0.0, 1887.9193115234375, -0.003067961661145091, 2050.4599609375, 0.0015339808305725455, 1885.951171875, 0.0, 2054.85791015625);(0.0, 0.0, 0.0, 0.0, 0.0, 0.0, 0.0, 0.0);(5.380000114440918, 13.450000762939453, 45.72999954223633, 10.760000228881836, -5.380000114440918, -2.690000057220459, 2.690000057220459, 0.0)
2024/05/03/13:05:02.467287;135800;1714766702;486824268;;['BL_Position', 'BL_Wheel', 'BR_Position', 'BR_Wheel', 'FL_Position', 'FL_Wheel', 'FR_Position', 'FR_Wheel'];(0.0, 1887.9193115234375, -0.004601942375302315, 2050.4599609375, 0.0015339808305725455, 1885.951171875, 0.0, 2054.856201171875);(0.0, 0.0, 0.0, 0.0, 0.0, 0.0, 0.0, 0.0);(5.380000114440918, 13.450000762939453, 43.040000915527344, 10.760000228881836, -5.380000114440918, -2.690000057220459, 2.690000057220459, 0.0)
2024/05/03/13:05:02.478844;135801;1714766702;502825138;;['BL_Position', 'BL_Wheel', 'BR_Position', 'BR_Wheel', 'FL_Position', 'FL_Wheel', 'FR_Position', 'FR_Wheel'];(0.0, 1887.9193115234375, -0.003067961661145091, 2050.4599609375, 0.0015339808305725455, 1885.951171875, 0.0, 2054.856201171875);(0.0, 0.0, 0.0, 0.0, 0.0, 0.0, 0.0, 0.0);(5.380000114440918, 13.450000762939453, 34.970001220703125, 10.760000228881836, -5.380000114440918, -2.690000057220459, 2.690000057220459, 0.0)
2024/05/03/13:05:02.495682;135802;1714766702;518841508;;['BL_Position', 'BL_Wheel', 'BR_Position', 'BR_Wheel', 'FL_Position', 'FL_Wheel', 'FR_Position', 'FR_Wheel'];(0.0, 1887.9193115234375, -0.004601942375302315, 2050.4599609375, 0.0015339808305725455, 1885.951171875, 0.0, 2054.85791015625);(0.0, 0.0, 0.0, 0.0, 0.0, 0.0, 0.0, 0.0);(5.380000114440918, 13.450000762939453, 40.35000228881836, 10.760000228881836, -5.380000114440918, -2.690000057220459, 2.690000057220459, 0.0)
2024/05/03/13:05:02.510687;135803;1714766702;534793229;;['BL_Position', 'BL_Wheel', 'BR_Position', 'BR_Wheel', 'FL_Position', 'FL_Wheel', 'FR_Position', 'FR_Wheel'];(0.0, 1887.9193115234375, -0.004601942375302315, 2050.4599609375, 0.0015339808305725455, 1885.951171875, 0.0, 2054.85791015625);(0.0, 0.0, 0.0, 0.0, 0.0, 0.0, 0.0, 0.0);(5.380000114440918, 13.450000762939453, 34.970001220703125, 10.760000228881836, -5.380000114440918, -2.690000057220459, 2.690000057220459, 0.0)
2024/05/03/13:05:02.537941;135804;1714766702;550876654;;['BL_Position', 'BL_Wheel', 'BR_Position', 'BR_Wheel', 'FL_Position', 'FL_Wheel', 'FR_Position', 'FR_Wheel'];(0.0, 1887.9193115234375, -0.004601942375302315, 2050.4599609375, 0.0015339808305725455, 1885.951171875, 0.0, 2054.85791015625);(0.0, 0.0, 0.0, 0.0, 0.0, 0.0, 0.0, 0.0);(5.380000114440918, 13.450000762939453, 34.970001220703125, 10.760000228881836, -5.380000114440918, -2.690000057220459, 5.380000114440918, 0.0)
2024/05/03/13:05:02.543046;135805;1714766702;566789969;;['BL_Position', 'BL_Wheel', 'BR_Position', 'BR_Wheel', 'FL_Position', 'FL_Wheel', 'FR_Position', 'FR_Wheel'];(0.0, 1887.9193115234375, -0.003067961661145091, 2050.4599609375, 0.0015339808305725455, 1885.951171875, 0.0, 2054.856201171875);(0.0, 0.0, 0.0, 0.0, 0.0, 0.0, 0.0, 0.0);(5.380000114440918, 13.450000762939453, 45.72999954223633, 10.760000228881836, -5.380000114440918, -2.690000057220459, 5.380000114440918, 0.0)
2024/05/03/13:05:02.568702;135806;1714766702;582834320;;['BL_Position', 'BL_Wheel', 'BR_Position', 'BR_Wheel', 'FL_Position', 'FL_Wheel', 'FR_Position', 'FR_Wheel'];(0.0, 1887.9193115234375, -0.004601942375302315, 2050.4599609375, 0.0015339808305725455, 1885.951171875, 0.0, 2054.85791015625);(0.0, 0.0, 0.0, 0.0, 0.0, 0.0, 0.0, 0.0);(5.380000114440918, 13.450000762939453, 37.65999984741211, 10.760000228881836, -5.380000114440918, -2.690000057220459, 2.690000057220459, 0.0)
2024/05/03/13:05:02.576174;135807;1714766702;598824004;;['BL_Position', 'BL_Wheel', 'BR_Position', 'BR_Wheel', 'FL_Position', 'FL_Wheel', 'FR_Position', 'FR_Wheel'];(0.0, 1887.9193115234375, -0.004601942375302315, 2050.4599609375, 0.0015339808305725455, 1885.951171875, 0.0, 2054.85791015625);(0.0, 0.0, 0.0, 0.0, 0.0, 0.0, 0.0, 0.0);(5.380000114440918, 13.450000762939453, 40.35000228881836, 10.760000228881836, -5.380000114440918, -2.690000057220459, 5.380000114440918, 0.0)
2024/05/03/13:05:02.590216;135808;1714766702;614804596;;['BL_Position', 'BL_Wheel', 'BR_Position', 'BR_Wheel', 'FL_Position', 'FL_Wheel', 'FR_Position', 'FR_Wheel'];(0.0, 1887.9193115234375, -0.003067961661145091, 2050.4599609375, 0.0015339808305725455, 1885.951171875, 0.0, 2054.85791015625);(0.0, 0.0, 0.0, 0.0, 0.0, 0.0, 0.0, 0.0);(5.380000114440918, 13.450000762939453, 37.65999984741211, 10.760000228881836, -5.380000114440918, -2.690000057220459, 2.690000057220459, 0.0)
2024/05/03/13:05:02.604841;135809;1714766702;630985003;;['BL_Position', 'BL_Wheel', 'BR_Position', 'BR_Wheel', 'FL_Position', 'FL_Wheel', 'FR_Position', 'FR_Wheel'];(0.0, 1887.9193115234375, -0.003067961661145091, 2050.4599609375, 0.0015339808305725455, 1885.951171875, 0.0, 2054.856201171875);(0.0, 0.0, 0.0, 0.0, 0.0, 0.0, 0.0, 0.0);(5.380000114440918, 13.450000762939453, 37.65999984741211, 10.760000228881836, -5.380000114440918, -2.690000057220459, 2.690000057220459, 0.0)
2024/05/03/13:05:02.622495;135810;1714766702;646854484;;['BL_Position', 'BL_Wheel', 'BR_Position', 'BR_Wheel', 'FL_Position', 'FL_Wheel', 'FR_Position', 'FR_Wheel'];(0.0, 1887.9193115234375, -0.004601942375302315, 2050.4599609375, 0.0015339808305725455, 1885.951171875, 0.0, 2054.85791015625);(0.0, 0.0, 0.0, 0.0, 0.0, 0.0, 0.0, 0.0);(5.380000114440918, 13.450000762939453, 40.35000228881836, 10.760000228881836, -5.380000114440918, -2.690000057220459, 2.690000057220459, 0.0)
2024/05/03/13:05:02.640648;135811;1714766702;662843428;;['BL_Position', 'BL_Wheel', 'BR_Position', 'BR_Wheel', 'FL_Position', 'FL_Wheel', 'FR_Position', 'FR_Wheel'];(0.0, 1887.9193115234375, -0.004601942375302315, 2050.4599609375, 0.0015339808305725455, 1885.951171875, 0.0, 2054.85791015625);(0.0, 0.0, 0.0, 0.0, 0.0, 0.0, 0.0, 0.0);(5.380000114440918, 13.450000762939453, 37.65999984741211, 10.760000228881836, -5.380000114440918, -2.690000057220459, 2.690000057220459, 0.0)
2024/05/03/13:05:02.654409;135812;1714766702;678878649;;['BL_Position', 'BL_Wheel', 'BR_Position', 'BR_Wheel', 'FL_Position', 'FL_Wheel', 'FR_Position', 'FR_Wheel'];(0.0, 1887.9193115234375, -0.003067961661145091, 2050.4599609375, 0.0015339808305725455, 1885.951171875, 0.0, 2054.856201171875);(0.0, 0.0, 0.0, 0.0, 0.0, 0.0, 0.0, 0.0);(5.380000114440918, 13.450000762939453, 37.65999984741211, 10.760000228881836, -5.380000114440918, -2.690000057220459, 2.690000057220459, 0.0)
2024/05/03/13:05:02.670556;135813;1714766702;694874019;;['BL_Position', 'BL_Wheel', 'BR_Position', 'BR_Wheel', 'FL_Position', 'FL_Wheel', 'FR_Position', 'FR_Wheel'];(0.0, 1887.9193115234375, -0.004601942375302315, 2050.4599609375, 0.0015339808305725455, 1885.951171875, 0.0, 2054.856201171875);(0.0, 0.0, 0.0, 0.0, 0.0, 0.0, 0.0, 0.0);(5.380000114440918, 13.450000762939453, 40.35000228881836, 10.760000228881836, -5.380000114440918, -2.690000057220459, 2.690000057220459, 0.0)
2024/05/03/13:05:02.687208;135814;1714766702;710869315;;['BL_Position', 'BL_Wheel', 'BR_Position', 'BR_Wheel', 'FL_Position', 'FL_Wheel', 'FR_Position', 'FR_Wheel'];(0.0, 1887.9193115234375, -0.003067961661145091, 2050.4599609375, 0.0015339808305725455, 1885.951171875, 0.0, 2054.85791015625);(0.0, 0.0, 0.0, 0.0, 0.0, 0.0, 0.0, 0.0);(5.380000114440918, 13.450000762939453, 43.040000915527344, 10.760000228881836, -5.380000114440918, -2.690000057220459, 2.690000057220459, 0.0)
2024/05/03/13:05:02.701514;135815;1714766702;726802184;;['BL_Position', 'BL_Wheel', 'BR_Position', 'BR_Wheel', 'FL_Position', 'FL_Wheel', 'FR_Position', 'FR_Wheel'];(0.0, 1887.9193115234375, -0.003067961661145091, 2050.4599609375, 0.0015339808305725455, 1885.951171875, -0.0015339808305725455, 2054.85791015625);(0.0, 0.0, 0.0, 0.0, 0.0, 0.0, 0.0, 0.0);(5.380000114440918, 13.450000762939453, 45.72999954223633, 10.760000228881836, -5.380000114440918, -2.690000057220459, 2.690000057220459, 0.0)
2024/05/03/13:05:02.718420;135816;1714766702;742888554;;['BL_Position', 'BL_Wheel', 'BR_Position', 'BR_Wheel', 'FL_Position', 'FL_Wheel', 'FR_Position', 'FR_Wheel'];(0.0, 1887.9193115234375, -0.003067961661145091, 2050.4599609375, 0.0015339808305725455, 1885.951171875, 0.0, 2054.856201171875);(0.0, 0.0, 0.0, 0.0, 0.0, 0.0, 0.0, 0.0);(5.380000114440918, 13.450000762939453, 37.65999984741211, 10.760000228881836, -5.380000114440918, -2.690000057220459, 5.380000114440918, 0.0)
2024/05/03/13:05:02.743579;135817;1714766702;758822554;;['BL_Position', 'BL_Wheel', 'BR_Position', 'BR_Wheel', 'FL_Position', 'FL_Wheel', 'FR_Position', 'FR_Wheel'];(0.0, 1887.9193115234375, -0.004601942375302315, 2050.4599609375, 0.0015339808305725455, 1885.951171875, 0.0, 2054.856201171875);(0.0, 0.0, 0.0, 0.0, 0.0, 0.0, 0.0, 0.0);(5.380000114440918, 13.450000762939453, 37.65999984741211, 10.760000228881836, -5.380000114440918, -2.690000057220459, 5.380000114440918, 0.0)
2024/05/03/13:05:02.750466;135818;1714766702;774836794;;['BL_Position', 'BL_Wheel', 'BR_Position', 'BR_Wheel', 'FL_Position', 'FL_Wheel', 'FR_Position', 'FR_Wheel'];(0.0, 1887.9193115234375, -0.003067961661145091, 2050.4599609375, 0.0015339808305725455, 1885.951171875, 0.0, 2054.85791015625);(0.0, 0.0, 0.0, 0.0, 0.0, 0.0, 0.0, 0.0);(5.380000114440918, 13.450000762939453, 37.65999984741211, 10.760000228881836, -5.380000114440918, -2.690000057220459, 5.380000114440918, 0.0)
2024/05/03/13:05:02.770501;135819;1714766702;790806145;;['BL_Position', 'BL_Wheel', 'BR_Position', 'BR_Wheel', 'FL_Position', 'FL_Wheel', 'FR_Position', 'FR_Wheel'];(0.0, 1887.9193115234375, -0.003067961661145091, 2050.4599609375, 0.0015339808305725455, 1885.951171875, 0.0, 2054.85791015625);(0.0, 0.0, 0.0, 0.0, 0.0, 0.0, 0.0, 0.0);(5.380000114440918, 13.450000762939453, 37.65999984741211, 10.760000228881836, -5.380000114440918, -2.690000057220459, 5.380000114440918, 0.0)
2024/05/03/13:05:02.782886;135820;1714766702;806831589;;['BL_Position', 'BL_Wheel', 'BR_Position', 'BR_Wheel', 'FL_Position', 'FL_Wheel', 'FR_Position', 'FR_Wheel'];(0.0, 1887.9193115234375, -0.003067961661145091, 2050.4599609375, 0.0015339808305725455, 1885.951171875, 0.0, 2054.85791015625);(0.0, 0.0, 0.0, 0.0, 0.0, 0.0, 0.0, 0.0);(5.380000114440918, 13.450000762939453, 40.35000228881836, 10.760000228881836, -8.069999694824219, -2.690000057220459, 5.380000114440918, 0.0)
2024/05/03/13:05:02.798933;135821;1714766702;822771699;;['BL_Position', 'BL_Wheel', 'BR_Position', 'BR_Wheel', 'FL_Position', 'FL_Wheel', 'FR_Position', 'FR_Wheel'];(0.0, 1887.9193115234375, -0.003067961661145091, 2050.4599609375, 0.0015339808305725455, 1885.951171875, 0.0, 2054.856201171875);(0.0, 0.0, 0.0, 0.0, 0.0, 0.0, 0.0, 0.0);(5.380000114440918, 13.450000762939453, 43.040000915527344, 10.760000228881836, -5.380000114440918, -2.690000057220459, 5.380000114440918, 0.0)
2024/05/03/13:05:02.814426;135822;1714766702;838822050;;['BL_Position', 'BL_Wheel', 'BR_Position', 'BR_Wheel', 'FL_Position', 'FL_Wheel', 'FR_Position', 'FR_Wheel'];(0.0, 1887.9193115234375, -0.003067961661145091, 2050.4599609375, 0.0015339808305725455, 1885.951171875, 0.0, 2054.85791015625);(0.0, 0.0, 0.0, 0.0, 0.0, 0.0, 0.0, 0.0);(5.380000114440918, 13.450000762939453, 40.35000228881836, 10.760000228881836, -5.380000114440918, -2.690000057220459, 5.380000114440918, 0.0)
2024/05/03/13:05:02.830857;135823;1714766702;854750661;;['BL_Position', 'BL_Wheel', 'BR_Position', 'BR_Wheel', 'FL_Position', 'FL_Wheel', 'FR_Position', 'FR_Wheel'];(0.0, 1887.9193115234375, -0.003067961661145091, 2050.4599609375, 0.0015339808305725455, 1885.951171875, -0.0015339808305725455, 2054.85791015625);(0.0, 0.0, 0.0, 0.0, 0.0, 0.0, 0.0, 0.0);(5.380000114440918, 13.450000762939453, 37.65999984741211, 10.760000228881836, -5.380000114440918, -2.690000057220459, 5.380000114440918, 0.0)
2024/05/03/13:05:02.846428;135824;1714766702;870787401;;['BL_Position', 'BL_Wheel', 'BR_Position', 'BR_Wheel', 'FL_Position', 'FL_Wheel', 'FR_Position', 'FR_Wheel'];(-0.0015339808305725455, 1887.9193115234375, -0.003067961661145091, 2050.4599609375, 0.0015339808305725455, 1885.951171875, 0.0, 2054.85791015625);(0.0, 0.0, 0.0, 0.0, 0.0, 0.0, 0.0, 0.0);(5.380000114440918, 13.450000762939453, 37.65999984741211, 10.760000228881836, -5.380000114440918, -2.690000057220459, 5.380000114440918, 0.0)
2024/05/03/13:05:02.873831;135825;1714766702;886862400;;['BL_Position', 'BL_Wheel', 'BR_Position', 'BR_Wheel', 'FL_Position', 'FL_Wheel', 'FR_Position', 'FR_Wheel'];(0.0, 1887.9193115234375, -0.004601942375302315, 2050.4599609375, 0.0015339808305725455, 1885.951171875, 0.0, 2054.85791015625);(0.0, 0.0, 0.0, 0.0, 0.0, 0.0, 0.0, 0.0);(5.380000114440918, 13.450000762939453, 37.65999984741211, 10.760000228881836, -5.380000114440918, -2.690000057220459, 2.690000057220459, 0.0)
2024/05/03/13:05:02.881227;135826;1714766702;902831900;;['BL_Position', 'BL_Wheel', 'BR_Position', 'BR_Wheel', 'FL_Position', 'FL_Wheel', 'FR_Position', 'FR_Wheel'];(0.0, 1887.9193115234375, -0.003067961661145091, 2050.4599609375, 0.0015339808305725455, 1885.951171875, 0.0, 2054.85791015625);(0.0, 0.0, 0.0, 0.0, 0.0, 0.0, 0.0, 0.0);(5.380000114440918, 13.450000762939453, 40.35000228881836, 10.760000228881836, -5.380000114440918, -2.690000057220459, 2.690000057220459, 0.0)
2024/05/03/13:05:02.895530;135827;1714766702;918835380;;['BL_Position', 'BL_Wheel', 'BR_Position', 'BR_Wheel', 'FL_Position', 'FL_Wheel', 'FR_Position', 'FR_Wheel'];(-0.0015339808305725455, 1887.9193115234375, -0.003067961661145091, 2050.4599609375, 0.0015339808305725455, 1885.951171875, -0.0015339808305725455, 2054.85791015625);(0.0, 0.0, 0.0, 0.0, 0.0, 0.0, 0.0, 0.0);(5.380000114440918, 13.450000762939453, 43.040000915527344, 10.760000228881836, -5.380000114440918, -2.690000057220459, 5.380000114440918, 0.0)
2024/05/03/13:05:02.911053;135828;1714766702;934868676;;['BL_Position', 'BL_Wheel', 'BR_Position', 'BR_Wheel', 'FL_Position', 'FL_Wheel', 'FR_Position', 'FR_Wheel'];(0.0, 1887.9193115234375, -0.003067961661145091, 2050.4599609375, 0.0015339808305725455, 1885.951171875, 0.0, 2054.85791015625);(0.0, 0.0, 0.0, 0.0, 0.0, 0.0, 0.0, 0.0);(8.069999694824219, 13.450000762939453, 37.65999984741211, 10.760000228881836, -5.380000114440918, -2.690000057220459, 5.380000114440918, 0.0)
2024/05/03/13:05:02.927117;135829;1714766702;950795361;;['BL_Position', 'BL_Wheel', 'BR_Position', 'BR_Wheel', 'FL_Position', 'FL_Wheel', 'FR_Position', 'FR_Wheel'];(0.0, 1887.9193115234375, -0.003067961661145091, 2050.4599609375, 0.0015339808305725455, 1885.951171875, 0.0, 2054.85791015625);(0.0, 0.0, 0.0, 0.0, 0.0, 0.0, 0.0, 0.0);(5.380000114440918, 13.450000762939453, 37.65999984741211, 10.760000228881836, -5.380000114440918, -2.690000057220459, 5.380000114440918, 0.0)
2024/05/03/13:05:02.948195;135830;1714766702;966966971;;['BL_Position', 'BL_Wheel', 'BR_Position', 'BR_Wheel', 'FL_Position', 'FL_Wheel', 'FR_Position', 'FR_Wheel'];(0.0, 1887.9193115234375, -0.003067961661145091, 2050.4599609375, 0.0015339808305725455, 1885.951171875, 0.0, 2054.85791015625);(0.0, 0.0, 0.0, 0.0, 0.0, 0.0, 0.0, 0.0);(5.380000114440918, 13.450000762939453, 43.040000915527344, 10.760000228881836, -5.380000114440918, -2.690000057220459, 5.380000114440918, 0.0)
2024/05/03/13:05:02.958324;135831;1714766702;982852933;;['BL_Position', 'BL_Wheel', 'BR_Position', 'BR_Wheel', 'FL_Position', 'FL_Wheel', 'FR_Position', 'FR_Wheel'];(0.0, 1887.9193115234375, -0.004601942375302315, 2050.4599609375, 0.0015339808305725455, 1885.951171875, -0.0015339808305725455, 2054.85791015625);(0.0, 0.0, 0.0, 0.0, 0.0, 0.0, 0.0, 0.0);(5.380000114440918, 13.450000762939453, 48.42000198364258, 10.760000228881836, -5.380000114440918, -2.690000057220459, 2.690000057220459, 0.0)
2024/05/03/13:05:02.980583;135832;1714766702;998818192;;['BL_Position', 'BL_Wheel', 'BR_Position', 'BR_Wheel', 'FL_Position', 'FL_Wheel', 'FR_Position', 'FR_Wheel'];(0.0, 1887.9193115234375, -0.003067961661145091, 2050.4599609375, 0.0015339808305725455, 1885.951171875, 0.0, 2054.85791015625);(0.0, 0.0, 0.0, 0.0, 0.0, 0.0, 0.0, 0.0);(5.380000114440918, 13.450000762939453, 37.65999984741211, 10.760000228881836, -5.380000114440918, -2.690000057220459, 2.690000057220459, 0.0)
2024/05/03/13:05:02.990510;135833;1714766703;14854210;;['BL_Position', 'BL_Wheel', 'BR_Position', 'BR_Wheel', 'FL_Position', 'FL_Wheel', 'FR_Position', 'FR_Wheel'];(0.0, 1887.9193115234375, -0.003067961661145091, 2050.4599609375, 0.0015339808305725455, 1885.951171875, 0.0, 2054.85791015625);(0.0, 0.0, 0.0, 0.0, 0.0, 0.0, 0.0, 0.0);(5.380000114440918, 13.450000762939453, 43.040000915527344, 10.760000228881836, -5.380000114440918, -2.690000057220459, 2.690000057220459, 0.0)
2024/05/03/13:05:03.006578;135834;1714766703;30792765;;['BL_Position', 'BL_Wheel', 'BR_Position', 'BR_Wheel', 'FL_Position', 'FL_Wheel', 'FR_Position', 'FR_Wheel'];(-0.0015339808305725455, 1887.9193115234375, -0.003067961661145091, 2050.4599609375, 0.0015339808305725455, 1885.951171875, 0.0, 2054.85791015625);(0.0, 0.0, 0.0, 0.0, 0.0, 0.0, 0.0, 0.0);(5.380000114440918, 13.450000762939453, 40.35000228881836, 10.760000228881836, -5.380000114440918, -2.690000057220459, 2.690000057220459, 0.0)
2024/05/03/13:05:03.022705;135835;1714766703;46813135;;['BL_Position', 'BL_Wheel', 'BR_Position', 'BR_Wheel', 'FL_Position', 'FL_Wheel', 'FR_Position', 'FR_Wheel'];(0.0, 1887.9193115234375, -0.003067961661145091, 2050.4599609375, 0.0015339808305725455, 1885.951171875, 0.0, 2054.856201171875);(0.0, 0.0, 0.0, 0.0, 0.0, 0.0, 0.0, 0.0);(8.069999694824219, 13.450000762939453, 37.65999984741211, 10.760000228881836, -5.380000114440918, -2.690000057220459, 2.690000057220459, 0.0)
2024/05/03/13:05:03.050390;135836;1714766703;62877782;;['BL_Position', 'BL_Wheel', 'BR_Position', 'BR_Wheel', 'FL_Position', 'FL_Wheel', 'FR_Position', 'FR_Wheel'];(0.0, 1887.9193115234375, -0.003067961661145091, 2050.4599609375, 0.0015339808305725455, 1885.951171875, 0.0, 2054.856201171875);(0.0, 0.0, 0.0, 0.0, 0.0, 0.0, 0.0, 0.0);(5.380000114440918, 13.450000762939453, 43.040000915527344, 10.760000228881836, -5.380000114440918, -2.690000057220459, 2.690000057220459, 0.0)
2024/05/03/13:05:03.055869;135837;1714766703;78829281;;['BL_Position', 'BL_Wheel', 'BR_Position', 'BR_Wheel', 'FL_Position', 'FL_Wheel', 'FR_Position', 'FR_Wheel'];(0.0, 1887.9193115234375, -0.004601942375302315, 2050.4599609375, 0.0015339808305725455, 1885.951171875, 0.0, 2054.85791015625);(0.0, 0.0, 0.0, 0.0, 0.0, 0.0, 0.0, 0.0);(5.380000114440918, 13.450000762939453, 40.35000228881836, 10.760000228881836, -5.380000114440918, -2.690000057220459, 2.690000057220459, 0.0)
2024/05/03/13:05:03.078842;135838;1714766703;94856003;;['BL_Position', 'BL_Wheel', 'BR_Position', 'BR_Wheel', 'FL_Position', 'FL_Wheel', 'FR_Position', 'FR_Wheel'];(0.0, 1887.9193115234375, -0.003067961661145091, 2050.4599609375, 0.0015339808305725455, 1885.951171875, 0.0, 2054.856201171875);(0.0, 0.0, 0.0, 0.0, 0.0, 0.0, 0.0, 0.0);(8.069999694824219, 13.450000762939453, 43.040000915527344, 10.760000228881836, -5.380000114440918, -2.690000057220459, 2.690000057220459, 0.0)
2024/05/03/13:05:03.086702;135839;1714766703;110842539;;['BL_Position', 'BL_Wheel', 'BR_Position', 'BR_Wheel', 'FL_Position', 'FL_Wheel', 'FR_Position', 'FR_Wheel'];(0.0, 1887.9193115234375, -0.003067961661145091, 2050.4599609375, 0.0015339808305725455, 1885.951171875, -0.0015339808305725455, 2054.856201171875);(0.0, 0.0, 0.0, 0.0, 0.0, 0.0, 0.0, 0.0);(5.380000114440918, 13.450000762939453, 34.970001220703125, 10.760000228881836, -5.380000114440918, -2.690000057220459, 2.690000057220459, 0.0)
2024/05/03/13:05:03.102159;135840;1714766703;126864594;;['BL_Position', 'BL_Wheel', 'BR_Position', 'BR_Wheel', 'FL_Position', 'FL_Wheel', 'FR_Position', 'FR_Wheel'];(0.0, 1887.9193115234375, -0.003067961661145091, 2050.4599609375, 0.0015339808305725455, 1885.951171875, 0.0, 2054.85791015625);(0.0, 0.0, 0.0, 0.0, 0.0, 0.0, 0.0, 0.0);(8.069999694824219, 13.450000762939453, 40.35000228881836, 10.760000228881836, -5.380000114440918, -2.690000057220459, 2.690000057220459, 0.0)
2024/05/03/13:05:03.118743;135841;1714766703;142775890;;['BL_Position', 'BL_Wheel', 'BR_Position', 'BR_Wheel', 'FL_Position', 'FL_Wheel', 'FR_Position', 'FR_Wheel'];(0.0, 1887.9193115234375, -0.003067961661145091, 2050.4599609375, 0.0015339808305725455, 1885.951171875, -0.0015339808305725455, 2054.85791015625);(0.0, 0.0, 0.0, 0.0, 0.0, 0.0, 0.0, 0.0);(5.380000114440918, 13.450000762939453, 37.65999984741211, 10.760000228881836, -5.380000114440918, -2.690000057220459, 5.380000114440918, 0.0)
2024/05/03/13:05:03.134778;135842;1714766703;158785815;;['BL_Position', 'BL_Wheel', 'BR_Position', 'BR_Wheel', 'FL_Position', 'FL_Wheel', 'FR_Position', 'FR_Wheel'];(0.0, 1887.9193115234375, -0.003067961661145091, 2050.4599609375, 0.0015339808305725455, 1885.951171875, 0.0, 2054.85791015625);(0.0, 0.0, 0.0, 0.0, 0.0, 0.0, 0.0, 0.0);(5.380000114440918, 13.450000762939453, 37.65999984741211, 10.760000228881836, -5.380000114440918, -2.690000057220459, 2.690000057220459, 0.0)
2024/05/03/13:05:03.152750;135843;1714766703;174765166;;['BL_Position', 'BL_Wheel', 'BR_Position', 'BR_Wheel', 'FL_Position', 'FL_Wheel', 'FR_Position', 'FR_Wheel'];(0.0, 1887.9193115234375, -0.004601942375302315, 2050.4599609375, 0.0015339808305725455, 1885.951171875, 0.0, 2054.85791015625);(0.0, 0.0, 0.0, 0.0, 0.0, 0.0, 0.0, 0.0);(5.380000114440918, 13.450000762939453, 45.72999954223633, 10.760000228881836, -5.380000114440918, -2.690000057220459, 2.690000057220459, 0.0)
2024/05/03/13:05:03.164921;135844;1714766703;190796647;;['BL_Position', 'BL_Wheel', 'BR_Position', 'BR_Wheel', 'FL_Position', 'FL_Wheel', 'FR_Position', 'FR_Wheel'];(-0.0015339808305725455, 1887.9193115234375, -0.003067961661145091, 2050.4599609375, 0.0015339808305725455, 1885.951171875, 0.0, 2054.856201171875);(0.0, 0.0, 0.0, 0.0, 0.0, 0.0, 0.0, 0.0);(5.380000114440918, 13.450000762939453, 40.35000228881836, 10.760000228881836, -5.380000114440918, -2.690000057220459, 5.380000114440918, 0.0)
2024/05/03/13:05:03.184217;135845;1714766703;206801906;;['BL_Position', 'BL_Wheel', 'BR_Position', 'BR_Wheel', 'FL_Position', 'FL_Wheel', 'FR_Position', 'FR_Wheel'];(0.0, 1887.9193115234375, -0.003067961661145091, 2050.4599609375, 0.003067961661145091, 1885.951171875, 0.0, 2054.85791015625);(0.0, 0.0, 0.0, 0.0, 0.0, 0.0, 0.0, 0.0);(5.380000114440918, 13.450000762939453, 37.65999984741211, 10.760000228881836, -5.380000114440918, -2.690000057220459, 5.380000114440918, 0.0)
2024/05/03/13:05:03.200392;135846;1714766703;222740053;;['BL_Position', 'BL_Wheel', 'BR_Position', 'BR_Wheel', 'FL_Position', 'FL_Wheel', 'FR_Position', 'FR_Wheel'];(0.0, 1887.9193115234375, -0.004601942375302315, 2050.4599609375, 0.0015339808305725455, 1885.951171875, -0.0015339808305725455, 2054.85791015625);(0.0, 0.0, 0.0, 0.0, 0.0, 0.0, 0.0, 0.0);(8.069999694824219, 13.450000762939453, 37.65999984741211, 10.760000228881836, -5.380000114440918, -2.690000057220459, 2.690000057220459, 0.0)
2024/05/03/13:05:03.212756;135847;1714766703;238757886;;['BL_Position', 'BL_Wheel', 'BR_Position', 'BR_Wheel', 'FL_Position', 'FL_Wheel', 'FR_Position', 'FR_Wheel'];(0.0, 1887.9193115234375, -0.003067961661145091, 2050.4599609375, 0.0015339808305725455, 1885.951171875, 0.0, 2054.85791015625);(0.0, 0.0, 0.0, 0.0, 0.0, 0.0, 0.0, 0.0);(8.069999694824219, 13.450000762939453, 43.040000915527344, 10.760000228881836, -5.380000114440918, -2.690000057220459, 2.690000057220459, 0.0)
2024/05/03/13:05:03.229472;135848;1714766703;254856941;;['BL_Position', 'BL_Wheel', 'BR_Position', 'BR_Wheel', 'FL_Position', 'FL_Wheel', 'FR_Position', 'FR_Wheel'];(0.0, 1887.9193115234375, -0.003067961661145091, 2050.4599609375, 0.0015339808305725455, 1885.951171875, 0.0, 2054.85791015625);(0.0, 0.0, 0.0, 0.0, 0.0, 0.0, 0.0, 0.0);(8.069999694824219, 13.450000762939453, 37.65999984741211, 10.760000228881836, -5.380000114440918, -2.690000057220459, 2.690000057220459, 0.0)
2024/05/03/13:05:03.255592;135849;1714766703;270844329;;['BL_Position', 'BL_Wheel', 'BR_Position', 'BR_Wheel', 'FL_Position', 'FL_Wheel', 'FR_Position', 'FR_Wheel'];(-0.0015339808305725455, 1887.9193115234375, -0.004601942375302315, 2050.4599609375, 0.0015339808305725455, 1885.951171875, -0.0015339808305725455, 2054.85791015625);(0.0, 0.0, 0.0, 0.0, 0.0, 0.0, 0.0, 0.0);(8.069999694824219, 13.450000762939453, 45.72999954223633, 10.760000228881836, -5.380000114440918, -2.690000057220459, 2.690000057220459, 0.0)
2024/05/03/13:05:03.262148;135850;1714766703;287228180;;['BL_Position', 'BL_Wheel', 'BR_Position', 'BR_Wheel', 'FL_Position', 'FL_Wheel', 'FR_Position', 'FR_Wheel'];(0.0, 1887.9193115234375, -0.003067961661145091, 2050.4599609375, 0.0015339808305725455, 1885.951171875, 0.0, 2054.856201171875);(0.0, 0.0, 0.0, 0.0, 0.0, 0.0, 0.0, 0.0);(5.380000114440918, 13.450000762939453, 40.35000228881836, 10.760000228881836, -5.380000114440918, -2.690000057220459, 5.380000114440918, 0.0)
2024/05/03/13:05:03.279170;135851;1714766703;302820365;;['BL_Position', 'BL_Wheel', 'BR_Position', 'BR_Wheel', 'FL_Position', 'FL_Wheel', 'FR_Position', 'FR_Wheel'];(0.0, 1887.9193115234375, -0.003067961661145091, 2050.4599609375, 0.0015339808305725455, 1885.951171875, 0.0, 2054.85791015625);(0.0, 0.0, 0.0, 0.0, 0.0, 0.0, 0.0, 0.0);(5.380000114440918, 13.450000762939453, 34.970001220703125, 10.760000228881836, -5.380000114440918, -2.690000057220459, 5.380000114440918, 0.0)
2024/05/03/13:05:03.293469;135852;1714766703;318809549;;['BL_Position', 'BL_Wheel', 'BR_Position', 'BR_Wheel', 'FL_Position', 'FL_Wheel', 'FR_Position', 'FR_Wheel'];(0.0, 1887.9193115234375, -0.003067961661145091, 2050.4599609375, 0.0015339808305725455, 1885.951171875, 0.0, 2054.856201171875);(0.0, 0.0, 0.0, 0.0, 0.0, 0.0, 0.0, 0.0);(8.069999694824219, 13.450000762939453, 45.72999954223633, 10.760000228881836, -5.380000114440918, -2.690000057220459, 5.380000114440918, 0.0)
2024/05/03/13:05:03.309384;135853;1714766703;334788475;;['BL_Position', 'BL_Wheel', 'BR_Position', 'BR_Wheel', 'FL_Position', 'FL_Wheel', 'FR_Position', 'FR_Wheel'];(0.0, 1887.9193115234375, -0.003067961661145091, 2050.4599609375, 0.0015339808305725455, 1885.951171875, 0.0, 2054.85791015625);(0.0, 0.0, 0.0, 0.0, 0.0, 0.0, 0.0, 0.0);(5.380000114440918, 13.450000762939453, 34.970001220703125, 10.760000228881836, -5.380000114440918, -2.690000057220459, 5.380000114440918, 0.0)
2024/05/03/13:05:03.326478;135854;1714766703;350802696;;['BL_Position', 'BL_Wheel', 'BR_Position', 'BR_Wheel', 'FL_Position', 'FL_Wheel', 'FR_Position', 'FR_Wheel'];(0.0, 1887.9193115234375, -0.003067961661145091, 2050.4599609375, 0.0015339808305725455, 1885.951171875, 0.0, 2054.85791015625);(0.0, 0.0, 0.0, 0.0, 0.0, 0.0, 0.0, 0.0);(5.380000114440918, 13.450000762939453, 34.970001220703125, 10.760000228881836, -5.380000114440918, -2.690000057220459, 5.380000114440918, 0.0)
2024/05/03/13:05:03.343622;135855;1714766703;366838455;;['BL_Position', 'BL_Wheel', 'BR_Position', 'BR_Wheel', 'FL_Position', 'FL_Wheel', 'FR_Position', 'FR_Wheel'];(0.0, 1887.9193115234375, -0.003067961661145091, 2050.4599609375, 0.0015339808305725455, 1885.951171875, 0.0, 2054.85791015625);(0.0, 0.0, 0.0, 0.0, 0.0, 0.0, 0.0, 0.0);(5.380000114440918, 13.450000762939453, 43.040000915527344, 10.760000228881836, -5.380000114440918, -2.690000057220459, 5.380000114440918, 0.0)
2024/05/03/13:05:03.357986;135856;1714766703;382886806;;['BL_Position', 'BL_Wheel', 'BR_Position', 'BR_Wheel', 'FL_Position', 'FL_Wheel', 'FR_Position', 'FR_Wheel'];(0.0, 1887.9193115234375, -0.003067961661145091, 2050.4599609375, 0.0015339808305725455, 1885.951171875, 0.0, 2054.856201171875);(0.0, 0.0, 0.0, 0.0, 0.0, 0.0, 0.0, 0.0);(8.069999694824219, 13.450000762939453, 40.35000228881836, 10.760000228881836, -5.380000114440918, -2.690000057220459, 5.380000114440918, 0.0)
2024/05/03/13:05:03.377463;135857;1714766703;398828565;;['BL_Position', 'BL_Wheel', 'BR_Position', 'BR_Wheel', 'FL_Position', 'FL_Wheel', 'FR_Position', 'FR_Wheel'];(0.0, 1887.9193115234375, -0.003067961661145091, 2050.4599609375, 0.0015339808305725455, 1885.951171875, 0.0, 2054.85791015625);(0.0, 0.0, 0.0, 0.0, 0.0, 0.0, 0.0, 0.0);(5.380000114440918, 13.450000762939453, 45.72999954223633, 10.760000228881836, -5.380000114440918, -2.690000057220459, 2.690000057220459, 0.0)
2024/05/03/13:05:03.393324;135858;1714766703;414804842;;['BL_Position', 'BL_Wheel', 'BR_Position', 'BR_Wheel', 'FL_Position', 'FL_Wheel', 'FR_Position', 'FR_Wheel'];(0.0, 1887.9193115234375, -0.003067961661145091, 2050.4599609375, 0.0015339808305725455, 1885.951171875, 0.0, 2054.85791015625);(0.0, 0.0, 0.0, 0.0, 0.0, 0.0, 0.0, 0.0);(5.380000114440918, 13.450000762939453, 45.72999954223633, 10.760000228881836, -5.380000114440918, -2.690000057220459, 2.690000057220459, 0.0)
2024/05/03/13:05:03.406309;135859;1714766703;430741823;;['BL_Position', 'BL_Wheel', 'BR_Position', 'BR_Wheel', 'FL_Position', 'FL_Wheel', 'FR_Position', 'FR_Wheel'];(0.0, 1887.9193115234375, -0.003067961661145091, 2050.4599609375, 0.0015339808305725455, 1885.951171875, 0.0, 2054.85791015625);(0.0, 0.0, 0.0, 0.0, 0.0, 0.0, 0.0, 0.0);(5.380000114440918, 13.450000762939453, 34.970001220703125, 10.760000228881836, -5.380000114440918, -2.690000057220459, 5.380000114440918, 0.0)
2024/05/03/13:05:03.422805;135860;1714766703;446973211;;['BL_Position', 'BL_Wheel', 'BR_Position', 'BR_Wheel', 'FL_Position', 'FL_Wheel', 'FR_Position', 'FR_Wheel'];(0.0, 1887.9193115234375, -0.003067961661145091, 2050.4599609375, 0.0015339808305725455, 1885.951171875, 0.0, 2054.85791015625);(0.0, 0.0, 0.0, 0.0, 0.0, 0.0, 0.0, 0.0);(5.380000114440918, 13.450000762939453, 40.35000228881836, 10.760000228881836, -5.380000114440918, -2.690000057220459, 2.690000057220459, 0.0)
2024/05/03/13:05:03.438557;135861;1714766703;462770951;;['BL_Position', 'BL_Wheel', 'BR_Position', 'BR_Wheel', 'FL_Position', 'FL_Wheel', 'FR_Position', 'FR_Wheel'];(0.0, 1887.9193115234375, -0.003067961661145091, 2050.4599609375, 0.0015339808305725455, 1885.951171875, 0.0, 2054.856201171875);(0.0, 0.0, 0.0, 0.0, 0.0, 0.0, 0.0, 0.0);(5.380000114440918, 13.450000762939453, 43.040000915527344, 10.760000228881836, -5.380000114440918, -2.690000057220459, 2.690000057220459, 0.0)
2024/05/03/13:05:03.460384;135862;1714766703;478762525;;['BL_Position', 'BL_Wheel', 'BR_Position', 'BR_Wheel', 'FL_Position', 'FL_Wheel', 'FR_Position', 'FR_Wheel'];(-0.0015339808305725455, 1887.9193115234375, -0.003067961661145091, 2050.4599609375, 0.0015339808305725455, 1885.951171875, 0.0, 2054.85791015625);(0.0, 0.0, 0.0, 0.0, 0.0, 0.0, 0.0, 0.0);(5.380000114440918, 13.450000762939453, 40.35000228881836, 10.760000228881836, -5.380000114440918, -2.690000057220459, 2.690000057220459, 0.0)
2024/05/03/13:05:03.470757;135863;1714766703;494813579;;['BL_Position', 'BL_Wheel', 'BR_Position', 'BR_Wheel', 'FL_Position', 'FL_Wheel', 'FR_Position', 'FR_Wheel'];(0.0, 1887.9193115234375, -0.003067961661145091, 2050.4599609375, 0.0015339808305725455, 1885.951171875, 0.0, 2054.85791015625);(0.0, 0.0, 0.0, 0.0, 0.0, 0.0, 0.0, 0.0);(5.380000114440918, 13.450000762939453, 34.970001220703125, 10.760000228881836, -5.380000114440918, -2.690000057220459, 2.690000057220459, 0.0)
2024/05/03/13:05:03.496272;135864;1714766703;510831764;;['BL_Position', 'BL_Wheel', 'BR_Position', 'BR_Wheel', 'FL_Position', 'FL_Wheel', 'FR_Position', 'FR_Wheel'];(-0.0015339808305725455, 1887.9193115234375, -0.004601942375302315, 2050.4599609375, 0.0015339808305725455, 1885.951171875, -0.0015339808305725455, 2054.856201171875);(0.0, 0.0, 0.0, 0.0, 0.0, 0.0, 0.0, 0.0);(5.380000114440918, 13.450000762939453, 40.35000228881836, 10.760000228881836, -5.380000114440918, -2.690000057220459, 2.690000057220459, 0.0)
2024/05/03/13:05:03.503684;135865;1714766703;526943115;;['BL_Position', 'BL_Wheel', 'BR_Position', 'BR_Wheel', 'FL_Position', 'FL_Wheel', 'FR_Position', 'FR_Wheel'];(0.0, 1887.9193115234375, -0.003067961661145091, 2050.4599609375, 0.0015339808305725455, 1885.951171875, 0.0, 2054.85791015625);(0.0, 0.0, 0.0, 0.0, 0.0, 0.0, 0.0, 0.0);(5.380000114440918, 13.450000762939453, 37.65999984741211, 10.760000228881836, -5.380000114440918, -2.690000057220459, 2.690000057220459, 0.0)
2024/05/03/13:05:03.517576;135866;1714766703;543008096;;['BL_Position', 'BL_Wheel', 'BR_Position', 'BR_Wheel', 'FL_Position', 'FL_Wheel', 'FR_Position', 'FR_Wheel'];(0.0, 1887.9193115234375, -0.003067961661145091, 2050.4599609375, 0.0015339808305725455, 1885.951171875, 0.0, 2054.85791015625);(0.0, 0.0, 0.0, 0.0, 0.0, 0.0, 0.0, 0.0);(5.380000114440918, 13.450000762939453, 43.040000915527344, 10.760000228881836, -5.380000114440918, -2.690000057220459, 2.690000057220459, 0.0)
2024/05/03/13:05:03.534795;135867;1714766703;558824410;;['BL_Position', 'BL_Wheel', 'BR_Position', 'BR_Wheel', 'FL_Position', 'FL_Wheel', 'FR_Position', 'FR_Wheel'];(0.0, 1887.9193115234375, -0.003067961661145091, 2050.4599609375, 0.0015339808305725455, 1885.951171875, 0.0, 2054.856201171875);(0.0, 0.0, 0.0, 0.0, 0.0, 0.0, 0.0, 0.0);(5.380000114440918, 13.450000762939453, 43.040000915527344, 10.760000228881836, -5.380000114440918, -2.690000057220459, 2.690000057220459, 0.0)
2024/05/03/13:05:03.562559;135868;1714766703;574804243;;['BL_Position', 'BL_Wheel', 'BR_Position', 'BR_Wheel', 'FL_Position', 'FL_Wheel', 'FR_Position', 'FR_Wheel'];(0.0, 1887.9193115234375, -0.003067961661145091, 2050.4599609375, 0.0015339808305725455, 1885.951171875, 0.0, 2054.85791015625);(0.0, 0.0, 0.0, 0.0, 0.0, 0.0, 0.0, 0.0);(5.380000114440918, 13.450000762939453, 43.040000915527344, 10.760000228881836, -5.380000114440918, -2.690000057220459, 5.380000114440918, 0.0)
2024/05/03/13:05:03.569366;135869;1714766703;590890150;;['BL_Position', 'BL_Wheel', 'BR_Position', 'BR_Wheel', 'FL_Position', 'FL_Wheel', 'FR_Position', 'FR_Wheel'];(0.0, 1887.9193115234375, -0.003067961661145091, 2050.4599609375, 0.0015339808305725455, 1885.951171875, 0.0, 2054.85791015625);(0.0, 0.0, 0.0, 0.0, 0.0, 0.0, 0.0, 0.0);(8.069999694824219, 13.450000762939453, 45.72999954223633, 10.760000228881836, -5.380000114440918, -2.690000057220459, 5.380000114440918, 0.0)
2024/05/03/13:05:03.586064;135870;1714766703;606783464;;['BL_Position', 'BL_Wheel', 'BR_Position', 'BR_Wheel', 'FL_Position', 'FL_Wheel', 'FR_Position', 'FR_Wheel'];(0.0, 1887.9193115234375, -0.003067961661145091, 2050.4599609375, 0.0015339808305725455, 1885.951171875, 0.0, 2054.85791015625);(0.0, 0.0, 0.0, 0.0, 0.0, 0.0, 0.0, 0.0);(5.380000114440918, 13.450000762939453, 40.35000228881836, 10.760000228881836, -5.380000114440918, -2.690000057220459, 2.690000057220459, 0.0)
2024/05/03/13:05:03.598611;135871;1714766703;622734982;;['BL_Position', 'BL_Wheel', 'BR_Position', 'BR_Wheel', 'FL_Position', 'FL_Wheel', 'FR_Position', 'FR_Wheel'];(0.0, 1887.9193115234375, -0.003067961661145091, 2050.4599609375, 0.0015339808305725455, 1885.951171875, 0.0, 2054.856201171875);(0.0, 0.0, 0.0, 0.0, 0.0, 0.0, 0.0, 0.0);(5.380000114440918, 13.450000762939453, 37.65999984741211, 10.760000228881836, -5.380000114440918, -2.690000057220459, 2.690000057220459, 0.0)
2024/05/03/13:05:03.614610;135872;1714766703;638765037;;['BL_Position', 'BL_Wheel', 'BR_Position', 'BR_Wheel', 'FL_Position', 'FL_Wheel', 'FR_Position', 'FR_Wheel'];(0.0, 1887.9193115234375, -0.004601942375302315, 2050.4599609375, 0.0015339808305725455, 1885.951171875, 0.0, 2054.85791015625);(0.0, 0.0, 0.0, 0.0, 0.0, 0.0, 0.0, 0.0);(5.380000114440918, 13.450000762939453, 37.65999984741211, 10.760000228881836, -5.380000114440918, -2.690000057220459, 2.690000057220459, 0.0)
2024/05/03/13:05:03.629786;135873;1714766703;654847591;;['BL_Position', 'BL_Wheel', 'BR_Position', 'BR_Wheel', 'FL_Position', 'FL_Wheel', 'FR_Position', 'FR_Wheel'];(0.0, 1887.9193115234375, -0.003067961661145091, 2050.4599609375, 0.0015339808305725455, 1885.951171875, 0.0, 2054.85791015625);(0.0, 0.0, 0.0, 0.0, 0.0, 0.0, 0.0, 0.0);(5.380000114440918, 13.450000762939453, 37.65999984741211, 10.760000228881836, -5.380000114440918, -2.690000057220459, 2.690000057220459, 0.0)
2024/05/03/13:05:03.648303;135874;1714766703;670888239;;['BL_Position', 'BL_Wheel', 'BR_Position', 'BR_Wheel', 'FL_Position', 'FL_Wheel', 'FR_Position', 'FR_Wheel'];(0.0, 1887.9193115234375, -0.003067961661145091, 2050.4599609375, 0.0015339808305725455, 1885.951171875, 0.0, 2054.85791015625);(0.0, 0.0, 0.0, 0.0, 0.0, 0.0, 0.0, 0.0);(5.380000114440918, 13.450000762939453, 40.35000228881836, 10.760000228881836, -5.380000114440918, -2.690000057220459, 2.690000057220459, 0.0)
2024/05/03/13:05:03.666428;135875;1714766703;686784738;;['BL_Position', 'BL_Wheel', 'BR_Position', 'BR_Wheel', 'FL_Position', 'FL_Wheel', 'FR_Position', 'FR_Wheel'];(0.0, 1887.9193115234375, -0.003067961661145091, 2050.4599609375, 0.0015339808305725455, 1885.951171875, 0.0, 2054.85791015625);(0.0, 0.0, 0.0, 0.0, 0.0, 0.0, 0.0, 0.0);(5.380000114440918, 13.450000762939453, 37.65999984741211, 10.760000228881836, -5.380000114440918, -2.690000057220459, 2.690000057220459, 0.0)
2024/05/03/13:05:03.678391;135876;1714766703;702831886;;['BL_Position', 'BL_Wheel', 'BR_Position', 'BR_Wheel', 'FL_Position', 'FL_Wheel', 'FR_Position', 'FR_Wheel'];(0.0, 1887.9193115234375, -0.003067961661145091, 2050.4599609375, 0.0015339808305725455, 1885.951171875, 0.0, 2054.856201171875);(0.0, 0.0, 0.0, 0.0, 0.0, 0.0, 0.0, 0.0);(5.380000114440918, 13.450000762939453, 34.970001220703125, 10.760000228881836, -5.380000114440918, -2.690000057220459, 2.690000057220459, 0.0)
2024/05/03/13:05:03.701857;135877;1714766703;718758607;;['BL_Position', 'BL_Wheel', 'BR_Position', 'BR_Wheel', 'FL_Position', 'FL_Wheel', 'FR_Position', 'FR_Wheel'];(0.0, 1887.9193115234375, -0.004601942375302315, 2050.4599609375, 0.0015339808305725455, 1885.951171875, 0.0, 2054.85791015625);(0.0, 0.0, 0.0, 0.0, 0.0, 0.0, 0.0, 0.0);(5.380000114440918, 13.450000762939453, 43.040000915527344, 10.760000228881836, -5.380000114440918, -2.690000057220459, 2.690000057220459, 0.0)
2024/05/03/13:05:03.711998;135878;1714766703;734842014;;['BL_Position', 'BL_Wheel', 'BR_Position', 'BR_Wheel', 'FL_Position', 'FL_Wheel', 'FR_Position', 'FR_Wheel'];(0.0, 1887.9193115234375, -0.003067961661145091, 2050.4599609375, 0.0015339808305725455, 1885.951171875, 0.0, 2054.85791015625);(0.0, 0.0, 0.0, 0.0, 0.0, 0.0, 0.0, 0.0);(5.380000114440918, 13.450000762939453, 40.35000228881836, 10.760000228881836, -5.380000114440918, -2.690000057220459, 2.690000057220459, 0.0)
2024/05/03/13:05:03.726641;135879;1714766703;750773217;;['BL_Position', 'BL_Wheel', 'BR_Position', 'BR_Wheel', 'FL_Position', 'FL_Wheel', 'FR_Position', 'FR_Wheel'];(0.0, 1887.9193115234375, -0.004601942375302315, 2050.4599609375, 0.0015339808305725455, 1885.951171875, 0.0, 2054.856201171875);(0.0, 0.0, 0.0, 0.0, 0.0, 0.0, 0.0, 0.0);(5.380000114440918, 13.450000762939453, 43.040000915527344, 10.760000228881836, -5.380000114440918, -2.690000057220459, 2.690000057220459, 0.0)
2024/05/03/13:05:03.740957;135880;1714766703;766754846;;['BL_Position', 'BL_Wheel', 'BR_Position', 'BR_Wheel', 'FL_Position', 'FL_Wheel', 'FR_Position', 'FR_Wheel'];(0.0, 1887.9193115234375, -0.004601942375302315, 2050.4599609375, 0.0015339808305725455, 1885.951171875, 0.0, 2054.85791015625);(0.0, 0.0, 0.0, 0.0, 0.0, 0.0, 0.0, 0.0);(5.380000114440918, 13.450000762939453, 40.35000228881836, 10.760000228881836, -5.380000114440918, -2.690000057220459, 2.690000057220459, 0.0)
2024/05/03/13:05:03.768001;135881;1714766703;782770994;;['BL_Position', 'BL_Wheel', 'BR_Position', 'BR_Wheel', 'FL_Position', 'FL_Wheel', 'FR_Position', 'FR_Wheel'];(0.0, 1887.9193115234375, -0.003067961661145091, 2050.4599609375, 0.0015339808305725455, 1885.951171875, 0.0, 2054.856201171875);(0.0, 0.0, 0.0, 0.0, 0.0, 0.0, 0.0, 0.0);(5.380000114440918, 13.450000762939453, 43.040000915527344, 10.760000228881836, -5.380000114440918, -2.690000057220459, 2.690000057220459, 0.0)
2024/05/03/13:05:03.774265;135882;1714766703;798740438;;['BL_Position', 'BL_Wheel', 'BR_Position', 'BR_Wheel', 'FL_Position', 'FL_Wheel', 'FR_Position', 'FR_Wheel'];(0.0, 1887.9193115234375, -0.004601942375302315, 2050.4599609375, 0.0015339808305725455, 1885.951171875, 0.0, 2054.85791015625);(0.0, 0.0, 0.0, 0.0, 0.0, 0.0, 0.0, 0.0);(5.380000114440918, 13.450000762939453, 43.040000915527344, 10.760000228881836, -5.380000114440918, -2.690000057220459, 2.690000057220459, 0.0)
2024/05/03/13:05:03.793833;135883;1714766703;814760955;;['BL_Position', 'BL_Wheel', 'BR_Position', 'BR_Wheel', 'FL_Position', 'FL_Wheel', 'FR_Position', 'FR_Wheel'];(0.0, 1887.9193115234375, -0.003067961661145091, 2050.4599609375, 0.0015339808305725455, 1885.951171875, 0.0, 2054.85791015625);(0.0, 0.0, 0.0, 0.0, 0.0, 0.0, 0.0, 0.0);(5.380000114440918, 13.450000762939453, 45.72999954223633, 10.760000228881836, -5.380000114440918, -2.690000057220459, 2.690000057220459, 0.0)
2024/05/03/13:05:03.807047;135884;1714766703;830727862;;['BL_Position', 'BL_Wheel', 'BR_Position', 'BR_Wheel', 'FL_Position', 'FL_Wheel', 'FR_Position', 'FR_Wheel'];(0.0, 1887.9193115234375, -0.003067961661145091, 2050.4599609375, 0.0015339808305725455, 1885.951171875, -0.0015339808305725455, 2054.85791015625);(0.0, 0.0, 0.0, 0.0, 0.0, 0.0, 0.0, 0.0);(5.380000114440918, 13.450000762939453, 34.970001220703125, 10.760000228881836, -5.380000114440918, -2.690000057220459, 2.690000057220459, 0.0)
2024/05/03/13:05:03.822284;135885;1714766703;846798399;;['BL_Position', 'BL_Wheel', 'BR_Position', 'BR_Wheel', 'FL_Position', 'FL_Wheel', 'FR_Position', 'FR_Wheel'];(-0.0015339808305725455, 1887.9193115234375, -0.003067961661145091, 2050.4599609375, 0.0015339808305725455, 1885.951171875, 0.0, 2054.85791015625);(0.0, 0.0, 0.0, 0.0, 0.0, 0.0, 0.0, 0.0);(5.380000114440918, 13.450000762939453, 37.65999984741211, 10.760000228881836, -5.380000114440918, -2.690000057220459, 2.690000057220459, 0.0)
2024/05/03/13:05:03.839442;135886;1714766703;863001083;;['BL_Position', 'BL_Wheel', 'BR_Position', 'BR_Wheel', 'FL_Position', 'FL_Wheel', 'FR_Position', 'FR_Wheel'];(0.0, 1887.9193115234375, -0.003067961661145091, 2050.4599609375, 0.0015339808305725455, 1885.951171875, 0.0, 2054.856201171875);(0.0, 0.0, 0.0, 0.0, 0.0, 0.0, 0.0, 0.0);(5.380000114440918, 13.450000762939453, 40.35000228881836, 10.760000228881836, -5.380000114440918, -2.690000057220459, 5.380000114440918, 0.0)
2024/05/03/13:05:03.853900;135887;1714766703;878748323;;['BL_Position', 'BL_Wheel', 'BR_Position', 'BR_Wheel', 'FL_Position', 'FL_Wheel', 'FR_Position', 'FR_Wheel'];(0.0, 1887.9193115234375, -0.003067961661145091, 2050.4599609375, 0.0015339808305725455, 1885.951171875, 0.0, 2054.856201171875);(0.0, 0.0, 0.0, 0.0, 0.0, 0.0, 0.0, 0.0);(8.069999694824219, 13.450000762939453, 40.35000228881836, 10.760000228881836, -5.380000114440918, -2.690000057220459, 2.690000057220459, 0.0)
2024/05/03/13:05:03.870676;135888;1714766703;895460378;;['BL_Position', 'BL_Wheel', 'BR_Position', 'BR_Wheel', 'FL_Position', 'FL_Wheel', 'FR_Position', 'FR_Wheel'];(0.0, 1887.9193115234375, -0.003067961661145091, 2050.4599609375, 0.0015339808305725455, 1885.951171875, 0.0, 2054.85791015625);(0.0, 0.0, 0.0, 0.0, 0.0, 0.0, 0.0, 0.0);(8.069999694824219, 13.450000762939453, 40.35000228881836, 10.760000228881836, -5.380000114440918, -2.690000057220459, 5.380000114440918, 0.0)
2024/05/03/13:05:03.896531;135889;1714766703;910770433;;['BL_Position', 'BL_Wheel', 'BR_Position', 'BR_Wheel', 'FL_Position', 'FL_Wheel', 'FR_Position', 'FR_Wheel'];(-0.0015339808305725455, 1887.9193115234375, -0.004601942375302315, 2050.4599609375, 0.0015339808305725455, 1885.951171875, -0.0015339808305725455, 2054.856201171875);(0.0, 0.0, 0.0, 0.0, 0.0, 0.0, 0.0, 0.0);(5.380000114440918, 13.450000762939453, 40.35000228881836, 10.760000228881836, -5.380000114440918, -2.690000057220459, 2.690000057220459, 0.0)
2024/05/03/13:05:03.905272;135890;1714766703;926779358;;['BL_Position', 'BL_Wheel', 'BR_Position', 'BR_Wheel', 'FL_Position', 'FL_Wheel', 'FR_Position', 'FR_Wheel'];(0.0, 1887.9193115234375, -0.003067961661145091, 2050.4599609375, 0.0015339808305725455, 1885.951171875, 0.0, 2054.85791015625);(0.0, 0.0, 0.0, 0.0, 0.0, 0.0, 0.0, 0.0);(8.069999694824219, 13.450000762939453, 43.040000915527344, 10.760000228881836, -5.380000114440918, -2.690000057220459, 2.690000057220459, 0.0)
2024/05/03/13:05:03.918514;135891;1714766703;942819450;;['BL_Position', 'BL_Wheel', 'BR_Position', 'BR_Wheel', 'FL_Position', 'FL_Wheel', 'FR_Position', 'FR_Wheel'];(0.0, 1887.9193115234375, -0.003067961661145091, 2050.4599609375, 0.0015339808305725455, 1885.951171875, 0.0, 2054.85791015625);(0.0, 0.0, 0.0, 0.0, 0.0, 0.0, 0.0, 0.0);(5.380000114440918, 13.450000762939453, 34.970001220703125, 10.760000228881836, -5.380000114440918, -2.690000057220459, 2.690000057220459, 0.0)
2024/05/03/13:05:03.933651;135892;1714766703;958758135;;['BL_Position', 'BL_Wheel', 'BR_Position', 'BR_Wheel', 'FL_Position', 'FL_Wheel', 'FR_Position', 'FR_Wheel'];(0.0, 1887.9193115234375, -0.003067961661145091, 2050.4599609375, 0.0015339808305725455, 1885.951171875, 0.0, 2054.85791015625);(0.0, 0.0, 0.0, 0.0, 0.0, 0.0, 0.0, 0.0);(8.069999694824219, 13.450000762939453, 40.35000228881836, 10.760000228881836, -5.380000114440918, -2.690000057220459, 2.690000057220459, 0.0)
2024/05/03/13:05:03.949264;135893;1714766703;974777690;;['BL_Position', 'BL_Wheel', 'BR_Position', 'BR_Wheel', 'FL_Position', 'FL_Wheel', 'FR_Position', 'FR_Wheel'];(0.0, 1887.9193115234375, -0.003067961661145091, 2050.4599609375, 0.0015339808305725455, 1885.951171875, 0.0, 2054.856201171875);(0.0, 0.0, 0.0, 0.0, 0.0, 0.0, 0.0, 0.0);(5.380000114440918, 13.450000762939453, 37.65999984741211, 10.760000228881836, -5.380000114440918, -2.690000057220459, 5.380000114440918, 0.0)
2024/05/03/13:05:03.972322;135894;1714766703;990752096;;['BL_Position', 'BL_Wheel', 'BR_Position', 'BR_Wheel', 'FL_Position', 'FL_Wheel', 'FR_Position', 'FR_Wheel'];(0.0, 1887.9193115234375, -0.003067961661145091, 2050.4599609375, 0.0015339808305725455, 1885.951171875, 0.0, 2054.85791015625);(0.0, 0.0, 0.0, 0.0, 0.0, 0.0, 0.0, 0.0);(5.380000114440918, 13.450000762939453, 37.65999984741211, 10.760000228881836, -5.380000114440918, -2.690000057220459, 2.690000057220459, 0.0)
2024/05/03/13:05:03.983666;135895;1714766704;6859003;;['BL_Position', 'BL_Wheel', 'BR_Position', 'BR_Wheel', 'FL_Position', 'FL_Wheel', 'FR_Position', 'FR_Wheel'];(0.0, 1887.9193115234375, -0.003067961661145091, 2050.4599609375, 0.0015339808305725455, 1885.951171875, 0.0, 2054.856201171875);(0.0, 0.0, 0.0, 0.0, 0.0, 0.0, 0.0, 0.0);(5.380000114440918, 13.450000762939453, 40.35000228881836, 10.760000228881836, -5.380000114440918, -2.690000057220459, 2.690000057220459, 0.0)
2024/05/03/13:05:04.001305;135896;1714766704;22758040;;['BL_Position', 'BL_Wheel', 'BR_Position', 'BR_Wheel', 'FL_Position', 'FL_Wheel', 'FR_Position', 'FR_Wheel'];(0.0, 1887.9193115234375, -0.003067961661145091, 2050.4599609375, 0.0015339808305725455, 1885.951171875, 0.0, 2054.85791015625);(0.0, 0.0, 0.0, 0.0, 0.0, 0.0, 0.0, 0.0);(5.380000114440918, 13.450000762939453, 40.35000228881836, 10.760000228881836, -5.380000114440918, -2.690000057220459, 2.690000057220459, 0.0)
2024/05/03/13:05:04.018085;135897;1714766704;38954483;;['BL_Position', 'BL_Wheel', 'BR_Position', 'BR_Wheel', 'FL_Position', 'FL_Wheel', 'FR_Position', 'FR_Wheel'];(0.0, 1887.9193115234375, -0.004601942375302315, 2050.4599609375, 0.0015339808305725455, 1885.951171875, 0.0, 2054.85791015625);(0.0, 0.0, 0.0, 0.0, 0.0, 0.0, 0.0, 0.0);(5.380000114440918, 13.450000762939453, 43.040000915527344, 10.760000228881836, -5.380000114440918, -2.690000057220459, 2.690000057220459, 0.0)
2024/05/03/13:05:04.031116;135898;1714766704;54753501;;['BL_Position', 'BL_Wheel', 'BR_Position', 'BR_Wheel', 'FL_Position', 'FL_Wheel', 'FR_Position', 'FR_Wheel'];(-0.0015339808305725455, 1887.9193115234375, -0.004601942375302315, 2050.4599609375, 0.0015339808305725455, 1885.951171875, 0.0, 2054.856201171875);(0.0, 0.0, 0.0, 0.0, 0.0, 0.0, 0.0, 0.0);(5.380000114440918, 13.450000762939453, 43.040000915527344, 10.760000228881836, -5.380000114440918, -2.690000057220459, 2.690000057220459, 0.0)
2024/05/03/13:05:04.046968;135899;1714766704;70789575;;['BL_Position', 'BL_Wheel', 'BR_Position', 'BR_Wheel', 'FL_Position', 'FL_Wheel', 'FR_Position', 'FR_Wheel'];(0.0, 1887.9193115234375, -0.003067961661145091, 2050.4599609375, 0.0015339808305725455, 1885.951171875, -0.0015339808305725455, 2054.856201171875);(0.0, 0.0, 0.0, 0.0, 0.0, 0.0, 0.0, 0.0);(5.380000114440918, 13.450000762939453, 40.35000228881836, 10.760000228881836, -5.380000114440918, -2.690000057220459, 2.690000057220459, 0.0)
2024/05/03/13:05:04.064439;135900;1714766704;86837315;;['BL_Position', 'BL_Wheel', 'BR_Position', 'BR_Wheel', 'FL_Position', 'FL_Wheel', 'FR_Position', 'FR_Wheel'];(0.0, 1887.9193115234375, -0.003067961661145091, 2050.4599609375, 0.0015339808305725455, 1885.951171875, -0.0015339808305725455, 2054.85791015625);(0.0, 0.0, 0.0, 0.0, 0.0, 0.0, 0.0, 0.0);(5.380000114440918, 13.450000762939453, 40.35000228881836, 10.760000228881836, -5.380000114440918, -2.690000057220459, 2.690000057220459, 0.0)
2024/05/03/13:05:04.076849;135901;1714766704;102756962;;['BL_Position', 'BL_Wheel', 'BR_Position', 'BR_Wheel', 'FL_Position', 'FL_Wheel', 'FR_Position', 'FR_Wheel'];(0.0, 1887.9193115234375, -0.003067961661145091, 2050.4599609375, 0.0015339808305725455, 1885.951171875, -0.0015339808305725455, 2054.85791015625);(0.0, 0.0, 0.0, 0.0, 0.0, 0.0, 0.0, 0.0);(5.380000114440918, 13.450000762939453, 43.040000915527344, 10.760000228881836, -5.380000114440918, -2.690000057220459, 2.690000057220459, 0.0)
2024/05/03/13:05:04.099359;135902;1714766704;118837128;;['BL_Position', 'BL_Wheel', 'BR_Position', 'BR_Wheel', 'FL_Position', 'FL_Wheel', 'FR_Position', 'FR_Wheel'];(-0.029145635664463043, 1887.92236328125, -0.030679617077112198, 2050.466064453125, 0.03221359848976135, 1885.951171875, 0.03374757990241051, 2054.86083984375);(-0.07194247096776962, 0.0, -0.07194247096776962, 0.0, 0.07194247096776962, 0.0, 0.0959232971072197, 0.0);(-274.3800048828125, 126.43000030517578, -309.3500061035156, 164.08999633789062, 298.5899963378906, 91.45999908447266, 290.52001953125, 137.19000244140625)
2024/05/03/13:05:04.115387;135903;1714766704;134830906;;['BL_Position', 'BL_Wheel', 'BR_Position', 'BR_Wheel', 'FL_Position', 'FL_Wheel', 'FR_Position', 'FR_Wheel'];(-0.09357283264398575, 1887.937744140625, -0.08897088468074799, 2050.489013671875, 0.09970875084400177, 1885.9649658203125, 0.09817477315664291, 2054.880859375);(-0.5995206236839294, 0.0959232971072197, -0.5515589714050293, 0.14388494193553925, 0.5995206236839294, 0.023980824276804924, 0.6714630722999573, 0.11990412324666977);(-104.91000366210938, 153.3300018310547, 78.01000213623047, 161.40000915527344, 142.57000732421875, 96.84000396728516, -96.84000396728516, 174.85000610351562)
2024/05/03/13:05:04.127328;135904;1714766704;150805738;;['BL_Position', 'BL_Wheel', 'BR_Position', 'BR_Wheel', 'FL_Position', 'FL_Wheel', 'FR_Position', 'FR_Wheel'];(-0.15800002217292786, 1887.960693359375, -0.12271846830844879, 2050.5244140625, 0.16260196268558502, 1885.994140625, 0.13499031960964203, 2054.917724609375);(-1.4388494491577148, 0.31175071001052856, -1.1990412473678589, 0.4796164929866791, 1.4628303050994873, 0.2637890577316284, 1.366907000541687, 0.43165484070777893);(220.5800018310547, 166.77999877929688, 75.31999969482422, 158.7100067138672, -158.7100067138672, 99.52999877929688, -129.1199951171875, 161.40000915527344)
2024/05/03/13:05:04.142978;135905;1714766704;166727812;;['BL_Position', 'BL_Wheel', 'BR_Position', 'BR_Wheel', 'FL_Position', 'FL_Wheel', 'FR_Position', 'FR_Wheel'];(-0.18867963552474976, 1887.99755859375, -0.13345633447170258, 2050.576416015625, 0.200951486825943, 1886.032470703125, 0.14879614114761353, 2054.966796875);(-2.2302167415618896, 0.6954439282417297, -1.7026385068893433, 1.0791370868682861, 2.3261399269104004, 0.6474822759628296, 1.9184659719467163, 0.9592329859733582);(139.8800048828125, 137.19000244140625, -16.139999389648438, 137.19000244140625, -96.84000396728516, 78.01000213623047, -32.279998779296875, 142.57000732421875)
2024/05/03/13:05:04.158698;135906;1714766704;182697904;;['BL_Position', 'BL_Wheel', 'BR_Position', 'BR_Wheel', 'FL_Position', 'FL_Wheel', 'FR_Position', 'FR_Wheel'];(-0.19328159093856812, 1888.04052734375, -0.13345633447170258, 2050.634765625, 0.2070874124765396, 1886.0770263671875, 0.15033012628555298, 2055.026611328125);(-2.613909959793091, 1.1750603914260864, -1.7985618114471436, 1.7506002187728882, 2.733814001083374, 1.2230219841003418, 2.0623509883880615, 1.654676914215088);(26.900001525878906, 118.36000061035156, -37.65999984741211, 112.9800033569336, -2.690000057220459, 56.4900016784668, 5.380000114440918, 112.9800033569336)
2024/05/03/13:05:04.177400;135907;1714766704;198780996;;['BL_Position', 'BL_Wheel', 'BR_Position', 'BR_Wheel', 'FL_Position', 'FL_Wheel', 'FR_Position', 'FR_Wheel'];(-0.19328159093856812, 1888.0926513671875, -0.13192234933376312, 2050.703857421875, 0.2070874124765396, 1886.1275634765625, 0.14879614114761353, 2055.092529296875);(-2.2781782150268555, 1.7266193628311157, -1.3908878564834595, 2.517986536026001, 2.4220633506774902, 1.8465235233306885, 1.5827343463897705, 2.4220633506774902);(5.380000114440918, 94.1500015258789, -18.829999923706055, 96.84000396728516, 21.520000457763672, 37.65999984741211, 0.0, 91.45999908447266)
