time;.header.seq;.header.stamp.secs;.header.stamp.nsecs;.header.frame_id;.name;.position;.velocity;.effort
2024/05/03/13:02:45.758323;127255;1714766565;771809735;;['BL_Position', 'BL_Wheel', 'BR_Position', 'BR_Wheel', 'FL_Position', 'FL_Wheel', 'FR_Position', 'FR_Wheel'];(0.0, 1787.348388671875, -0.004601942375302315, 1895.035400390625, 0.0015339808305725455, 1785.22998046875, 0.0, 1899.358154296875);(0.0, 0.0, 0.0, 0.0, 0.0, 0.0, 0.0, 0.0);(0.0, 34.970001220703125, 64.55999755859375, 5.380000114440918, -18.829999923706055, -2.690000057220459, 2.690000057220459, 0.0)
2024/05/03/13:02:45.767786;127256;1714766565;787795790;;['BL_Position', 'BL_Wheel', 'BR_Position', 'BR_Wheel', 'FL_Position', 'FL_Wheel', 'FR_Position', 'FR_Wheel'];(0.0015339808305725455, 1787.348388671875, -0.004601942375302315, 1895.035400390625, 0.003067961661145091, 1785.22998046875, 0.0, 1899.358154296875);(0.0, 0.0, 0.0, 0.0, 0.0, 0.0, 0.0, 0.0);(0.0, 34.970001220703125, 59.18000030517578, 5.380000114440918, -13.450000762939453, -2.690000057220459, 2.690000057220459, 0.0)
2024/05/03/13:02:45.779666;127257;1714766565;803822215;;['BL_Position', 'BL_Wheel', 'BR_Position', 'BR_Wheel', 'FL_Position', 'FL_Wheel', 'FR_Position', 'FR_Wheel'];(0.0, 1787.348388671875, -0.006135923322290182, 1895.035400390625, 0.003067961661145091, 1785.22998046875, 0.0, 1899.358154296875);(0.0, 0.0, 0.0, 0.0, 0.0, 0.0, 0.0, 0.0);(0.0, 34.970001220703125, 56.4900016784668, 5.380000114440918, -18.829999923706055, -2.690000057220459, 2.690000057220459, 0.0)
2024/05/03/13:02:45.796162;127258;1714766565;819730955;;['BL_Position', 'BL_Wheel', 'BR_Position', 'BR_Wheel', 'FL_Position', 'FL_Wheel', 'FR_Position', 'FR_Wheel'];(0.0, 1787.348388671875, -0.004601942375302315, 1895.035400390625, 0.003067961661145091, 1785.22998046875, 0.0, 1899.358154296875);(0.0, 0.0, 0.0, 0.0, 0.0, 0.0, 0.0, 0.0);(0.0, 34.970001220703125, 61.87000274658203, 5.380000114440918, -16.139999389648438, -2.690000057220459, 2.690000057220459, 0.0)
2024/05/03/13:02:45.812696;127259;1714766565;835821677;;['BL_Position', 'BL_Wheel', 'BR_Position', 'BR_Wheel', 'FL_Position', 'FL_Wheel', 'FR_Position', 'FR_Wheel'];(0.0015339808305725455, 1787.348388671875, -0.004601942375302315, 1895.035400390625, 0.003067961661145091, 1785.2315673828125, 0.0, 1899.358154296875);(0.0, 0.0, 0.0, 0.0, 0.0, 0.0, 0.0, 0.0);(0.0, 34.970001220703125, 56.4900016784668, 5.380000114440918, -18.829999923706055, -2.690000057220459, 2.690000057220459, 0.0)
2024/05/03/13:02:45.832261;127260;1714766565;851837694;;['BL_Position', 'BL_Wheel', 'BR_Position', 'BR_Wheel', 'FL_Position', 'FL_Wheel', 'FR_Position', 'FR_Wheel'];(0.0, 1787.348388671875, -0.004601942375302315, 1895.035400390625, 0.003067961661145091, 1785.22998046875, 0.0, 1899.358154296875);(0.0, 0.0, 0.0, 0.0, 0.0, 0.0, 0.0, 0.0);(0.0, 34.970001220703125, 61.87000274658203, 5.380000114440918, -18.829999923706055, -2.690000057220459, 2.690000057220459, 0.0)
2024/05/03/13:02:45.845059;127261;1714766565;867773453;;['BL_Position', 'BL_Wheel', 'BR_Position', 'BR_Wheel', 'FL_Position', 'FL_Wheel', 'FR_Position', 'FR_Wheel'];(0.0, 1787.348388671875, -0.006135923322290182, 1895.035400390625, 0.0015339808305725455, 1785.22998046875, 0.0, 1899.358154296875);(0.0, 0.0, 0.0, 0.0, 0.0, 0.0, 0.0, 0.0);(0.0, 34.970001220703125, 59.18000030517578, 5.380000114440918, -18.829999923706055, -2.690000057220459, 2.690000057220459, 0.0)
2024/05/03/13:02:45.861600;127262;1714766565;883791748;;['BL_Position', 'BL_Wheel', 'BR_Position', 'BR_Wheel', 'FL_Position', 'FL_Wheel', 'FR_Position', 'FR_Wheel'];(0.0015339808305725455, 1787.348388671875, -0.004601942375302315, 1895.035400390625, 0.003067961661145091, 1785.22998046875, 0.0, 1899.358154296875);(0.0, 0.0, 0.0, 0.0, 0.0, 0.0, 0.0, 0.0);(0.0, 34.970001220703125, 56.4900016784668, 5.380000114440918, -18.829999923706055, -2.690000057220459, 2.690000057220459, 0.0)
2024/05/03/13:02:45.878716;127263;1714766565;899807544;;['BL_Position', 'BL_Wheel', 'BR_Position', 'BR_Wheel', 'FL_Position', 'FL_Wheel', 'FR_Position', 'FR_Wheel'];(0.0, 1787.348388671875, -0.004601942375302315, 1895.035400390625, 0.003067961661145091, 1785.22998046875, 0.0, 1899.358154296875);(0.0, 0.0, 0.0, 0.0, 0.0, 0.0, 0.0, 0.0);(0.0, 34.970001220703125, 59.18000030517578, 5.380000114440918, -13.450000762939453, -2.690000057220459, 2.690000057220459, 0.0)
2024/05/03/13:02:45.892823;127264;1714766565;915832747;;['BL_Position', 'BL_Wheel', 'BR_Position', 'BR_Wheel', 'FL_Position', 'FL_Wheel', 'FR_Position', 'FR_Wheel'];(0.0015339808305725455, 1787.348388671875, -0.006135923322290182, 1895.035400390625, 0.003067961661145091, 1785.22998046875, 0.0, 1899.358154296875);(0.0, 0.0, 0.0, 0.0, 0.0, 0.0, 0.0, 0.0);(0.0, 34.970001220703125, 61.87000274658203, 5.380000114440918, -13.450000762939453, -2.690000057220459, 2.690000057220459, 0.0)
2024/05/03/13:02:45.908143;127265;1714766565;931818024;;['BL_Position', 'BL_Wheel', 'BR_Position', 'BR_Wheel', 'FL_Position', 'FL_Wheel', 'FR_Position', 'FR_Wheel'];(0.0, 1787.348388671875, -0.006135923322290182, 1895.035400390625, 0.003067961661145091, 1785.22998046875, 0.0, 1899.358154296875);(0.0, 0.0, 0.0, 0.0, 0.0, 0.0, 0.0, 0.0);(0.0, 34.970001220703125, 61.87000274658203, 5.380000114440918, -18.829999923706055, -2.690000057220459, 2.690000057220459, 0.0)
2024/05/03/13:02:45.933760;127266;1714766565;947818468;;['BL_Position', 'BL_Wheel', 'BR_Position', 'BR_Wheel', 'FL_Position', 'FL_Wheel', 'FR_Position', 'FR_Wheel'];(0.0015339808305725455, 1787.348388671875, -0.004601942375302315, 1895.035400390625, 0.003067961661145091, 1785.22998046875, 0.0, 1899.358154296875);(0.0, 0.0, 0.0, 0.0, 0.0, 0.0, 0.0, 0.0);(0.0, 34.970001220703125, 59.18000030517578, 5.380000114440918, -13.450000762939453, -2.690000057220459, 2.690000057220459, 0.0)
2024/05/03/13:02:45.939940;127267;1714766565;963778634;;['BL_Position', 'BL_Wheel', 'BR_Position', 'BR_Wheel', 'FL_Position', 'FL_Wheel', 'FR_Position', 'FR_Wheel'];(0.0015339808305725455, 1787.348388671875, -0.004601942375302315, 1895.035400390625, 0.0015339808305725455, 1785.22998046875, 0.0, 1899.358154296875);(0.0, 0.0, 0.0, 0.0, 0.0, 0.0, 0.0, 0.0);(0.0, 34.970001220703125, 61.87000274658203, 5.380000114440918, -16.139999389648438, -2.690000057220459, 2.690000057220459, 0.0)
2024/05/03/13:02:45.963730;127268;1714766565;979751596;;['BL_Position', 'BL_Wheel', 'BR_Position', 'BR_Wheel', 'FL_Position', 'FL_Wheel', 'FR_Position', 'FR_Wheel'];(0.0, 1787.348388671875, -0.004601942375302315, 1895.035400390625, 0.003067961661145091, 1785.22998046875, 0.0, 1899.358154296875);(0.0, 0.0, 0.0, 0.0, 0.0, 0.0, 0.0, 0.0);(0.0, 34.970001220703125, 61.87000274658203, 5.380000114440918, -18.829999923706055, -2.690000057220459, 2.690000057220459, 0.0)
2024/05/03/13:02:45.971981;127269;1714766565;995744966;;['BL_Position', 'BL_Wheel', 'BR_Position', 'BR_Wheel', 'FL_Position', 'FL_Wheel', 'FR_Position', 'FR_Wheel'];(0.0, 1787.348388671875, -0.006135923322290182, 1895.035400390625, 0.003067961661145091, 1785.22998046875, 0.0, 1899.358154296875);(0.0, 0.0, 0.0, 0.0, 0.0, 0.0, 0.0, 0.0);(0.0, 34.970001220703125, 59.18000030517578, 5.380000114440918, -16.139999389648438, -2.690000057220459, 2.690000057220459, 0.0)
2024/05/03/13:02:45.988947;127270;1714766566;11824483;;['BL_Position', 'BL_Wheel', 'BR_Position', 'BR_Wheel', 'FL_Position', 'FL_Wheel', 'FR_Position', 'FR_Wheel'];(0.0015339808305725455, 1787.348388671875, -0.004601942375302315, 1895.035400390625, 0.003067961661145091, 1785.2315673828125, 0.0, 1899.358154296875);(0.0, 0.0, 0.0, 0.0, 0.0, 0.0, 0.0, 0.0);(0.0, 34.970001220703125, 59.18000030517578, 5.380000114440918, -18.829999923706055, -2.690000057220459, 2.690000057220459, 0.0)
2024/05/03/13:02:46.005402;127271;1714766566;27796983;;['BL_Position', 'BL_Wheel', 'BR_Position', 'BR_Wheel', 'FL_Position', 'FL_Wheel', 'FR_Position', 'FR_Wheel'];(0.0015339808305725455, 1787.348388671875, -0.004601942375302315, 1895.035400390625, 0.003067961661145091, 1785.22998046875, 0.0, 1899.358154296875);(0.0, 0.0, 0.0, 0.0, 0.0, 0.0, 0.0, 0.0);(0.0, 34.970001220703125, 64.55999755859375, 5.380000114440918, -13.450000762939453, -2.690000057220459, 2.690000057220459, 0.0)
2024/05/03/13:02:46.020809;127272;1714766566;44272037;;['BL_Position', 'BL_Wheel', 'BR_Position', 'BR_Wheel', 'FL_Position', 'FL_Wheel', 'FR_Position', 'FR_Wheel'];(0.0015339808305725455, 1787.348388671875, -0.004601942375302315, 1895.035400390625, 0.003067961661145091, 1785.22998046875, 0.0, 1899.358154296875);(0.0, 0.0, 0.0, 0.0, 0.0, 0.0, 0.0, 0.0);(0.0, 34.970001220703125, 64.55999755859375, 5.380000114440918, -18.829999923706055, -2.690000057220459, 2.690000057220459, 0.0)
2024/05/03/13:02:46.036331;127273;1714766566;59844481;;['BL_Position', 'BL_Wheel', 'BR_Position', 'BR_Wheel', 'FL_Position', 'FL_Wheel', 'FR_Position', 'FR_Wheel'];(0.0015339808305725455, 1787.348388671875, -0.004601942375302315, 1895.035400390625, 0.003067961661145091, 1785.2315673828125, 0.0, 1899.358154296875);(0.0, 0.0, 0.0, 0.0, 0.0, 0.0, 0.0, 0.0);(0.0, 34.970001220703125, 61.87000274658203, 5.380000114440918, -18.829999923706055, -2.690000057220459, 2.690000057220459, 0.0)
2024/05/03/13:02:46.066210;127274;1714766566;75837166;;['BL_Position', 'BL_Wheel', 'BR_Position', 'BR_Wheel', 'FL_Position', 'FL_Wheel', 'FR_Position', 'FR_Wheel'];(0.0, 1787.348388671875, -0.004601942375302315, 1895.035400390625, 0.003067961661145091, 1785.22998046875, 0.0, 1899.358154296875);(0.0, 0.0, 0.0, 0.0, 0.0, 0.0, 0.0, 0.0);(0.0, 34.970001220703125, 61.87000274658203, 5.380000114440918, -16.139999389648438, -2.690000057220459, 2.690000057220459, 0.0)
2024/05/03/13:02:46.074349;127275;1714766566;91787387;;['BL_Position', 'BL_Wheel', 'BR_Position', 'BR_Wheel', 'FL_Position', 'FL_Wheel', 'FR_Position', 'FR_Wheel'];(0.0, 1787.348388671875, -0.004601942375302315, 1895.035400390625, 0.003067961661145091, 1785.22998046875, 0.0, 1899.358154296875);(0.0, 0.0, 0.0, 0.0, 0.0, 0.0, 0.0, 0.0);(0.0, 34.970001220703125, 61.87000274658203, 5.380000114440918, -16.139999389648438, -2.690000057220459, 2.690000057220459, 0.0)
2024/05/03/13:02:46.084167;127276;1714766566;107752997;;['BL_Position', 'BL_Wheel', 'BR_Position', 'BR_Wheel', 'FL_Position', 'FL_Wheel', 'FR_Position', 'FR_Wheel'];(0.0, 1787.348388671875, -0.006135923322290182, 1895.035400390625, 0.003067961661145091, 1785.22998046875, 0.0, 1899.358154296875);(0.0, 0.0, 0.0, 0.0, 0.0, 0.0, 0.0, 0.0);(0.0, 34.970001220703125, 61.87000274658203, 5.380000114440918, -18.829999923706055, -2.690000057220459, 2.690000057220459, 0.0)
2024/05/03/13:02:46.100604;127277;1714766566;123729719;;['BL_Position', 'BL_Wheel', 'BR_Position', 'BR_Wheel', 'FL_Position', 'FL_Wheel', 'FR_Position', 'FR_Wheel'];(0.0, 1787.348388671875, -0.004601942375302315, 1895.035400390625, 0.003067961661145091, 1785.22998046875, 0.0, 1899.358154296875);(0.0, 0.0, 0.0, 0.0, 0.0, 0.0, 0.0, 0.0);(0.0, 34.970001220703125, 64.55999755859375, 5.380000114440918, -18.829999923706055, -2.690000057220459, 2.690000057220459, 0.0)
2024/05/03/13:02:46.116110;127278;1714766566;139744403;;['BL_Position', 'BL_Wheel', 'BR_Position', 'BR_Wheel', 'FL_Position', 'FL_Wheel', 'FR_Position', 'FR_Wheel'];(0.0015339808305725455, 1787.348388671875, -0.006135923322290182, 1895.035400390625, 0.003067961661145091, 1785.22998046875, 0.0, 1899.358154296875);(0.0, 0.0, 0.0, 0.0, 0.0, 0.0, 0.0, 0.0);(0.0, 34.970001220703125, 59.18000030517578, 5.380000114440918, -18.829999923706055, -2.690000057220459, 2.690000057220459, 0.0)
2024/05/03/13:02:46.139448;127279;1714766566;155716680;;['BL_Position', 'BL_Wheel', 'BR_Position', 'BR_Wheel', 'FL_Position', 'FL_Wheel', 'FR_Position', 'FR_Wheel'];(0.0, 1787.348388671875, -0.004601942375302315, 1895.035400390625, 0.0015339808305725455, 1785.22998046875, 0.0, 1899.358154296875);(0.0, 0.0, 0.0, 0.0, 0.0, 0.0, 0.0, 0.0);(0.0, 34.970001220703125, 61.87000274658203, 5.380000114440918, -16.139999389648438, -2.690000057220459, 2.690000057220459, 0.0)
2024/05/03/13:02:46.148106;127280;1714766566;171748587;;['BL_Position', 'BL_Wheel', 'BR_Position', 'BR_Wheel', 'FL_Position', 'FL_Wheel', 'FR_Position', 'FR_Wheel'];(0.0015339808305725455, 1787.348388671875, -0.004601942375302315, 1895.035400390625, 0.003067961661145091, 1785.22998046875, 0.0, 1899.358154296875);(0.0, 0.0, 0.0, 0.0, 0.0, 0.0, 0.0, 0.0);(0.0, 34.970001220703125, 59.18000030517578, 5.380000114440918, -18.829999923706055, -2.690000057220459, 2.690000057220459, 0.0)
2024/05/03/13:02:46.166704;127281;1714766566;187753994;;['BL_Position', 'BL_Wheel', 'BR_Position', 'BR_Wheel', 'FL_Position', 'FL_Wheel', 'FR_Position', 'FR_Wheel'];(0.0015339808305725455, 1787.348388671875, -0.004601942375302315, 1895.035400390625, 0.0015339808305725455, 1785.22998046875, 0.0, 1899.358154296875);(0.0, 0.0, 0.0, 0.0, 0.0, 0.0, 0.0, 0.0);(0.0, 34.970001220703125, 56.4900016784668, 5.380000114440918, -18.829999923706055, -2.690000057220459, 2.690000057220459, 0.0)
2024/05/03/13:02:46.180108;127282;1714766566;203737715;;['BL_Position', 'BL_Wheel', 'BR_Position', 'BR_Wheel', 'FL_Position', 'FL_Wheel', 'FR_Position', 'FR_Wheel'];(0.0, 1787.348388671875, -0.004601942375302315, 1895.035400390625, 0.003067961661145091, 1785.22998046875, 0.0, 1899.358154296875);(0.0, 0.0, 0.0, 0.0, 0.0, 0.0, 0.0, 0.0);(0.0, 34.970001220703125, 64.55999755859375, 5.380000114440918, -18.829999923706055, -2.690000057220459, 2.690000057220459, 0.0)
2024/05/03/13:02:46.197988;127283;1714766566;220514862;;['BL_Position', 'BL_Wheel', 'BR_Position', 'BR_Wheel', 'FL_Position', 'FL_Wheel', 'FR_Position', 'FR_Wheel'];(0.0, 1787.348388671875, -0.004601942375302315, 1895.035400390625, 0.003067961661145091, 1785.22998046875, -0.0015339808305725455, 1899.358154296875);(0.0, 0.0, 0.0, 0.0, 0.0, 0.0, 0.0, 0.0);(0.0, 34.970001220703125, 64.55999755859375, 5.380000114440918, -18.829999923706055, -2.690000057220459, 2.690000057220459, 0.0)
2024/05/03/13:02:46.213528;127284;1714766566;236372732;;['BL_Position', 'BL_Wheel', 'BR_Position', 'BR_Wheel', 'FL_Position', 'FL_Wheel', 'FR_Position', 'FR_Wheel'];(0.0, 1787.348388671875, -0.004601942375302315, 1895.035400390625, 0.003067961661145091, 1785.22998046875, 0.0, 1899.358154296875);(0.0, 0.0, 0.0, 0.0, 0.0, 0.0, 0.0, 0.0);(0.0, 34.970001220703125, 64.55999755859375, 5.380000114440918, -18.829999923706055, -2.690000057220459, 2.690000057220459, 0.0)
2024/05/03/13:02:46.229511;127285;1714766566;251871213;;['BL_Position', 'BL_Wheel', 'BR_Position', 'BR_Wheel', 'FL_Position', 'FL_Wheel', 'FR_Position', 'FR_Wheel'];(0.0015339808305725455, 1787.348388671875, -0.006135923322290182, 1895.035400390625, 0.003067961661145091, 1785.22998046875, 0.0, 1899.358154296875);(0.0, 0.0, 0.0, 0.0, 0.0, 0.0, 0.0, 0.0);(0.0, 34.970001220703125, 59.18000030517578, 5.380000114440918, -18.829999923706055, -2.690000057220459, 2.690000057220459, 0.0)
2024/05/03/13:02:46.247698;127286;1714766566;267764583;;['BL_Position', 'BL_Wheel', 'BR_Position', 'BR_Wheel', 'FL_Position', 'FL_Wheel', 'FR_Position', 'FR_Wheel'];(0.0015339808305725455, 1787.348388671875, -0.004601942375302315, 1895.035400390625, 0.0015339808305725455, 1785.22998046875, 0.0, 1899.358154296875);(0.0, 0.0, 0.0, 0.0, 0.0, 0.0, 0.0, 0.0);(0.0, 34.970001220703125, 64.55999755859375, 5.380000114440918, -16.139999389648438, -2.690000057220459, 2.690000057220459, 0.0)
2024/05/03/13:02:46.261789;127287;1714766566;283783989;;['BL_Position', 'BL_Wheel', 'BR_Position', 'BR_Wheel', 'FL_Position', 'FL_Wheel', 'FR_Position', 'FR_Wheel'];(0.0, 1787.348388671875, -0.004601942375302315, 1895.035400390625, 0.003067961661145091, 1785.22998046875, 0.0, 1899.358154296875);(0.0, 0.0, 0.0, 0.0, 0.0, 0.0, 0.0, 0.0);(0.0, 34.970001220703125, 59.18000030517578, 5.380000114440918, -18.829999923706055, -2.690000057220459, 2.690000057220459, 0.0)
2024/05/03/13:02:46.278644;127288;1714766566;299846618;;['BL_Position', 'BL_Wheel', 'BR_Position', 'BR_Wheel', 'FL_Position', 'FL_Wheel', 'FR_Position', 'FR_Wheel'];(0.0, 1787.348388671875, -0.004601942375302315, 1895.035400390625, 0.003067961661145091, 1785.22998046875, 0.0, 1899.358154296875);(0.0, 0.0, 0.0, 0.0, 0.0, 0.0, 0.0, 0.0);(0.0, 34.970001220703125, 64.55999755859375, 5.380000114440918, -16.139999389648438, -2.690000057220459, 2.690000057220459, 0.0)
2024/05/03/13:02:46.291741;127289;1714766566;315794321;;['BL_Position', 'BL_Wheel', 'BR_Position', 'BR_Wheel', 'FL_Position', 'FL_Wheel', 'FR_Position', 'FR_Wheel'];(0.0, 1787.348388671875, -0.004601942375302315, 1895.035400390625, 0.0015339808305725455, 1785.22998046875, 0.0, 1899.358154296875);(0.0, 0.0, 0.0, 0.0, 0.0, 0.0, 0.0, 0.0);(0.0, 34.970001220703125, 59.18000030517578, 5.380000114440918, -18.829999923706055, -2.690000057220459, 2.690000057220459, 0.0)
2024/05/03/13:02:46.308132;127290;1714766566;331818394;;['BL_Position', 'BL_Wheel', 'BR_Position', 'BR_Wheel', 'FL_Position', 'FL_Wheel', 'FR_Position', 'FR_Wheel'];(0.0015339808305725455, 1787.348388671875, -0.006135923322290182, 1895.035400390625, 0.0015339808305725455, 1785.22998046875, 0.0, 1899.358154296875);(0.0, 0.0, 0.0, 0.0, 0.0, 0.0, 0.0, 0.0);(0.0, 34.970001220703125, 72.6300048828125, 5.380000114440918, -13.450000762939453, -2.690000057220459, 2.690000057220459, 0.0)
2024/05/03/13:02:46.323801;127291;1714766566;347763375;;['BL_Position', 'BL_Wheel', 'BR_Position', 'BR_Wheel', 'FL_Position', 'FL_Wheel', 'FR_Position', 'FR_Wheel'];(0.0, 1787.348388671875, -0.004601942375302315, 1895.035400390625, 0.0015339808305725455, 1785.22998046875, 0.0, 1899.358154296875);(0.0, 0.0, 0.0, 0.0, 0.0, 0.0, 0.0, 0.0);(0.0, 34.970001220703125, 56.4900016784668, 5.380000114440918, -18.829999923706055, -2.690000057220459, 2.690000057220459, 0.0)
2024/05/03/13:02:46.343953;127292;1714766566;363799615;;['BL_Position', 'BL_Wheel', 'BR_Position', 'BR_Wheel', 'FL_Position', 'FL_Wheel', 'FR_Position', 'FR_Wheel'];(0.0, 1787.348388671875, -0.004601942375302315, 1895.035400390625, 0.0015339808305725455, 1785.22998046875, 0.0, 1899.358154296875);(0.0, 0.0, 0.0, 0.0, 0.0, 0.0, 0.0, 0.0);(0.0, 34.970001220703125, 64.55999755859375, 5.380000114440918, -10.760000228881836, -2.690000057220459, 2.690000057220459, 0.0)
2024/05/03/13:02:46.356404;127293;1714766566;379810614;;['BL_Position', 'BL_Wheel', 'BR_Position', 'BR_Wheel', 'FL_Position', 'FL_Wheel', 'FR_Position', 'FR_Wheel'];(0.0015339808305725455, 1787.348388671875, -0.006135923322290182, 1895.035400390625, 0.003067961661145091, 1785.22998046875, 0.0, 1899.358154296875);(0.0, 0.0, 0.0, 0.0, 0.0, 0.0, 0.0, 0.0);(0.0, 34.970001220703125, 59.18000030517578, 5.380000114440918, -13.450000762939453, -2.690000057220459, 2.690000057220459, 0.0)
2024/05/03/13:02:46.371321;127294;1714766566;395882743;;['BL_Position', 'BL_Wheel', 'BR_Position', 'BR_Wheel', 'FL_Position', 'FL_Wheel', 'FR_Position', 'FR_Wheel'];(0.0015339808305725455, 1787.348388671875, -0.004601942375302315, 1895.035400390625, 0.003067961661145091, 1785.22998046875, 0.0, 1899.358154296875);(0.0, 0.0, 0.0, 0.0, 0.0, 0.0, 0.0, 0.0);(0.0, 34.970001220703125, 61.87000274658203, 5.380000114440918, -18.829999923706055, -2.690000057220459, 2.690000057220459, 0.0)
2024/05/03/13:02:46.390569;127295;1714766566;411888557;;['BL_Position', 'BL_Wheel', 'BR_Position', 'BR_Wheel', 'FL_Position', 'FL_Wheel', 'FR_Position', 'FR_Wheel'];(0.0015339808305725455, 1787.348388671875, -0.004601942375302315, 1895.035400390625, 0.003067961661145091, 1785.22998046875, 0.0, 1899.358154296875);(0.0, 0.0, 0.0, 0.0, 0.0, 0.0, 0.0, 0.0);(0.0, 34.970001220703125, 61.87000274658203, 5.380000114440918, -16.139999389648438, -2.690000057220459, 5.380000114440918, 0.0)
2024/05/03/13:02:46.404790;127296;1714766566;427747464;;['BL_Position', 'BL_Wheel', 'BR_Position', 'BR_Wheel', 'FL_Position', 'FL_Wheel', 'FR_Position', 'FR_Wheel'];(0.0015339808305725455, 1787.348388671875, -0.004601942375302315, 1895.035400390625, 0.0015339808305725455, 1785.22998046875, 0.0, 1899.358154296875);(0.0, 0.0, 0.0, 0.0, 0.0, 0.0, 0.0, 0.0);(0.0, 34.970001220703125, 64.55999755859375, 5.380000114440918, -18.829999923706055, -2.690000057220459, 5.380000114440918, 0.0)
2024/05/03/13:02:46.420944;127297;1714766566;444507278;;['BL_Position', 'BL_Wheel', 'BR_Position', 'BR_Wheel', 'FL_Position', 'FL_Wheel', 'FR_Position', 'FR_Wheel'];(0.0015339808305725455, 1787.348388671875, -0.004601942375302315, 1895.035400390625, 0.003067961661145091, 1785.22998046875, 0.0, 1899.358154296875);(0.0, 0.0, 0.0, 0.0, 0.0, 0.0, 0.0, 0.0);(0.0, 34.970001220703125, 61.87000274658203, 5.380000114440918, -16.139999389648438, -2.690000057220459, 5.380000114440918, 0.0)
2024/05/03/13:02:46.446274;127298;1714766566;459774703;;['BL_Position', 'BL_Wheel', 'BR_Position', 'BR_Wheel', 'FL_Position', 'FL_Wheel', 'FR_Position', 'FR_Wheel'];(0.0015339808305725455, 1787.348388671875, -0.004601942375302315, 1895.035400390625, 0.003067961661145091, 1785.22998046875, 0.0, 1899.358154296875);(0.0, 0.0, 0.0, 0.0, 0.0, 0.0, 0.0, 0.0);(0.0, 34.970001220703125, 64.55999755859375, 5.380000114440918, -18.829999923706055, -2.690000057220459, 5.380000114440918, 0.0)
2024/05/03/13:02:46.452120;127299;1714766566;475917369;;['BL_Position', 'BL_Wheel', 'BR_Position', 'BR_Wheel', 'FL_Position', 'FL_Wheel', 'FR_Position', 'FR_Wheel'];(0.0015339808305725455, 1787.348388671875, -0.004601942375302315, 1895.035400390625, 0.003067961661145091, 1785.22998046875, 0.0, 1899.358154296875);(0.0, 0.0, 0.0, 0.0, 0.0, 0.0, 0.0, 0.0);(0.0, 34.970001220703125, 69.94000244140625, 5.380000114440918, -13.450000762939453, -2.690000057220459, 5.380000114440918, 0.0)
2024/05/03/13:02:46.473278;127300;1714766566;491731405;;['BL_Position', 'BL_Wheel', 'BR_Position', 'BR_Wheel', 'FL_Position', 'FL_Wheel', 'FR_Position', 'FR_Wheel'];(0.0, 1787.348388671875, -0.004601942375302315, 1895.035400390625, 0.003067961661145091, 1785.22998046875, 0.0, 1899.358154296875);(0.0, 0.0, 0.0, 0.0, 0.0, 0.0, 0.0, 0.0);(0.0, 34.970001220703125, 61.87000274658203, 5.380000114440918, -16.139999389648438, -2.690000057220459, 5.380000114440918, 0.0)
2024/05/03/13:02:46.485109;127301;1714766566;507791979;;['BL_Position', 'BL_Wheel', 'BR_Position', 'BR_Wheel', 'FL_Position', 'FL_Wheel', 'FR_Position', 'FR_Wheel'];(0.0, 1787.348388671875, -0.006135923322290182, 1895.035400390625, 0.003067961661145091, 1785.22998046875, 0.0, 1899.358154296875);(0.0, 0.0, 0.0, 0.0, 0.0, 0.0, 0.0, 0.0);(0.0, 34.970001220703125, 59.18000030517578, 5.380000114440918, -18.829999923706055, -2.690000057220459, 2.690000057220459, 0.0)
2024/05/03/13:02:46.499797;127302;1714766566;523728645;;['BL_Position', 'BL_Wheel', 'BR_Position', 'BR_Wheel', 'FL_Position', 'FL_Wheel', 'FR_Position', 'FR_Wheel'];(0.0, 1787.348388671875, -0.006135923322290182, 1895.035400390625, 0.0015339808305725455, 1785.22998046875, 0.0, 1899.358154296875);(0.0, 0.0, 0.0, 0.0, 0.0, 0.0, 0.0, 0.0);(0.0, 34.970001220703125, 64.55999755859375, 5.380000114440918, -16.139999389648438, -2.690000057220459, 2.690000057220459, 0.0)
2024/05/03/13:02:46.517293;127303;1714766566;539770922;;['BL_Position', 'BL_Wheel', 'BR_Position', 'BR_Wheel', 'FL_Position', 'FL_Wheel', 'FR_Position', 'FR_Wheel'];(0.0, 1787.348388671875, -0.004601942375302315, 1895.035400390625, 0.0015339808305725455, 1785.22998046875, 0.0, 1899.358154296875);(0.0, 0.0, 0.0, 0.0, 0.0, 0.0, 0.0, 0.0);(0.0, 34.970001220703125, 67.25, 5.380000114440918, -18.829999923706055, -2.690000057220459, 2.690000057220459, 0.0)
2024/05/03/13:02:46.533264;127304;1714766566;555729773;;['BL_Position', 'BL_Wheel', 'BR_Position', 'BR_Wheel', 'FL_Position', 'FL_Wheel', 'FR_Position', 'FR_Wheel'];(0.0, 1787.348388671875, -0.004601942375302315, 1895.035400390625, 0.003067961661145091, 1785.22998046875, 0.0, 1899.358154296875);(0.0, 0.0, 0.0, 0.0, 0.0, 0.0, 0.0, 0.0);(0.0, 34.970001220703125, 69.94000244140625, 5.380000114440918, -16.139999389648438, -2.690000057220459, 2.690000057220459, 0.0)
2024/05/03/13:02:46.548542;127305;1714766566;571725494;;['BL_Position', 'BL_Wheel', 'BR_Position', 'BR_Wheel', 'FL_Position', 'FL_Wheel', 'FR_Position', 'FR_Wheel'];(0.0015339808305725455, 1787.348388671875, -0.004601942375302315, 1895.035400390625, 0.003067961661145091, 1785.22998046875, 0.0, 1899.358154296875);(0.0, 0.0, 0.0, 0.0, 0.0, 0.0, 0.0, 0.0);(0.0, 34.970001220703125, 64.55999755859375, 5.380000114440918, -16.139999389648438, -2.690000057220459, 2.690000057220459, 0.0)
2024/05/03/13:02:46.575513;127306;1714766566;587781531;;['BL_Position', 'BL_Wheel', 'BR_Position', 'BR_Wheel', 'FL_Position', 'FL_Wheel', 'FR_Position', 'FR_Wheel'];(0.0015339808305725455, 1787.348388671875, -0.004601942375302315, 1895.035400390625, 0.003067961661145091, 1785.22998046875, 0.0, 1899.358154296875);(0.0, 0.0, 0.0, 0.0, 0.0, 0.0, 0.0, 0.0);(0.0, 34.970001220703125, 67.25, 5.380000114440918, -18.829999923706055, -2.690000057220459, 2.690000057220459, 0.0)
2024/05/03/13:02:46.580276;127307;1714766566;603759419;;['BL_Position', 'BL_Wheel', 'BR_Position', 'BR_Wheel', 'FL_Position', 'FL_Wheel', 'FR_Position', 'FR_Wheel'];(0.0, 1787.348388671875, -0.004601942375302315, 1895.035400390625, 0.003067961661145091, 1785.22998046875, 0.0, 1899.358154296875);(0.0, 0.0, 0.0, 0.0, 0.0, 0.0, 0.0, 0.0);(0.0, 34.970001220703125, 59.18000030517578, 5.380000114440918, -18.829999923706055, -2.690000057220459, 2.690000057220459, 0.0)
2024/05/03/13:02:46.596819;127308;1714766566;619779585;;['BL_Position', 'BL_Wheel', 'BR_Position', 'BR_Wheel', 'FL_Position', 'FL_Wheel', 'FR_Position', 'FR_Wheel'];(0.0015339808305725455, 1787.348388671875, -0.004601942375302315, 1895.035400390625, 0.0015339808305725455, 1785.22998046875, 0.0, 1899.358154296875);(0.0, 0.0, 0.0, 0.0, 0.0, 0.0, 0.0, 0.0);(0.0, 34.970001220703125, 64.55999755859375, 5.380000114440918, -13.450000762939453, -2.690000057220459, 2.690000057220459, 0.0)
2024/05/03/13:02:46.612339;127309;1714766566;635803788;;['BL_Position', 'BL_Wheel', 'BR_Position', 'BR_Wheel', 'FL_Position', 'FL_Wheel', 'FR_Position', 'FR_Wheel'];(0.0, 1787.348388671875, -0.004601942375302315, 1895.035400390625, 0.0015339808305725455, 1785.22998046875, 0.0, 1899.358154296875);(0.0, 0.0, 0.0, 0.0, 0.0, 0.0, 0.0, 0.0);(0.0, 34.970001220703125, 64.55999755859375, 5.380000114440918, -18.829999923706055, -2.690000057220459, 2.690000057220459, 0.0)
2024/05/03/13:02:46.628252;127310;1714766566;651716287;;['BL_Position', 'BL_Wheel', 'BR_Position', 'BR_Wheel', 'FL_Position', 'FL_Wheel', 'FR_Position', 'FR_Wheel'];(0.0015339808305725455, 1787.348388671875, -0.006135923322290182, 1895.035400390625, 0.003067961661145091, 1785.22998046875, 0.0, 1899.358154296875);(0.0, 0.0, 0.0, 0.0, 0.0, 0.0, 0.0, 0.0);(0.0, 34.970001220703125, 61.87000274658203, 5.380000114440918, -16.139999389648438, -2.690000057220459, 2.690000057220459, 0.0)
2024/05/03/13:02:46.650743;127311;1714766566;667863916;;['BL_Position', 'BL_Wheel', 'BR_Position', 'BR_Wheel', 'FL_Position', 'FL_Wheel', 'FR_Position', 'FR_Wheel'];(0.0, 1787.348388671875, -0.004601942375302315, 1895.035400390625, 0.003067961661145091, 1785.22998046875, 0.0, 1899.358154296875);(0.0, 0.0, 0.0, 0.0, 0.0, 0.0, 0.0, 0.0);(0.0, 34.970001220703125, 61.87000274658203, 5.380000114440918, -13.450000762939453, -2.690000057220459, 2.690000057220459, 0.0)
2024/05/03/13:02:46.660317;127312;1714766566;683825989;;['BL_Position', 'BL_Wheel', 'BR_Position', 'BR_Wheel', 'FL_Position', 'FL_Wheel', 'FR_Position', 'FR_Wheel'];(0.0015339808305725455, 1787.348388671875, -0.004601942375302315, 1895.035400390625, 0.0015339808305725455, 1785.22998046875, 0.0, 1899.358154296875);(0.0, 0.0, 0.0, 0.0, 0.0, 0.0, 0.0, 0.0);(0.0, 34.970001220703125, 56.4900016784668, 5.380000114440918, -16.139999389648438, -2.690000057220459, 2.690000057220459, 0.0)
2024/05/03/13:02:46.675969;127313;1714766566;699761859;;['BL_Position', 'BL_Wheel', 'BR_Position', 'BR_Wheel', 'FL_Position', 'FL_Wheel', 'FR_Position', 'FR_Wheel'];(0.0, 1787.348388671875, -0.004601942375302315, 1895.035400390625, 0.003067961661145091, 1785.22998046875, 0.0, 1899.358154296875);(0.0, 0.0, 0.0, 0.0, 0.0, 0.0, 0.0, 0.0);(0.0, 34.970001220703125, 69.94000244140625, 5.380000114440918, -18.829999923706055, -2.690000057220459, 2.690000057220459, 0.0)
2024/05/03/13:02:46.692297;127314;1714766566;715712710;;['BL_Position', 'BL_Wheel', 'BR_Position', 'BR_Wheel', 'FL_Position', 'FL_Wheel', 'FR_Position', 'FR_Wheel'];(0.0, 1787.348388671875, -0.004601942375302315, 1895.035400390625, 0.0015339808305725455, 1785.22998046875, 0.0, 1899.358154296875);(0.0, 0.0, 0.0, 0.0, 0.0, 0.0, 0.0, 0.0);(0.0, 34.970001220703125, 64.55999755859375, 5.380000114440918, -18.829999923706055, -2.690000057220459, 2.690000057220459, 0.0)
2024/05/03/13:02:46.708670;127315;1714766566;731879561;;['BL_Position', 'BL_Wheel', 'BR_Position', 'BR_Wheel', 'FL_Position', 'FL_Wheel', 'FR_Position', 'FR_Wheel'];(0.0, 1787.348388671875, -0.004601942375302315, 1895.035400390625, 0.0015339808305725455, 1785.22998046875, 0.0, 1899.358154296875);(0.0, 0.0, 0.0, 0.0, 0.0, 0.0, 0.0, 0.0);(0.0, 34.970001220703125, 61.87000274658203, 5.380000114440918, -18.829999923706055, -2.690000057220459, 2.690000057220459, 0.0)
2024/05/03/13:02:46.724418;127316;1714766566;747795227;;['BL_Position', 'BL_Wheel', 'BR_Position', 'BR_Wheel', 'FL_Position', 'FL_Wheel', 'FR_Position', 'FR_Wheel'];(0.0, 1787.348388671875, -0.006135923322290182, 1895.035400390625, 0.003067961661145091, 1785.22998046875, 0.0, 1899.358154296875);(0.0, 0.0, 0.0, 0.0, 0.0, 0.0, 0.0, 0.0);(0.0, 34.970001220703125, 61.87000274658203, 5.380000114440918, -18.829999923706055, -2.690000057220459, 2.690000057220459, 0.0)
2024/05/03/13:02:46.740254;127317;1714766566;763774745;;['BL_Position', 'BL_Wheel', 'BR_Position', 'BR_Wheel', 'FL_Position', 'FL_Wheel', 'FR_Position', 'FR_Wheel'];(0.0, 1787.348388671875, -0.004601942375302315, 1895.035400390625, 0.003067961661145091, 1785.22998046875, 0.0, 1899.358154296875);(0.0, 0.0, 0.0, 0.0, 0.0, 0.0, 0.0, 0.0);(0.0, 34.970001220703125, 67.25, 5.380000114440918, -16.139999389648438, -2.690000057220459, 2.690000057220459, 0.0)
2024/05/03/13:02:46.756771;127318;1714766566;779768411;;['BL_Position', 'BL_Wheel', 'BR_Position', 'BR_Wheel', 'FL_Position', 'FL_Wheel', 'FR_Position', 'FR_Wheel'];(0.0015339808305725455, 1787.348388671875, -0.004601942375302315, 1895.035400390625, 0.003067961661145091, 1785.22998046875, 0.0, 1899.358154296875);(0.0, 0.0, 0.0, 0.0, 0.0, 0.0, 0.0, 0.0);(0.0, 34.970001220703125, 64.55999755859375, 5.380000114440918, -13.450000762939453, -2.690000057220459, 2.690000057220459, 0.0)
2024/05/03/13:02:46.782108;127319;1714766566;795809817;;['BL_Position', 'BL_Wheel', 'BR_Position', 'BR_Wheel', 'FL_Position', 'FL_Wheel', 'FR_Position', 'FR_Wheel'];(0.0, 1787.348388671875, -0.004601942375302315, 1895.035400390625, 0.003067961661145091, 1785.22998046875, 0.0, 1899.358154296875);(0.0, 0.0, 0.0, 0.0, 0.0, 0.0, 0.0, 0.0);(0.0, 34.970001220703125, 61.87000274658203, 5.380000114440918, -16.139999389648438, -2.690000057220459, 2.690000057220459, 0.0)
2024/05/03/13:02:46.793589;127320;1714766566;811787094;;['BL_Position', 'BL_Wheel', 'BR_Position', 'BR_Wheel', 'FL_Position', 'FL_Wheel', 'FR_Position', 'FR_Wheel'];(0.0015339808305725455, 1787.348388671875, -0.004601942375302315, 1895.035400390625, 0.003067961661145091, 1785.22998046875, 0.0, 1899.358154296875);(0.0, 0.0, 0.0, 0.0, 0.0, 0.0, 0.0, 0.0);(0.0, 34.970001220703125, 61.87000274658203, 5.380000114440918, -16.139999389648438, -2.690000057220459, 2.690000057220459, 0.0)
2024/05/03/13:02:46.804755;127321;1714766566;827725834;;['BL_Position', 'BL_Wheel', 'BR_Position', 'BR_Wheel', 'FL_Position', 'FL_Wheel', 'FR_Position', 'FR_Wheel'];(0.0015339808305725455, 1787.348388671875, -0.004601942375302315, 1895.035400390625, 0.003067961661145091, 1785.22998046875, 0.0, 1899.358154296875);(0.0, 0.0, 0.0, 0.0, 0.0, 0.0, 0.0, 0.0);(0.0, 34.970001220703125, 67.25, 5.380000114440918, -18.829999923706055, -2.690000057220459, 2.690000057220459, 0.0)
2024/05/03/13:02:46.820204;127322;1714766566;843756130;;['BL_Position', 'BL_Wheel', 'BR_Position', 'BR_Wheel', 'FL_Position', 'FL_Wheel', 'FR_Position', 'FR_Wheel'];(0.0, 1787.348388671875, -0.006135923322290182, 1895.035400390625, 0.003067961661145091, 1785.22998046875, 0.0, 1899.358154296875);(0.0, 0.0, 0.0, 0.0, 0.0, 0.0, 0.0, 0.0);(0.0, 34.970001220703125, 61.87000274658203, 5.380000114440918, -16.139999389648438, -2.690000057220459, 0.0, 0.0)
2024/05/03/13:02:46.836828;127323;1714766566;859740370;;['BL_Position', 'BL_Wheel', 'BR_Position', 'BR_Wheel', 'FL_Position', 'FL_Wheel', 'FR_Position', 'FR_Wheel'];(0.0015339808305725455, 1787.348388671875, -0.004601942375302315, 1895.035400390625, 0.003067961661145091, 1785.22998046875, 0.0, 1899.358154296875);(0.0, 0.0, 0.0, 0.0, 0.0, 0.0, 0.0, 0.0);(0.0, 34.970001220703125, 61.87000274658203, 5.380000114440918, -13.450000762939453, -2.690000057220459, 0.0, 0.0)
2024/05/03/13:02:46.856716;127324;1714766566;875719591;;['BL_Position', 'BL_Wheel', 'BR_Position', 'BR_Wheel', 'FL_Position', 'FL_Wheel', 'FR_Position', 'FR_Wheel'];(0.0, 1787.348388671875, -0.004601942375302315, 1895.035400390625, 0.003067961661145091, 1785.22998046875, 0.0, 1899.358154296875);(0.0, 0.0, 0.0, 0.0, 0.0, 0.0, 0.0, 0.0);(0.0, 34.970001220703125, 59.18000030517578, 5.380000114440918, -18.829999923706055, -2.690000057220459, 0.0, 0.0)
2024/05/03/13:02:46.868113;127325;1714766566;891710665;;['BL_Position', 'BL_Wheel', 'BR_Position', 'BR_Wheel', 'FL_Position', 'FL_Wheel', 'FR_Position', 'FR_Wheel'];(0.0, 1787.348388671875, -0.004601942375302315, 1895.035400390625, 0.003067961661145091, 1785.22998046875, 0.0, 1899.358154296875);(0.0, 0.0, 0.0, 0.0, 0.0, 0.0, 0.0, 0.0);(0.0, 34.970001220703125, 72.6300048828125, 5.380000114440918, -18.829999923706055, -2.690000057220459, 0.0, 0.0)
2024/05/03/13:02:46.888042;127326;1714766566;907722294;;['BL_Position', 'BL_Wheel', 'BR_Position', 'BR_Wheel', 'FL_Position', 'FL_Wheel', 'FR_Position', 'FR_Wheel'];(0.0015339808305725455, 1787.348388671875, -0.004601942375302315, 1895.035400390625, 0.0015339808305725455, 1785.22998046875, 0.0, 1899.3597412109375);(0.0, 0.0, 0.0, 0.0, 0.0, 0.0, 0.0, 0.0);(0.0, 34.970001220703125, 59.18000030517578, 5.380000114440918, -13.450000762939453, -2.690000057220459, 0.0, 0.0)
2024/05/03/13:02:46.902667;127327;1714766566;923700571;;['BL_Position', 'BL_Wheel', 'BR_Position', 'BR_Wheel', 'FL_Position', 'FL_Wheel', 'FR_Position', 'FR_Wheel'];(0.0, 1787.348388671875, -0.004601942375302315, 1895.035400390625, 0.003067961661145091, 1785.22998046875, 0.0, 1899.358154296875);(0.0, 0.0, 0.0, 0.0, 0.0, 0.0, 0.0, 0.0);(0.0, 34.970001220703125, 61.87000274658203, 5.380000114440918, -13.450000762939453, -2.690000057220459, 0.0, 0.0)
2024/05/03/13:02:46.916272;127328;1714766566;939739681;;['BL_Position', 'BL_Wheel', 'BR_Position', 'BR_Wheel', 'FL_Position', 'FL_Wheel', 'FR_Position', 'FR_Wheel'];(0.0, 1787.348388671875, -0.004601942375302315, 1895.035400390625, 0.003067961661145091, 1785.22998046875, 0.0, 1899.358154296875);(0.0, 0.0, 0.0, 0.0, 0.0, 0.0, 0.0, 0.0);(0.0, 34.970001220703125, 64.55999755859375, 5.380000114440918, -18.829999923706055, -2.690000057220459, 0.0, 0.0)
2024/05/03/13:02:46.932805;127329;1714766566;955741384;;['BL_Position', 'BL_Wheel', 'BR_Position', 'BR_Wheel', 'FL_Position', 'FL_Wheel', 'FR_Position', 'FR_Wheel'];(0.0015339808305725455, 1787.348388671875, -0.004601942375302315, 1895.035400390625, 0.0015339808305725455, 1785.22998046875, -0.0015339808305725455, 1899.358154296875);(0.0, 0.0, 0.0, 0.0, 0.0, 0.0, 0.0, 0.0);(0.0, 34.970001220703125, 61.87000274658203, 5.380000114440918, -18.829999923706055, -2.690000057220459, 0.0, 0.0)
2024/05/03/13:02:46.958459;127330;1714766566;973444642;;['BL_Position', 'BL_Wheel', 'BR_Position', 'BR_Wheel', 'FL_Position', 'FL_Wheel', 'FR_Position', 'FR_Wheel'];(0.0015339808305725455, 1787.348388671875, -0.004601942375302315, 1895.035400390625, 0.003067961661145091, 1785.22998046875, 0.0, 1899.358154296875);(0.0, 0.0, 0.0, 0.0, 0.0, 0.0, 0.0, 0.0);(0.0, 34.970001220703125, 64.55999755859375, 5.380000114440918, -13.450000762939453, -2.690000057220459, 2.690000057220459, 0.0)
2024/05/03/13:02:46.962977;127331;1714766566;987736660;;['BL_Position', 'BL_Wheel', 'BR_Position', 'BR_Wheel', 'FL_Position', 'FL_Wheel', 'FR_Position', 'FR_Wheel'];(0.0015339808305725455, 1787.348388671875, -0.006135923322290182, 1895.035400390625, 0.003067961661145091, 1785.22998046875, 0.0, 1899.358154296875);(0.0, 0.0, 0.0, 0.0, 0.0, 0.0, 0.0, 0.0);(0.0, 34.970001220703125, 64.55999755859375, 5.380000114440918, -13.450000762939453, -2.690000057220459, 2.690000057220459, 0.0)
2024/05/03/13:02:46.985221;127332;1714766567;3747122;;['BL_Position', 'BL_Wheel', 'BR_Position', 'BR_Wheel', 'FL_Position', 'FL_Wheel', 'FR_Position', 'FR_Wheel'];(0.0, 1787.348388671875, -0.004601942375302315, 1895.035400390625, 0.003067961661145091, 1785.22998046875, 0.0, 1899.358154296875);(0.0, 0.0, 0.0, 0.0, 0.0, 0.0, 0.0, 0.0);(0.0, 34.970001220703125, 67.25, 5.380000114440918, -18.829999923706055, -2.690000057220459, 2.690000057220459, 0.0)
2024/05/03/13:02:46.994205;127333;1714766567;19757733;;['BL_Position', 'BL_Wheel', 'BR_Position', 'BR_Wheel', 'FL_Position', 'FL_Wheel', 'FR_Position', 'FR_Wheel'];(0.0, 1787.348388671875, -0.006135923322290182, 1895.035400390625, 0.003067961661145091, 1785.22998046875, 0.0, 1899.358154296875);(0.0, 0.0, 0.0, 0.0, 0.0, 0.0, 0.0, 0.0);(0.0, 34.970001220703125, 64.55999755859375, 5.380000114440918, -16.139999389648438, -2.690000057220459, 2.690000057220459, 0.0)
2024/05/03/13:02:47.011348;127334;1714766567;35872788;;['BL_Position', 'BL_Wheel', 'BR_Position', 'BR_Wheel', 'FL_Position', 'FL_Wheel', 'FR_Position', 'FR_Wheel'];(0.0, 1787.348388671875, -0.004601942375302315, 1895.035400390625, 0.0015339808305725455, 1785.22998046875, 0.0, 1899.358154296875);(0.0, 0.0, 0.0, 0.0, 0.0, 0.0, 0.0, 0.0);(0.0, 34.970001220703125, 64.55999755859375, 5.380000114440918, -16.139999389648438, -2.690000057220459, 2.690000057220459, 0.0)
2024/05/03/13:02:47.027848;127335;1714766567;51726694;;['BL_Position', 'BL_Wheel', 'BR_Position', 'BR_Wheel', 'FL_Position', 'FL_Wheel', 'FR_Position', 'FR_Wheel'];(0.0, 1787.348388671875, -0.004601942375302315, 1895.035400390625, 0.003067961661145091, 1785.22998046875, 0.0, 1899.358154296875);(0.0, 0.0, 0.0, 0.0, 0.0, 0.0, 0.0, 0.0);(0.0, 34.970001220703125, 64.55999755859375, 5.380000114440918, -18.829999923706055, -2.690000057220459, 2.690000057220459, 0.0)
2024/05/03/13:02:47.044793;127336;1714766567;67747397;;['BL_Position', 'BL_Wheel', 'BR_Position', 'BR_Wheel', 'FL_Position', 'FL_Wheel', 'FR_Position', 'FR_Wheel'];(0.0, 1787.348388671875, -0.004601942375302315, 1895.035400390625, 0.003067961661145091, 1785.22998046875, 0.0, 1899.358154296875);(0.0, 0.0, 0.0, 0.0, 0.0, 0.0, 0.0, 0.0);(0.0, 34.970001220703125, 56.4900016784668, 5.380000114440918, -16.139999389648438, -2.690000057220459, 2.690000057220459, 0.0)
2024/05/03/13:02:47.062622;127337;1714766567;83758008;;['BL_Position', 'BL_Wheel', 'BR_Position', 'BR_Wheel', 'FL_Position', 'FL_Wheel', 'FR_Position', 'FR_Wheel'];(0.0, 1787.348388671875, -0.004601942375302315, 1895.035400390625, 0.003067961661145091, 1785.22998046875, 0.0, 1899.358154296875);(0.0, 0.0, 0.0, 0.0, 0.0, 0.0, 0.0, 0.0);(0.0, 34.970001220703125, 67.25, 5.380000114440918, -10.760000228881836, -2.690000057220459, 2.690000057220459, 0.0)
2024/05/03/13:02:47.086720;127338;1714766567;100072803;;['BL_Position', 'BL_Wheel', 'BR_Position', 'BR_Wheel', 'FL_Position', 'FL_Wheel', 'FR_Position', 'FR_Wheel'];(0.0, 1787.348388671875, -0.006135923322290182, 1895.035400390625, 0.003067961661145091, 1785.22998046875, 0.0, 1899.358154296875);(0.0, 0.0, 0.0, 0.0, 0.0, 0.0, 0.0, 0.0);(0.0, 34.970001220703125, 67.25, 5.380000114440918, -18.829999923706055, -2.690000057220459, 2.690000057220459, 0.0)
2024/05/03/13:02:47.096958;127339;1714766567;115841617;;['BL_Position', 'BL_Wheel', 'BR_Position', 'BR_Wheel', 'FL_Position', 'FL_Wheel', 'FR_Position', 'FR_Wheel'];(0.0, 1787.348388671875, -0.004601942375302315, 1895.035400390625, 0.003067961661145091, 1785.22998046875, 0.0, 1899.358154296875);(0.0, 0.0, 0.0, 0.0, 0.0, 0.0, 0.0, 0.0);(0.0, 34.970001220703125, 67.25, 5.380000114440918, -18.829999923706055, -2.690000057220459, 2.690000057220459, 0.0)
2024/05/03/13:02:47.109347;127340;1714766567;131811024;;['BL_Position', 'BL_Wheel', 'BR_Position', 'BR_Wheel', 'FL_Position', 'FL_Wheel', 'FR_Position', 'FR_Wheel'];(0.0, 1787.348388671875, -0.006135923322290182, 1895.035400390625, 0.003067961661145091, 1785.22998046875, 0.0, 1899.358154296875);(0.0, 0.0, 0.0, 0.0, 0.0, 0.0, 0.0, 0.0);(0.0, 34.970001220703125, 56.4900016784668, 5.380000114440918, -18.829999923706055, -2.690000057220459, 2.690000057220459, 0.0)
2024/05/03/13:02:47.124586;127341;1714766567;147739116;;['BL_Position', 'BL_Wheel', 'BR_Position', 'BR_Wheel', 'FL_Position', 'FL_Wheel', 'FR_Position', 'FR_Wheel'];(0.0015339808305725455, 1787.348388671875, -0.004601942375302315, 1895.035400390625, 0.003067961661145091, 1785.22998046875, 0.0, 1899.358154296875);(0.0, 0.0, 0.0, 0.0, 0.0, 0.0, 0.0, 0.0);(0.0, 34.970001220703125, 64.55999755859375, 5.380000114440918, -13.450000762939453, -2.690000057220459, 2.690000057220459, 0.0)
2024/05/03/13:02:47.140503;127342;1714766567;163765726;;['BL_Position', 'BL_Wheel', 'BR_Position', 'BR_Wheel', 'FL_Position', 'FL_Wheel', 'FR_Position', 'FR_Wheel'];(0.0, 1787.348388671875, -0.006135923322290182, 1895.035400390625, 0.003067961661145091, 1785.2315673828125, 0.0, 1899.358154296875);(0.0, 0.0, 0.0, 0.0, 0.0, 0.0, 0.0, 0.0);(0.0, 34.970001220703125, 59.18000030517578, 5.380000114440918, -18.829999923706055, -2.690000057220459, 2.690000057220459, 0.0)
2024/05/03/13:02:47.162971;127343;1714766567;179856022;;['BL_Position', 'BL_Wheel', 'BR_Position', 'BR_Wheel', 'FL_Position', 'FL_Wheel', 'FR_Position', 'FR_Wheel'];(0.0, 1787.348388671875, -0.004601942375302315, 1895.035400390625, 0.003067961661145091, 1785.22998046875, 0.0, 1899.358154296875);(0.0, 0.0, 0.0, 0.0, 0.0, 0.0, 0.0, 0.0);(0.0, 34.970001220703125, 64.55999755859375, 5.380000114440918, -13.450000762939453, -2.690000057220459, 2.690000057220459, 0.0)
2024/05/03/13:02:47.171533;127344;1714766567;195714391;;['BL_Position', 'BL_Wheel', 'BR_Position', 'BR_Wheel', 'FL_Position', 'FL_Wheel', 'FR_Position', 'FR_Wheel'];(0.0015339808305725455, 1787.348388671875, -0.006135923322290182, 1895.035400390625, 0.003067961661145091, 1785.22998046875, 0.0, 1899.358154296875);(0.0, 0.0, 0.0, 0.0, 0.0, 0.0, 0.0, 0.0);(0.0, 34.970001220703125, 59.18000030517578, 5.380000114440918, -16.139999389648438, -2.690000057220459, 2.690000057220459, 0.0)
2024/05/03/13:02:47.191752;127345;1714766567;211739409;;['BL_Position', 'BL_Wheel', 'BR_Position', 'BR_Wheel', 'FL_Position', 'FL_Wheel', 'FR_Position', 'FR_Wheel'];(0.0015339808305725455, 1787.348388671875, -0.006135923322290182, 1895.035400390625, 0.003067961661145091, 1785.22998046875, 0.0, 1899.358154296875);(0.0, 0.0, 0.0, 0.0, 0.0, 0.0, 0.0, 0.0);(0.0, 34.970001220703125, 61.87000274658203, 5.380000114440918, -16.139999389648438, -2.690000057220459, 2.690000057220459, 0.0)
2024/05/03/13:02:47.206346;127346;1714766567;228691982;;['BL_Position', 'BL_Wheel', 'BR_Position', 'BR_Wheel', 'FL_Position', 'FL_Wheel', 'FR_Position', 'FR_Wheel'];(0.0015339808305725455, 1787.348388671875, -0.004601942375302315, 1895.035400390625, 0.003067961661145091, 1785.2315673828125, 0.0, 1899.358154296875);(0.0, 0.0, 0.0, 0.0, 0.0, 0.0, 0.0, 0.0);(0.0, 34.970001220703125, 61.87000274658203, 5.380000114440918, -16.139999389648438, -2.690000057220459, 2.690000057220459, 0.0)
2024/05/03/13:02:47.219502;127347;1714766567;243849148;;['BL_Position', 'BL_Wheel', 'BR_Position', 'BR_Wheel', 'FL_Position', 'FL_Wheel', 'FR_Position', 'FR_Wheel'];(0.0, 1787.348388671875, -0.006135923322290182, 1895.035400390625, 0.003067961661145091, 1785.22998046875, 0.0, 1899.358154296875);(0.0, 0.0, 0.0, 0.0, 0.0, 0.0, 0.0, 0.0);(0.0, 34.970001220703125, 67.25, 5.380000114440918, -18.829999923706055, -2.690000057220459, 2.690000057220459, 0.0)
2024/05/03/13:02:47.234543;127348;1714766567;259726296;;['BL_Position', 'BL_Wheel', 'BR_Position', 'BR_Wheel', 'FL_Position', 'FL_Wheel', 'FR_Position', 'FR_Wheel'];(0.0015339808305725455, 1787.348388671875, -0.004601942375302315, 1895.035400390625, 0.003067961661145091, 1785.22998046875, 0.0, 1899.358154296875);(0.0, 0.0, 0.0, 0.0, 0.0, 0.0, 0.0, 0.0);(0.0, 34.970001220703125, 64.55999755859375, 5.380000114440918, -18.829999923706055, -2.690000057220459, 2.690000057220459, 0.0)
2024/05/03/13:02:47.252939;127349;1714766567;275770276;;['BL_Position', 'BL_Wheel', 'BR_Position', 'BR_Wheel', 'FL_Position', 'FL_Wheel', 'FR_Position', 'FR_Wheel'];(0.0, 1787.348388671875, -0.006135923322290182, 1895.035400390625, 0.0015339808305725455, 1785.22998046875, 0.0, 1899.358154296875);(0.0, 0.0, 0.0, 0.0, 0.0, 0.0, 0.0, 0.0);(0.0, 34.970001220703125, 67.25, 5.380000114440918, -16.139999389648438, -2.690000057220459, 2.690000057220459, 0.0)
2024/05/03/13:02:47.268166;127350;1714766567;291773516;;['BL_Position', 'BL_Wheel', 'BR_Position', 'BR_Wheel', 'FL_Position', 'FL_Wheel', 'FR_Position', 'FR_Wheel'];(0.0, 1787.348388671875, -0.004601942375302315, 1895.035400390625, 0.003067961661145091, 1785.22998046875, -0.0015339808305725455, 1899.358154296875);(0.0, 0.0, 0.0, 0.0, 0.0, 0.0, 0.0, 0.0);(0.0, 34.970001220703125, 61.87000274658203, 5.380000114440918, -13.450000762939453, -2.690000057220459, 2.690000057220459, 0.0)
2024/05/03/13:02:47.292214;127351;1714766567;307742756;;['BL_Position', 'BL_Wheel', 'BR_Position', 'BR_Wheel', 'FL_Position', 'FL_Wheel', 'FR_Position', 'FR_Wheel'];(0.0, 1787.348388671875, -0.006135923322290182, 1895.035400390625, 0.003067961661145091, 1785.22998046875, 0.0, 1899.358154296875);(0.0, 0.0, 0.0, 0.0, 0.0, 0.0, 0.0, 0.0);(0.0, 34.970001220703125, 59.18000030517578, 5.380000114440918, -16.139999389648438, -2.690000057220459, 2.690000057220459, 0.0)
2024/05/03/13:02:47.303805;127352;1714766567;323799515;;['BL_Position', 'BL_Wheel', 'BR_Position', 'BR_Wheel', 'FL_Position', 'FL_Wheel', 'FR_Position', 'FR_Wheel'];(0.0, 1787.348388671875, -0.004601942375302315, 1895.035400390625, 0.003067961661145091, 1785.22998046875, 0.0, 1899.358154296875);(0.0, 0.0, 0.0, 0.0, 0.0, 0.0, 0.0, 0.0);(0.0, 34.970001220703125, 59.18000030517578, 5.380000114440918, -16.139999389648438, -2.690000057220459, 2.690000057220459, 0.0)
2024/05/03/13:02:47.316504;127353;1714766567;339813866;;['BL_Position', 'BL_Wheel', 'BR_Position', 'BR_Wheel', 'FL_Position', 'FL_Wheel', 'FR_Position', 'FR_Wheel'];(0.0, 1787.348388671875, -0.004601942375302315, 1895.035400390625, 0.003067961661145091, 1785.2315673828125, 0.0, 1899.3597412109375);(0.0, 0.0, 0.0, 0.0, 0.0, 0.0, 0.0, 0.0);(0.0, 34.970001220703125, 64.55999755859375, 5.380000114440918, -16.139999389648438, -2.690000057220459, 2.690000057220459, 0.0)
2024/05/03/13:02:47.332031;127354;1714766567;355748791;;['BL_Position', 'BL_Wheel', 'BR_Position', 'BR_Wheel', 'FL_Position', 'FL_Wheel', 'FR_Position', 'FR_Wheel'];(0.0, 1787.348388671875, -0.004601942375302315, 1895.035400390625, 0.003067961661145091, 1785.22998046875, 0.0, 1899.358154296875);(0.0, 0.0, 0.0, 0.0, 0.0, 0.0, 0.0, 0.0);(0.0, 34.970001220703125, 67.25, 5.380000114440918, -10.760000228881836, -2.690000057220459, 2.690000057220459, 0.0)
2024/05/03/13:02:47.348044;127355;1714766567;371733198;;['BL_Position', 'BL_Wheel', 'BR_Position', 'BR_Wheel', 'FL_Position', 'FL_Wheel', 'FR_Position', 'FR_Wheel'];(0.0, 1787.348388671875, -0.006135923322290182, 1895.035400390625, 0.003067961661145091, 1785.22998046875, 0.0, 1899.358154296875);(0.0, 0.0, 0.0, 0.0, 0.0, 0.0, 0.0, 0.0);(0.0, 34.970001220703125, 69.94000244140625, 5.380000114440918, -18.829999923706055, -2.690000057220459, 2.690000057220459, 0.0)
2024/05/03/13:02:47.366599;127356;1714766567;387759568;;['BL_Position', 'BL_Wheel', 'BR_Position', 'BR_Wheel', 'FL_Position', 'FL_Wheel', 'FR_Position', 'FR_Wheel'];(0.0, 1787.348388671875, -0.004601942375302315, 1895.035400390625, 0.003067961661145091, 1785.22998046875, 0.0, 1899.3597412109375);(0.0, 0.0, 0.0, 0.0, 0.0, 0.0, 0.0, 0.0);(0.0, 34.970001220703125, 56.4900016784668, 5.380000114440918, -16.139999389648438, -2.690000057220459, 2.690000057220459, 0.0)
2024/05/03/13:02:47.380465;127357;1714766567;403859104;;['BL_Position', 'BL_Wheel', 'BR_Position', 'BR_Wheel', 'FL_Position', 'FL_Wheel', 'FR_Position', 'FR_Wheel'];(0.0015339808305725455, 1787.348388671875, -0.006135923322290182, 1895.035400390625, 0.003067961661145091, 1785.22998046875, 0.0, 1899.358154296875);(0.0, 0.0, 0.0, 0.0, 0.0, 0.0, 0.0, 0.0);(0.0, 34.970001220703125, 59.18000030517578, 5.380000114440918, -18.829999923706055, -2.690000057220459, 2.690000057220459, 0.0)
2024/05/03/13:02:47.398917;127358;1714766567;421617455;;['BL_Position', 'BL_Wheel', 'BR_Position', 'BR_Wheel', 'FL_Position', 'FL_Wheel', 'FR_Position', 'FR_Wheel'];(0.0, 1787.348388671875, -0.004601942375302315, 1895.035400390625, 0.003067961661145091, 1785.22998046875, 0.0, 1899.358154296875);(0.0, 0.0, 0.0, 0.0, 0.0, 0.0, 0.0, 0.0);(0.0, 34.970001220703125, 64.55999755859375, 5.380000114440918, -10.760000228881836, -2.690000057220459, 2.690000057220459, 0.0)
2024/05/03/13:02:47.414738;127359;1714766567;435765991;;['BL_Position', 'BL_Wheel', 'BR_Position', 'BR_Wheel', 'FL_Position', 'FL_Wheel', 'FR_Position', 'FR_Wheel'];(0.0015339808305725455, 1787.348388671875, -0.004601942375302315, 1895.035400390625, 0.003067961661145091, 1785.22998046875, 0.0, 1899.358154296875);(0.0, 0.0, 0.0, 0.0, 0.0, 0.0, 0.0, 0.0);(0.0, 34.970001220703125, 64.55999755859375, 5.380000114440918, -10.760000228881836, -2.690000057220459, 2.690000057220459, 0.0)
2024/05/03/13:02:47.428734;127360;1714766567;451699139;;['BL_Position', 'BL_Wheel', 'BR_Position', 'BR_Wheel', 'FL_Position', 'FL_Wheel', 'FR_Position', 'FR_Wheel'];(0.0, 1787.348388671875, -0.004601942375302315, 1895.035400390625, 0.003067961661145091, 1785.22998046875, 0.0, 1899.358154296875);(0.0, 0.0, 0.0, 0.0, 0.0, 0.0, 0.0, 0.0);(0.0, 34.970001220703125, 61.87000274658203, 5.380000114440918, -16.139999389648438, -2.690000057220459, 2.690000057220459, 0.0)
2024/05/03/13:02:47.446687;127361;1714766567;467998934;;['BL_Position', 'BL_Wheel', 'BR_Position', 'BR_Wheel', 'FL_Position', 'FL_Wheel', 'FR_Position', 'FR_Wheel'];(0.0, 1787.348388671875, -0.004601942375302315, 1895.035400390625, 0.003067961661145091, 1785.22998046875, 0.0, 1899.358154296875);(0.0, 0.0, 0.0, 0.0, 0.0, 0.0, 0.0, 0.0);(0.0, 34.970001220703125, 61.87000274658203, 5.380000114440918, -18.829999923706055, -2.690000057220459, 2.690000057220459, 0.0)
2024/05/03/13:02:47.471494;127362;1714766567;483781174;;['BL_Position', 'BL_Wheel', 'BR_Position', 'BR_Wheel', 'FL_Position', 'FL_Wheel', 'FR_Position', 'FR_Wheel'];(0.0, 1787.348388671875, -0.004601942375302315, 1895.035400390625, 0.003067961661145091, 1785.22998046875, 0.0, 1899.358154296875);(0.0, 0.0, 0.0, 0.0, 0.0, 0.0, 0.0, 0.0);(0.0, 34.970001220703125, 64.55999755859375, 5.380000114440918, -13.450000762939453, -2.690000057220459, 2.690000057220459, 0.0)
2024/05/03/13:02:47.478576;127363;1714766567;499774525;;['BL_Position', 'BL_Wheel', 'BR_Position', 'BR_Wheel', 'FL_Position', 'FL_Wheel', 'FR_Position', 'FR_Wheel'];(0.0, 1787.348388671875, -0.004601942375302315, 1895.035400390625, 0.003067961661145091, 1785.22998046875, 0.0, 1899.358154296875);(0.0, 0.0, 0.0, 0.0, 0.0, 0.0, 0.0, 0.0);(0.0, 34.970001220703125, 59.18000030517578, 5.380000114440918, -13.450000762939453, -2.690000057220459, 2.690000057220459, 0.0)
2024/05/03/13:02:47.497998;127364;1714766567;515743636;;['BL_Position', 'BL_Wheel', 'BR_Position', 'BR_Wheel', 'FL_Position', 'FL_Wheel', 'FR_Position', 'FR_Wheel'];(-0.03528155758976936, 1787.3515625, -0.03374757990241051, 1895.0384521484375, 0.03374757990241051, 1785.2330322265625, 0.03221359848976135, 1899.36279296875);(-0.11990412324666977, 0.0, -0.07194247096776962, 0.0, 0.07194247096776962, 0.0, 0.07194247096776962, 0.023980824276804924);(-247.48001098632812, 104.91000366210938, -295.8999938964844, 110.29000091552734, 295.8999938964844, 67.25, 282.45001220703125, 110.29000091552734)
2024/05/03/13:02:47.511142;127365;1714766567;531932191;;['BL_Position', 'BL_Wheel', 'BR_Position', 'BR_Wheel', 'FL_Position', 'FL_Wheel', 'FR_Position', 'FR_Wheel'];(-0.10277671366930008, 1787.3623046875, -0.09664079546928406, 1895.0538330078125, 0.09970875084400177, 1785.245361328125, 0.09664079546928406, 1899.3751220703125);(-0.6954439282417297, 0.07194247096776962, -0.5995206236839294, 0.0959232971072197, 0.5995206236839294, 0.07194247096776962, 0.5995206236839294, 0.0959232971072197);(-99.52999877929688, 123.74000549316406, 53.80000305175781, 115.67000579833984, 147.9499969482422, 72.6300048828125, -69.94000244140625, 134.5)
2024/05/03/13:02:47.524953;127366;1714766567;547717912;;['BL_Position', 'BL_Wheel', 'BR_Position', 'BR_Wheel', 'FL_Position', 'FL_Wheel', 'FR_Position', 'FR_Wheel'];(-0.17180585861206055, 1787.379150390625, -0.1365242898464203, 1895.0799560546875, 0.1702718734741211, 1785.2607421875, 0.14112623035907745, 1899.399658203125);(-1.606715202331543, 0.21582742035388947, -1.318945288658142, 0.31175071001052856, 1.5107918977737427, 0.23980824649333954, 1.4148685932159424, 0.31175071001052856);(209.82000732421875, 131.80999755859375, 104.91000366210938, 112.9800033569336, -102.22000122070312, 69.94000244140625, -158.7100067138672, 112.9800033569336)
2024/05/03/13:02:47.539354;127367;1714766567;563742263;;['BL_Position', 'BL_Wheel', 'BR_Position', 'BR_Wheel', 'FL_Position', 'FL_Wheel', 'FR_Position', 'FR_Wheel'];(-0.21015536785125732, 1787.4051513671875, -0.14726215600967407, 1895.115234375, 0.21015536785125732, 1785.2867431640625, 0.1564660519361496, 1899.4349365234375);(-2.4940056800842285, 0.4796164929866791, -1.822542667388916, 0.6954439282417297, 2.3980824947357178, 0.5035973191261292, 1.9904084205627441, 0.6714630722999573);(188.3000030517578, 118.36000061035156, -10.760000228881836, 110.29000091552734, -118.36000061035156, 56.4900016784668, -37.65999984741211, 88.77000427246094)
2024/05/03/13:02:47.556702;127368;1714766567;579714707;;['BL_Position', 'BL_Wheel', 'BR_Position', 'BR_Wheel', 'FL_Position', 'FL_Wheel', 'FR_Position', 'FR_Wheel'];(-0.2178252786397934, 1787.432861328125, -0.1457281857728958, 1895.15966796875, 0.21935926377773285, 1785.31591796875, 0.1564660519361496, 1899.477783203125);(-2.901679754257202, 0.8393288254737854, -1.9664275646209717, 1.2230219841003418, 2.8537180423736572, 0.8633096814155579, 2.1582741737365723, 1.151079535484314);(48.42000198364258, 110.29000091552734, -40.35000228881836, 99.52999877929688, -8.069999694824219, 45.72999954223633, 0.0, 69.94000244140625)
2024/05/03/13:02:47.573578;127369;1714766567;595710225;;['BL_Position', 'BL_Wheel', 'BR_Position', 'BR_Wheel', 'FL_Position', 'FL_Wheel', 'FR_Position', 'FR_Wheel'];(-0.2178252786397934, 1787.4681396484375, -0.1457281857728958, 1895.207275390625, 0.21935926377773285, 1785.352783203125, 0.15493206679821014, 1899.5269775390625);(-2.565948247909546, 1.2230219841003418, -1.5347727537155151, 1.774580955505371, 2.5899291038513184, 1.2470028400421143, 1.7506002187728882, 1.7266193628311157);(8.069999694824219, 94.1500015258789, -13.450000762939453, 83.38999938964844, 26.900001525878906, 34.970001220703125, 0.0, 51.11000061035156)
2024/05/03/13:02:47.599180;127370;1714766567;611658761;;['BL_Position', 'BL_Wheel', 'BR_Position', 'BR_Wheel', 'FL_Position', 'FL_Wheel', 'FR_Position', 'FR_Wheel'];(-0.21475732326507568, 1787.5079345703125, -0.1457281857728958, 1895.262451171875, 0.2178252786397934, 1785.39111328125, 0.1564660519361496, 1899.5791015625);(-1.774580955505371, 1.5827343463897705, -0.8393288254737854, 2.2781782150268555, 1.822542667388916, 1.6306960582733154, 1.0071946382522583, 2.254197597503662);(2.690000057220459, 88.77000427246094, -8.069999694824219, 78.01000213623047, 13.450000762939453, 29.59000015258789, -2.690000057220459, 34.970001220703125)
2024/05/03/13:02:47.604776;127371;1714766567;627690205;;['BL_Position', 'BL_Wheel', 'BR_Position', 'BR_Wheel', 'FL_Position', 'FL_Wheel', 'FR_Position', 'FR_Wheel'];(-0.21168935298919678, 1787.553955078125, -0.1457281857728958, 1895.32080078125, 0.2178252786397934, 1785.4324951171875, 0.15493206679821014, 1899.6373291015625);(-0.8153480291366577, 1.9184659719467163, -0.33573153614997864, 2.733814001083374, 0.911271333694458, 1.9424467086791992, 0.40767401456832886, 2.7098331451416016);(0.0, 86.08000183105469, -5.380000114440918, 72.6300048828125, 0.0, 26.900001525878906, -5.380000114440918, 21.520000457763672)
2024/05/03/13:02:47.619973;127372;1714766567;643692685;;['BL_Position', 'BL_Wheel', 'BR_Position', 'BR_Wheel', 'FL_Position', 'FL_Wheel', 'FR_Position', 'FR_Wheel'];(-0.21015536785125732, 1787.5938720703125, -0.14419420063495636, 1895.3775634765625, 0.2178252786397934, 1785.4754638671875, 0.15493206679821014, 1899.694091796875);(-0.2877698838710785, 2.1822550296783447, -0.11990412324666977, 3.0695455074310303, 0.3836931884288788, 2.206235885620117, 0.14388494193553925, 3.0695455074310303);(5.380000114440918, 83.38999938964844, 0.0, 67.25, 0.0, 24.21000099182129, -2.690000057220459, 10.760000228881836)
2024/05/03/13:02:47.636349;127373;1714766567;659693462;;['BL_Position', 'BL_Wheel', 'BR_Position', 'BR_Wheel', 'FL_Position', 'FL_Wheel', 'FR_Position', 'FR_Wheel'];(-0.20862139761447906, 1787.639892578125, -0.1457281857728958, 1895.4449462890625, 0.2178252786397934, 1785.5198974609375, 0.1564660519361496, 1899.758544921875);(-0.023980824276804924, 2.3980824947357178, -0.023980824276804924, 3.381296157836914, 0.11990412324666977, 2.3980824947357178, 0.04796164855360985, 3.381296157836914);(0.0, 75.31999969482422, 0.0, 56.4900016784668, 0.0, 21.520000457763672, -8.069999694824219, 0.0)
2024/05/03/13:02:47.652175;127374;1714766567;675659369;;['BL_Position', 'BL_Wheel', 'BR_Position', 'BR_Wheel', 'FL_Position', 'FL_Wheel', 'FR_Position', 'FR_Wheel'];(-0.21015536785125732, 1787.682861328125, -0.14419420063495636, 1895.50634765625, 0.21935926377773285, 1785.564453125, 0.1564660519361496, 1899.8199462890625);(0.04796164855360985, 2.5419673919677734, 0.0, 3.597123622894287, 0.023980824276804924, 2.5419673919677734, 0.0, 3.597123622894287);(0.0, 72.6300048828125, -8.069999694824219, 53.80000305175781, 5.380000114440918, 18.829999923706055, 0.0, 0.0)
2024/05/03/13:02:47.674792;127375;1714766567;691690609;;['BL_Position', 'BL_Wheel', 'BR_Position', 'BR_Wheel', 'FL_Position', 'FL_Wheel', 'FR_Position', 'FR_Wheel'];(-0.21015536785125732, 1787.725830078125, -0.1457281857728958, 1895.57080078125, 0.21935926377773285, 1785.6104736328125, 0.1564660519361496, 1899.8843994140625);(0.04796164855360985, 2.6618714332580566, 0.0, 3.7649893760681152, 0.023980824276804924, 2.637890577316284, 0.0, 3.7410085201263428);(-2.690000057220459, 72.6300048828125, -26.900001525878906, 51.11000061035156, 40.35000228881836, 16.139999389648438, 0.0, -10.760000228881836)
2024/05/03/13:02:47.684263;127376;1714766567;707698479;;['BL_Position', 'BL_Wheel', 'BR_Position', 'BR_Wheel', 'FL_Position', 'FL_Wheel', 'FR_Position', 'FR_Wheel'];(-0.21015536785125732, 1787.770263671875, -0.1457281857728958, 1895.63525390625, 0.2208932340145111, 1785.65185546875, 0.1564660519361496, 1899.94873046875);(0.023980824276804924, 2.7098331451416016, 0.0, 3.860912799835205, 0.023980824276804924, 2.7098331451416016, 0.0, 3.860912799835205);(-5.380000114440918, 67.25, -51.11000061035156, 45.72999954223633, 69.94000244140625, 13.450000762939453, 0.0, -21.520000457763672)
