time;.header.seq;.header.stamp.secs;.header.stamp.nsecs;.header.frame_id;.name;.position;.velocity;.effort
2024/05/03/13:35:30.936692;250081;1714768530;980039186;;['BL_Position', 'BL_Wheel', 'BR_Position', 'BR_Wheel', 'FL_Position', 'FL_Wheel', 'FR_Position', 'FR_Wheel'];(0.7853981852531433, 2746.07568359375, -0.7838642001152039, 2984.603515625, -0.7869321703910828, 2744.532470703125, 0.7838642001152039, 2989.029052734375);(0.0, 0.0, 0.0, 0.0, 0.0, 0.0, 0.0, 0.0);(10.760000228881836, 78.01000213623047, -18.829999923706055, 5.380000114440918, 16.139999389648438, -2.690000057220459, 8.069999694824219, -10.760000228881836)
2024/05/03/13:35:30.946593;250082;1714768530;995957001;;['BL_Position', 'BL_Wheel', 'BR_Position', 'BR_Wheel', 'FL_Position', 'FL_Wheel', 'FR_Position', 'FR_Wheel'];(0.7853981852531433, 2746.07568359375, -0.7853981852531433, 2984.603515625, -0.7884661555290222, 2744.532470703125, 0.7838642001152039, 2989.029052734375);(0.0, 0.0, 0.0, 0.0, 0.0, 0.0, 0.0, 0.0);(10.760000228881836, 78.01000213623047, -18.829999923706055, 5.380000114440918, 13.450000762939453, -2.690000057220459, 8.069999694824219, -10.760000228881836)
2024/05/03/13:35:30.961988;250083;1714768531;11939797;;['BL_Position', 'BL_Wheel', 'BR_Position', 'BR_Wheel', 'FL_Position', 'FL_Wheel', 'FR_Position', 'FR_Wheel'];(0.7838642001152039, 2746.07568359375, -0.7853981852531433, 2984.603515625, -0.7869321703910828, 2744.532470703125, 0.7838642001152039, 2989.029052734375);(0.0, 0.0, 0.0, 0.0, 0.0, 0.0, 0.0, 0.0);(13.450000762939453, 78.01000213623047, -21.520000457763672, 5.380000114440918, 5.380000114440918, -2.690000057220459, 5.380000114440918, -10.760000228881836)
2024/05/03/13:35:30.976482;250084;1714768531;27958352;;['BL_Position', 'BL_Wheel', 'BR_Position', 'BR_Wheel', 'FL_Position', 'FL_Wheel', 'FR_Position', 'FR_Wheel'];(0.7853981852531433, 2746.07568359375, -0.7838642001152039, 2984.603515625, -0.7869321703910828, 2744.532470703125, 0.7838642001152039, 2989.029052734375);(0.0, 0.0, 0.0, 0.0, 0.0, 0.0, 0.0, 0.0);(13.450000762939453, 78.01000213623047, -18.829999923706055, 5.380000114440918, 8.069999694824219, -2.690000057220459, 8.069999694824219, -10.760000228881836)
2024/05/03/13:35:30.993801;250085;1714768531;44008851;;['BL_Position', 'BL_Wheel', 'BR_Position', 'BR_Wheel', 'FL_Position', 'FL_Wheel', 'FR_Position', 'FR_Wheel'];(0.7838642001152039, 2746.07568359375, -0.7838642001152039, 2984.603515625, -0.7869321703910828, 2744.532470703125, 0.7838642001152039, 2989.029052734375);(0.0, 0.0, 0.0, 0.0, 0.0, 0.0, 0.0, 0.0);(10.760000228881836, 78.01000213623047, -18.829999923706055, 5.380000114440918, 13.450000762939453, -2.690000057220459, 8.069999694824219, -10.760000228881836)
2024/05/03/13:35:31.011421;250086;1714768531;60108833;;['BL_Position', 'BL_Wheel', 'BR_Position', 'BR_Wheel', 'FL_Position', 'FL_Wheel', 'FR_Position', 'FR_Wheel'];(0.7838642001152039, 2746.07568359375, -0.7853981852531433, 2984.603515625, -0.7869321703910828, 2744.532470703125, 0.7838642001152039, 2989.029052734375);(0.0, 0.0, 0.0, 0.0, 0.0, 0.0, 0.0, 0.0);(13.450000762939453, 78.01000213623047, -18.829999923706055, 5.380000114440918, 8.069999694824219, -2.690000057220459, 10.760000228881836, -10.760000228881836)
2024/05/03/13:35:31.033525;250087;1714768531;76030888;;['BL_Position', 'BL_Wheel', 'BR_Position', 'BR_Wheel', 'FL_Position', 'FL_Wheel', 'FR_Position', 'FR_Wheel'];(0.7838642001152039, 2746.07568359375, -0.7853981852531433, 2984.603515625, -0.7869321703910828, 2744.532470703125, 0.7838642001152039, 2989.029052734375);(0.0, 0.0, 0.0, 0.0, 0.0, 0.0, 0.0, 0.0);(13.450000762939453, 78.01000213623047, -18.829999923706055, 5.380000114440918, 0.0, -2.690000057220459, 5.380000114440918, -10.760000228881836)
2024/05/03/13:35:31.045211;250088;1714768531;92038850;;['BL_Position', 'BL_Wheel', 'BR_Position', 'BR_Wheel', 'FL_Position', 'FL_Wheel', 'FR_Position', 'FR_Wheel'];(0.7838642001152039, 2746.07568359375, -0.7838642001152039, 2984.603515625, -0.7884661555290222, 2744.532470703125, 0.7853981852531433, 2989.029052734375);(0.0, 0.0, 0.0, 0.0, 0.0, 0.0, 0.0, 0.0);(8.069999694824219, 78.01000213623047, -18.829999923706055, 5.380000114440918, 8.069999694824219, -2.690000057220459, 5.380000114440918, -10.760000228881836)
2024/05/03/13:35:31.056376;250089;1714768531;107933572;;['BL_Position', 'BL_Wheel', 'BR_Position', 'BR_Wheel', 'FL_Position', 'FL_Wheel', 'FR_Position', 'FR_Wheel'];(0.7853981852531433, 2746.07568359375, -0.7838642001152039, 2984.603515625, -0.7869321703910828, 2744.532470703125, 0.7838642001152039, 2989.029052734375);(0.0, 0.0, 0.0, 0.0, 0.0, 0.0, 0.0, 0.0);(13.450000762939453, 78.01000213623047, -18.829999923706055, 5.380000114440918, 10.760000228881836, -2.690000057220459, 8.069999694824219, -10.760000228881836)
2024/05/03/13:35:31.073821;250090;1714768531;123907813;;['BL_Position', 'BL_Wheel', 'BR_Position', 'BR_Wheel', 'FL_Position', 'FL_Wheel', 'FR_Position', 'FR_Wheel'];(0.7853981852531433, 2746.07568359375, -0.7838642001152039, 2984.603515625, -0.7869321703910828, 2744.532470703125, 0.7838642001152039, 2989.029052734375);(0.0, 0.0, 0.0, 0.0, 0.0, 0.0, 0.0, 0.0);(10.760000228881836, 78.01000213623047, -18.829999923706055, 5.380000114440918, 5.380000114440918, -2.690000057220459, 10.760000228881836, -10.760000228881836)
2024/05/03/13:35:31.089731;250091;1714768531;139963479;;['BL_Position', 'BL_Wheel', 'BR_Position', 'BR_Wheel', 'FL_Position', 'FL_Wheel', 'FR_Position', 'FR_Wheel'];(0.7838642001152039, 2746.07568359375, -0.7838642001152039, 2984.603515625, -0.7869321703910828, 2744.532470703125, 0.7853981852531433, 2989.029052734375);(0.0, 0.0, 0.0, 0.0, 0.0, 0.0, 0.0, 0.0);(13.450000762939453, 78.01000213623047, -18.829999923706055, 5.380000114440918, 5.380000114440918, -2.690000057220459, 8.069999694824219, -10.760000228881836)
2024/05/03/13:35:31.107672;250092;1714768531;155947405;;['BL_Position', 'BL_Wheel', 'BR_Position', 'BR_Wheel', 'FL_Position', 'FL_Wheel', 'FR_Position', 'FR_Wheel'];(0.7838642001152039, 2746.07568359375, -0.7838642001152039, 2984.603515625, -0.7884661555290222, 2744.532470703125, 0.7838642001152039, 2989.029052734375);(0.0, 0.0, 0.0, 0.0, 0.0, 0.0, 0.0, 0.0);(13.450000762939453, 78.01000213623047, -18.829999923706055, 5.380000114440918, 5.380000114440918, -2.690000057220459, 10.760000228881836, -10.760000228881836)
2024/05/03/13:35:31.121732;250093;1714768531;171922886;;['BL_Position', 'BL_Wheel', 'BR_Position', 'BR_Wheel', 'FL_Position', 'FL_Wheel', 'FR_Position', 'FR_Wheel'];(0.7838642001152039, 2746.07568359375, -0.7838642001152039, 2984.603515625, -0.7869321703910828, 2744.532470703125, 0.7853981852531433, 2989.029052734375);(0.0, 0.0, 0.0, 0.0, 0.0, 0.0, 0.0, 0.0);(13.450000762939453, 78.01000213623047, -18.829999923706055, 5.380000114440918, 5.380000114440918, -2.690000057220459, 8.069999694824219, -10.760000228881836)
2024/05/03/13:35:31.148037;250094;1714768531;187956534;;['BL_Position', 'BL_Wheel', 'BR_Position', 'BR_Wheel', 'FL_Position', 'FL_Wheel', 'FR_Position', 'FR_Wheel'];(0.7838642001152039, 2746.07568359375, -0.7838642001152039, 2984.603515625, -0.7869321703910828, 2744.532470703125, 0.7838642001152039, 2989.029052734375);(0.0, 0.0, 0.0, 0.0, 0.0, 0.0, 0.0, 0.0);(10.760000228881836, 78.01000213623047, -18.829999923706055, 5.380000114440918, 8.069999694824219, -2.690000057220459, 8.069999694824219, -10.760000228881836)
2024/05/03/13:35:31.156510;250095;1714768531;203902441;;['BL_Position', 'BL_Wheel', 'BR_Position', 'BR_Wheel', 'FL_Position', 'FL_Wheel', 'FR_Position', 'FR_Wheel'];(0.7853981852531433, 2746.07568359375, -0.7838642001152039, 2984.603515625, -0.7869321703910828, 2744.532470703125, 0.7838642001152039, 2989.029052734375);(0.0, 0.0, 0.0, 0.0, 0.0, 0.0, 0.0, 0.0);(13.450000762939453, 78.01000213623047, -18.829999923706055, 5.380000114440918, 16.139999389648438, -2.690000057220459, 10.760000228881836, -10.760000228881836)
2024/05/03/13:35:31.169964;250096;1714768531;219954996;;['BL_Position', 'BL_Wheel', 'BR_Position', 'BR_Wheel', 'FL_Position', 'FL_Wheel', 'FR_Position', 'FR_Wheel'];(0.7838642001152039, 2746.07568359375, -0.7838642001152039, 2984.603515625, -0.7869321703910828, 2744.532470703125, 0.7838642001152039, 2989.029052734375);(0.0, 0.0, 0.0, 0.0, 0.0, 0.0, 0.0, 0.0);(10.760000228881836, 78.01000213623047, -21.520000457763672, 5.380000114440918, 8.069999694824219, -2.690000057220459, 5.380000114440918, -10.760000228881836)
2024/05/03/13:35:31.186251;250097;1714768531;235942181;;['BL_Position', 'BL_Wheel', 'BR_Position', 'BR_Wheel', 'FL_Position', 'FL_Wheel', 'FR_Position', 'FR_Wheel'];(0.7853981852531433, 2746.07568359375, -0.7838642001152039, 2984.603515625, -0.7869321703910828, 2744.532470703125, 0.7838642001152039, 2989.029052734375);(0.0, 0.0, 0.0, 0.0, 0.0, 0.0, 0.0, 0.0);(13.450000762939453, 78.01000213623047, -21.520000457763672, 5.380000114440918, 13.450000762939453, -2.690000057220459, 5.380000114440918, -10.760000228881836)
2024/05/03/13:35:31.201731;250098;1714768531;251944421;;['BL_Position', 'BL_Wheel', 'BR_Position', 'BR_Wheel', 'FL_Position', 'FL_Wheel', 'FR_Position', 'FR_Wheel'];(0.7838642001152039, 2746.07421875, -0.7838642001152039, 2984.603515625, -0.7869321703910828, 2744.532470703125, 0.7853981852531433, 2989.029052734375);(0.0, 0.0, 0.0, 0.0, 0.0, 0.0, 0.0, 0.0);(10.760000228881836, 78.01000213623047, -18.829999923706055, 5.380000114440918, 5.380000114440918, -2.690000057220459, 5.380000114440918, -10.760000228881836)
2024/05/03/13:35:31.218122;250099;1714768531;268007976;;['BL_Position', 'BL_Wheel', 'BR_Position', 'BR_Wheel', 'FL_Position', 'FL_Wheel', 'FR_Position', 'FR_Wheel'];(0.7838642001152039, 2746.07568359375, -0.7838642001152039, 2984.603515625, -0.7869321703910828, 2744.532470703125, 0.7853981852531433, 2989.029052734375);(0.0, 0.0, 0.0, 0.0, 0.0, 0.0, 0.0, 0.0);(13.450000762939453, 78.01000213623047, -16.139999389648438, 5.380000114440918, 2.690000057220459, -2.690000057220459, 5.380000114440918, -10.760000228881836)
2024/05/03/13:35:31.237463;250100;1714768531;284003958;;['BL_Position', 'BL_Wheel', 'BR_Position', 'BR_Wheel', 'FL_Position', 'FL_Wheel', 'FR_Position', 'FR_Wheel'];(0.7838642001152039, 2746.07421875, -0.7838642001152039, 2984.603515625, -0.7884661555290222, 2744.532470703125, 0.7853981852531433, 2989.029052734375);(0.0, 0.0, 0.0, 0.0, 0.0, 0.0, 0.0, 0.0);(13.450000762939453, 78.01000213623047, -18.829999923706055, 5.380000114440918, 10.760000228881836, -2.690000057220459, 10.760000228881836, -10.760000228881836)
2024/05/03/13:35:31.249512;250101;1714768531;299895994;;['BL_Position', 'BL_Wheel', 'BR_Position', 'BR_Wheel', 'FL_Position', 'FL_Wheel', 'FR_Position', 'FR_Wheel'];(0.7838642001152039, 2746.07568359375, -0.7838642001152039, 2984.603515625, -0.7869321703910828, 2744.532470703125, 0.7838642001152039, 2989.029052734375);(0.0, 0.0, 0.0, 0.0, 0.0, 0.0, 0.0, 0.0);(13.450000762939453, 78.01000213623047, -18.829999923706055, 5.380000114440918, 13.450000762939453, -2.690000057220459, 5.380000114440918, -10.760000228881836)
2024/05/03/13:35:31.265838;250102;1714768531;316014975;;['BL_Position', 'BL_Wheel', 'BR_Position', 'BR_Wheel', 'FL_Position', 'FL_Wheel', 'FR_Position', 'FR_Wheel'];(0.7838642001152039, 2746.07568359375, -0.7838642001152039, 2984.603515625, -0.7884661555290222, 2744.532470703125, 0.7838642001152039, 2989.029052734375);(0.0, 0.0, 0.0, 0.0, 0.0, 0.0, 0.0, 0.0);(13.450000762939453, 78.01000213623047, -18.829999923706055, 5.380000114440918, 5.380000114440918, -2.690000057220459, 8.069999694824219, -10.760000228881836)
2024/05/03/13:35:31.281859;250103;1714768531;331938123;;['BL_Position', 'BL_Wheel', 'BR_Position', 'BR_Wheel', 'FL_Position', 'FL_Wheel', 'FR_Position', 'FR_Wheel'];(0.7838642001152039, 2746.07568359375, -0.7838642001152039, 2984.603515625, -0.7884661555290222, 2744.532470703125, 0.7853981852531433, 2989.029052734375);(0.0, 0.0, 0.0, 0.0, 0.0, 0.0, 0.0, 0.0);(10.760000228881836, 78.01000213623047, -18.829999923706055, 5.380000114440918, 8.069999694824219, -2.690000057220459, 8.069999694824219, -10.760000228881836)
2024/05/03/13:35:31.297610;250104;1714768531;347922549;;['BL_Position', 'BL_Wheel', 'BR_Position', 'BR_Wheel', 'FL_Position', 'FL_Wheel', 'FR_Position', 'FR_Wheel'];(0.7853981852531433, 2746.07568359375, -0.7853981852531433, 2984.603515625, -0.7884661555290222, 2744.532470703125, 0.7853981852531433, 2989.029052734375);(0.0, 0.0, 0.0, 0.0, 0.0, 0.0, 0.0, 0.0);(13.450000762939453, 78.01000213623047, -18.829999923706055, 5.380000114440918, 8.069999694824219, -2.690000057220459, 8.069999694824219, -10.760000228881836)
2024/05/03/13:35:31.315619;250105;1714768531;363910511;;['BL_Position', 'BL_Wheel', 'BR_Position', 'BR_Wheel', 'FL_Position', 'FL_Wheel', 'FR_Position', 'FR_Wheel'];(0.7838642001152039, 2746.07568359375, -0.7838642001152039, 2984.605224609375, -0.7869321703910828, 2744.532470703125, 0.7853981852531433, 2989.029052734375);(0.0, 0.0, 0.0, 0.0, 0.0, 0.0, 0.0, 0.0);(13.450000762939453, 78.01000213623047, -18.829999923706055, 5.380000114440918, 5.380000114440918, -2.690000057220459, 10.760000228881836, -10.760000228881836)
2024/05/03/13:35:31.340172;250106;1714768531;379942511;;['BL_Position', 'BL_Wheel', 'BR_Position', 'BR_Wheel', 'FL_Position', 'FL_Wheel', 'FR_Position', 'FR_Wheel'];(0.7838642001152039, 2746.07568359375, -0.7838642001152039, 2984.603515625, -0.7884661555290222, 2744.532470703125, 0.7838642001152039, 2989.029052734375);(0.0, 0.0, 0.0, 0.0, 0.0, 0.0, 0.0, 0.0);(13.450000762939453, 78.01000213623047, -18.829999923706055, 5.380000114440918, 10.760000228881836, -2.690000057220459, 5.380000114440918, -10.760000228881836)
2024/05/03/13:35:31.351438;250107;1714768531;395940029;;['BL_Position', 'BL_Wheel', 'BR_Position', 'BR_Wheel', 'FL_Position', 'FL_Wheel', 'FR_Position', 'FR_Wheel'];(0.7838642001152039, 2746.07568359375, -0.7853981852531433, 2984.603515625, -0.7869321703910828, 2744.532470703125, 0.7838642001152039, 2989.029052734375);(0.0, 0.0, 0.0, 0.0, 0.0, 0.0, 0.0, 0.0);(13.450000762939453, 78.01000213623047, -18.829999923706055, 5.380000114440918, 13.450000762939453, -2.690000057220459, 10.760000228881836, -10.760000228881836)
2024/05/03/13:35:31.361572;250108;1714768531;411957881;;['BL_Position', 'BL_Wheel', 'BR_Position', 'BR_Wheel', 'FL_Position', 'FL_Wheel', 'FR_Position', 'FR_Wheel'];(0.7838642001152039, 2746.07568359375, -0.7853981852531433, 2984.603515625, -0.7869321703910828, 2744.532470703125, 0.7838642001152039, 2989.029052734375);(0.0, 0.0, 0.0, 0.0, 0.0, 0.0, 0.0, 0.0);(13.450000762939453, 78.01000213623047, -18.829999923706055, 5.380000114440918, 5.380000114440918, -2.690000057220459, 10.760000228881836, -10.760000228881836)
2024/05/03/13:35:31.378040;250109;1714768531;428179751;;['BL_Position', 'BL_Wheel', 'BR_Position', 'BR_Wheel', 'FL_Position', 'FL_Wheel', 'FR_Position', 'FR_Wheel'];(0.7838642001152039, 2746.07421875, -0.7838642001152039, 2984.603515625, -0.7869321703910828, 2744.532470703125, 0.7838642001152039, 2989.029052734375);(0.0, 0.0, 0.0, 0.0, 0.0, 0.0, 0.0, 0.0);(13.450000762939453, 78.01000213623047, -21.520000457763672, 5.380000114440918, 8.069999694824219, -2.690000057220459, 8.069999694824219, -10.760000228881836)
2024/05/03/13:35:31.393984;250110;1714768531;443929084;;['BL_Position', 'BL_Wheel', 'BR_Position', 'BR_Wheel', 'FL_Position', 'FL_Wheel', 'FR_Position', 'FR_Wheel'];(0.7838642001152039, 2746.07568359375, -0.7838642001152039, 2984.603515625, -0.7869321703910828, 2744.532470703125, 0.7838642001152039, 2989.029052734375);(0.0, 0.0, 0.0, 0.0, 0.0, 0.0, 0.0, 0.0);(13.450000762939453, 78.01000213623047, -18.829999923706055, 5.380000114440918, 13.450000762939453, -2.690000057220459, 10.760000228881836, -10.760000228881836)
2024/05/03/13:35:31.415290;250111;1714768531;459909972;;['BL_Position', 'BL_Wheel', 'BR_Position', 'BR_Wheel', 'FL_Position', 'FL_Wheel', 'FR_Position', 'FR_Wheel'];(0.7838642001152039, 2746.07568359375, -0.7838642001152039, 2984.603515625, -0.7869321703910828, 2744.532470703125, 0.7838642001152039, 2989.029052734375);(0.0, 0.0, 0.0, 0.0, 0.0, 0.0, 0.0, 0.0);(13.450000762939453, 78.01000213623047, -18.829999923706055, 5.380000114440918, 8.069999694824219, -2.690000057220459, 8.069999694824219, -10.760000228881836)
2024/05/03/13:35:31.425605;250112;1714768531;475905731;;['BL_Position', 'BL_Wheel', 'BR_Position', 'BR_Wheel', 'FL_Position', 'FL_Wheel', 'FR_Position', 'FR_Wheel'];(0.7853981852531433, 2746.07568359375, -0.7838642001152039, 2984.603515625, -0.7869321703910828, 2744.532470703125, 0.7838642001152039, 2989.029052734375);(0.0, 0.0, 0.0, 0.0, 0.0, 0.0, 0.0, 0.0);(13.450000762939453, 78.01000213623047, -21.520000457763672, 5.380000114440918, 5.380000114440918, -2.690000057220459, 8.069999694824219, -10.760000228881836)
2024/05/03/13:35:31.444927;250113;1714768531;491891453;;['BL_Position', 'BL_Wheel', 'BR_Position', 'BR_Wheel', 'FL_Position', 'FL_Wheel', 'FR_Position', 'FR_Wheel'];(0.7838642001152039, 2746.07568359375, -0.7838642001152039, 2984.603515625, -0.7869321703910828, 2744.532470703125, 0.7838642001152039, 2989.029052734375);(0.0, 0.0, 0.0, 0.0, 0.0, 0.0, 0.0, 0.0);(10.760000228881836, 78.01000213623047, -18.829999923706055, 5.380000114440918, 10.760000228881836, -2.690000057220459, 10.760000228881836, -10.760000228881836)
2024/05/03/13:35:31.457932;250114;1714768531;508011545;;['BL_Position', 'BL_Wheel', 'BR_Position', 'BR_Wheel', 'FL_Position', 'FL_Wheel', 'FR_Position', 'FR_Wheel'];(0.7838642001152039, 2746.07568359375, -0.7838642001152039, 2984.603515625, -0.7869321703910828, 2744.532470703125, 0.7853981852531433, 2989.029052734375);(0.0, 0.0, 0.0, 0.0, 0.0, 0.0, 0.0, 0.0);(13.450000762939453, 78.01000213623047, -18.829999923706055, 5.380000114440918, 13.450000762939453, -2.690000057220459, 8.069999694824219, -10.760000228881836)
2024/05/03/13:35:31.474366;250115;1714768531;523879156;;['BL_Position', 'BL_Wheel', 'BR_Position', 'BR_Wheel', 'FL_Position', 'FL_Wheel', 'FR_Position', 'FR_Wheel'];(0.7853981852531433, 2746.07568359375, -0.7838642001152039, 2984.603515625, -0.7884661555290222, 2744.532470703125, 0.7838642001152039, 2989.029052734375);(0.0, 0.0, 0.0, 0.0, 0.0, 0.0, 0.0, 0.0);(13.450000762939453, 78.01000213623047, -18.829999923706055, 5.380000114440918, 16.139999389648438, -2.690000057220459, 10.760000228881836, -10.760000228881836)
2024/05/03/13:35:31.489958;250116;1714768531;539866304;;['BL_Position', 'BL_Wheel', 'BR_Position', 'BR_Wheel', 'FL_Position', 'FL_Wheel', 'FR_Position', 'FR_Wheel'];(0.7838642001152039, 2746.07421875, -0.7838642001152039, 2984.603515625, -0.7869321703910828, 2744.532470703125, 0.7838642001152039, 2989.029052734375);(0.0, 0.0, 0.0, 0.0, 0.0, 0.0, 0.0, 0.0);(13.450000762939453, 78.01000213623047, -18.829999923706055, 5.380000114440918, 2.690000057220459, -2.690000057220459, 8.069999694824219, -10.760000228881836)
2024/05/03/13:35:31.505502;250117;1714768531;555904656;;['BL_Position', 'BL_Wheel', 'BR_Position', 'BR_Wheel', 'FL_Position', 'FL_Wheel', 'FR_Position', 'FR_Wheel'];(0.7853981852531433, 2746.07568359375, -0.7853981852531433, 2984.603515625, -0.7884661555290222, 2744.532470703125, 0.7838642001152039, 2989.029052734375);(0.0, 0.0, 0.0, 0.0, 0.0, 0.0, 0.0, 0.0);(13.450000762939453, 78.01000213623047, -18.829999923706055, 5.380000114440918, 5.380000114440918, -2.690000057220459, 8.069999694824219, -10.760000228881836)
2024/05/03/13:35:31.522536;250118;1714768531;571863174;;['BL_Position', 'BL_Wheel', 'BR_Position', 'BR_Wheel', 'FL_Position', 'FL_Wheel', 'FR_Position', 'FR_Wheel'];(0.7838642001152039, 2746.07568359375, -0.7838642001152039, 2984.603515625, -0.7869321703910828, 2744.532470703125, 0.7853981852531433, 2989.029052734375);(0.0, 0.0, 0.0, 0.0, 0.0, 0.0, 0.0, 0.0);(13.450000762939453, 78.01000213623047, -18.829999923706055, 5.380000114440918, 5.380000114440918, -2.690000057220459, 10.760000228881836, -10.760000228881836)
2024/05/03/13:35:31.545599;250119;1714768531;587870025;;['BL_Position', 'BL_Wheel', 'BR_Position', 'BR_Wheel', 'FL_Position', 'FL_Wheel', 'FR_Position', 'FR_Wheel'];(0.7838642001152039, 2746.07568359375, -0.7838642001152039, 2984.603515625, -0.7884661555290222, 2744.532470703125, 0.7838642001152039, 2989.029052734375);(0.0, 0.0, 0.0, 0.0, 0.0, 0.0, 0.0, 0.0);(13.450000762939453, 78.01000213623047, -18.829999923706055, 5.380000114440918, 8.069999694824219, -2.690000057220459, 8.069999694824219, -10.760000228881836)
2024/05/03/13:35:31.558491;250120;1714768531;603896173;;['BL_Position', 'BL_Wheel', 'BR_Position', 'BR_Wheel', 'FL_Position', 'FL_Wheel', 'FR_Position', 'FR_Wheel'];(0.7838642001152039, 2746.07568359375, -0.7838642001152039, 2984.603515625, -0.7884661555290222, 2744.532470703125, 0.7853981852531433, 2989.029052734375);(0.0, 0.0, 0.0, 0.0, 0.0, 0.0, 0.0, 0.0);(10.760000228881836, 78.01000213623047, -18.829999923706055, 5.380000114440918, 5.380000114440918, -2.690000057220459, 8.069999694824219, -10.760000228881836)
2024/05/03/13:35:31.569602;250121;1714768531;619894895;;['BL_Position', 'BL_Wheel', 'BR_Position', 'BR_Wheel', 'FL_Position', 'FL_Wheel', 'FR_Position', 'FR_Wheel'];(0.7838642001152039, 2746.07568359375, -0.7838642001152039, 2984.603515625, -0.7869321703910828, 2744.531005859375, 0.7853981852531433, 2989.029052734375);(0.0, 0.0, 0.0, 0.0, 0.0, 0.0, 0.0, 0.0);(13.450000762939453, 78.01000213623047, -18.829999923706055, 5.380000114440918, 21.520000457763672, -2.690000057220459, 10.760000228881836, -10.760000228881836)
2024/05/03/13:35:31.586481;250122;1714768531;636516728;;['BL_Position', 'BL_Wheel', 'BR_Position', 'BR_Wheel', 'FL_Position', 'FL_Wheel', 'FR_Position', 'FR_Wheel'];(0.7853981852531433, 2746.07568359375, -0.7838642001152039, 2984.603515625, -0.7869321703910828, 2744.532470703125, 0.7838642001152039, 2989.029052734375);(0.0, 0.0, 0.0, 0.0, 0.0, 0.0, 0.0, 0.0);(13.450000762939453, 78.01000213623047, -18.829999923706055, 5.380000114440918, 2.690000057220459, -2.690000057220459, 5.380000114440918, -10.760000228881836)
2024/05/03/13:35:31.603640;250123;1714768531;653457524;;['BL_Position', 'BL_Wheel', 'BR_Position', 'BR_Wheel', 'FL_Position', 'FL_Wheel', 'FR_Position', 'FR_Wheel'];(0.7853981852531433, 2746.07568359375, -0.7838642001152039, 2984.603515625, -0.7869321703910828, 2744.532470703125, 0.7838642001152039, 2989.029052734375);(0.0, 0.0, 0.0, 0.0, 0.0, 0.0, 0.0, 0.0);(13.450000762939453, 78.01000213623047, -18.829999923706055, 5.380000114440918, 5.380000114440918, -2.690000057220459, 10.760000228881836, -10.760000228881836)
2024/05/03/13:35:31.619463;250124;1714768531;667937968;;['BL_Position', 'BL_Wheel', 'BR_Position', 'BR_Wheel', 'FL_Position', 'FL_Wheel', 'FR_Position', 'FR_Wheel'];(0.7838642001152039, 2746.07568359375, -0.7838642001152039, 2984.603515625, -0.7884661555290222, 2744.532470703125, 0.7853981852531433, 2989.029052734375);(0.0, 0.0, 0.0, 0.0, 0.0, 0.0, 0.0, 0.0);(13.450000762939453, 78.01000213623047, -21.520000457763672, 5.380000114440918, 5.380000114440918, -2.690000057220459, 8.069999694824219, -10.760000228881836)
2024/05/03/13:35:31.634353;250125;1714768531;683939283;;['BL_Position', 'BL_Wheel', 'BR_Position', 'BR_Wheel', 'FL_Position', 'FL_Wheel', 'FR_Position', 'FR_Wheel'];(0.7838642001152039, 2746.07568359375, -0.7838642001152039, 2984.603515625, -0.7884661555290222, 2744.532470703125, 0.7838642001152039, 2989.029052734375);(0.0, 0.0, 0.0, 0.0, 0.0, 0.0, 0.0, 0.0);(13.450000762939453, 78.01000213623047, -18.829999923706055, 5.380000114440918, 5.380000114440918, -2.690000057220459, 8.069999694824219, -10.760000228881836)
2024/05/03/13:35:31.650031;250126;1714768531;699904856;;['BL_Position', 'BL_Wheel', 'BR_Position', 'BR_Wheel', 'FL_Position', 'FL_Wheel', 'FR_Position', 'FR_Wheel'];(0.7838642001152039, 2746.07568359375, -0.7838642001152039, 2984.603515625, -0.7884661555290222, 2744.532470703125, 0.7838642001152039, 2989.029052734375);(0.0, 0.0, 0.0, 0.0, 0.0, 0.0, 0.0, 0.0);(13.450000762939453, 78.01000213623047, -18.829999923706055, 5.380000114440918, 5.380000114440918, -2.690000057220459, 5.380000114440918, -10.760000228881836)
2024/05/03/13:35:31.666286;250127;1714768531;715950967;;['BL_Position', 'BL_Wheel', 'BR_Position', 'BR_Wheel', 'FL_Position', 'FL_Wheel', 'FR_Position', 'FR_Wheel'];(0.7838642001152039, 2746.07568359375, -0.7838642001152039, 2984.603515625, -0.7869321703910828, 2744.532470703125, 0.7838642001152039, 2989.029052734375);(0.0, 0.0, 0.0, 0.0, 0.0, 0.0, 0.0, 0.0);(10.760000228881836, 78.01000213623047, -21.520000457763672, 5.380000114440918, 5.380000114440918, -2.690000057220459, 10.760000228881836, -10.760000228881836)
2024/05/03/13:35:31.682032;250128;1714768531;731919893;;['BL_Position', 'BL_Wheel', 'BR_Position', 'BR_Wheel', 'FL_Position', 'FL_Wheel', 'FR_Position', 'FR_Wheel'];(0.7838642001152039, 2746.07568359375, -0.7853981852531433, 2984.603515625, -0.7869321703910828, 2744.532470703125, 0.7838642001152039, 2989.029052734375);(0.0, 0.0, 0.0, 0.0, 0.0, 0.0, 0.0, 0.0);(13.450000762939453, 78.01000213623047, -21.520000457763672, 5.380000114440918, 10.760000228881836, -2.690000057220459, 5.380000114440918, -10.760000228881836)
2024/05/03/13:35:31.698048;250129;1714768531;748006800;;['BL_Position', 'BL_Wheel', 'BR_Position', 'BR_Wheel', 'FL_Position', 'FL_Wheel', 'FR_Position', 'FR_Wheel'];(0.7838642001152039, 2746.07568359375, -0.7838642001152039, 2984.603515625, -0.7884661555290222, 2744.532470703125, 0.7838642001152039, 2989.029052734375);(0.0, 0.0, 0.0, 0.0, 0.0, 0.0, 0.0, 0.0);(10.760000228881836, 78.01000213623047, -18.829999923706055, 5.380000114440918, 5.380000114440918, -2.690000057220459, 8.069999694824219, -10.760000228881836)
2024/05/03/13:35:31.728171;250130;1714768531;763987318;;['BL_Position', 'BL_Wheel', 'BR_Position', 'BR_Wheel', 'FL_Position', 'FL_Wheel', 'FR_Position', 'FR_Wheel'];(0.7838642001152039, 2746.07568359375, -0.7838642001152039, 2984.603515625, -0.7869321703910828, 2744.532470703125, 0.7838642001152039, 2989.029052734375);(0.0, 0.0, 0.0, 0.0, 0.0, 0.0, 0.0, 0.0);(10.760000228881836, 78.01000213623047, -18.829999923706055, 5.380000114440918, 13.450000762939453, -2.690000057220459, 8.069999694824219, -10.760000228881836)
2024/05/03/13:35:31.733211;250131;1714768531;779876595;;['BL_Position', 'BL_Wheel', 'BR_Position', 'BR_Wheel', 'FL_Position', 'FL_Wheel', 'FR_Position', 'FR_Wheel'];(0.7853981852531433, 2746.07568359375, -0.7838642001152039, 2984.603515625, -0.7869321703910828, 2744.532470703125, 0.7838642001152039, 2989.029052734375);(0.0, 0.0, 0.0, 0.0, 0.0, 0.0, 0.0, 0.0);(10.760000228881836, 78.01000213623047, -18.829999923706055, 5.380000114440918, 8.069999694824219, -2.690000057220459, 8.069999694824219, -10.760000228881836)
2024/05/03/13:35:31.749629;250132;1714768531;795930391;;['BL_Position', 'BL_Wheel', 'BR_Position', 'BR_Wheel', 'FL_Position', 'FL_Wheel', 'FR_Position', 'FR_Wheel'];(0.7838642001152039, 2746.07568359375, -0.7853981852531433, 2984.603515625, -0.7869321703910828, 2744.532470703125, 0.7853981852531433, 2989.029052734375);(0.0, 0.0, 0.0, 0.0, 0.0, 0.0, 0.0, 0.0);(10.760000228881836, 78.01000213623047, -18.829999923706055, 5.380000114440918, 8.069999694824219, -2.690000057220459, 8.069999694824219, -10.760000228881836)
2024/05/03/13:35:31.761123;250133;1714768531;811911539;;['BL_Position', 'BL_Wheel', 'BR_Position', 'BR_Wheel', 'FL_Position', 'FL_Wheel', 'FR_Position', 'FR_Wheel'];(0.7838642001152039, 2746.07568359375, -0.7838642001152039, 2984.603515625, -0.7884661555290222, 2744.532470703125, 0.7838642001152039, 2989.029052734375);(0.0, 0.0, 0.0, 0.0, 0.0, 0.0, 0.0, 0.0);(13.450000762939453, 78.01000213623047, -18.829999923706055, 5.380000114440918, 10.760000228881836, -2.690000057220459, 8.069999694824219, -10.760000228881836)
2024/05/03/13:35:31.777883;250134;1714768531;827897187;;['BL_Position', 'BL_Wheel', 'BR_Position', 'BR_Wheel', 'FL_Position', 'FL_Wheel', 'FR_Position', 'FR_Wheel'];(0.7853981852531433, 2746.07568359375, -0.7838642001152039, 2984.603515625, -0.7869321703910828, 2744.532470703125, 0.7853981852531433, 2989.029052734375);(0.0, 0.0, 0.0, 0.0, 0.0, 0.0, 0.0, 0.0);(13.450000762939453, 78.01000213623047, -18.829999923706055, 5.380000114440918, 18.829999923706055, -2.690000057220459, 10.760000228881836, -10.760000228881836)
2024/05/03/13:35:31.793822;250135;1714768531;843939520;;['BL_Position', 'BL_Wheel', 'BR_Position', 'BR_Wheel', 'FL_Position', 'FL_Wheel', 'FR_Position', 'FR_Wheel'];(0.7838642001152039, 2746.07568359375, -0.7838642001152039, 2984.603515625, -0.7884661555290222, 2744.532470703125, 0.7838642001152039, 2989.029052734375);(0.0, 0.0, 0.0, 0.0, 0.0, 0.0, 0.0, 0.0);(10.760000228881836, 78.01000213623047, -18.829999923706055, 5.380000114440918, 16.139999389648438, -2.690000057220459, 10.760000228881836, -10.760000228881836)
2024/05/03/13:35:31.809656;250136;1714768531;860050112;;['BL_Position', 'BL_Wheel', 'BR_Position', 'BR_Wheel', 'FL_Position', 'FL_Wheel', 'FR_Position', 'FR_Wheel'];(0.7853981852531433, 2746.07568359375, -0.7853981852531433, 2984.603515625, -0.7869321703910828, 2744.532470703125, 0.7853981852531433, 2989.029052734375);(0.0, 0.0, 0.0, 0.0, 0.0, 0.0, 0.0, 0.0);(13.450000762939453, 78.01000213623047, -18.829999923706055, 5.380000114440918, 13.450000762939453, -2.690000057220459, 10.760000228881836, -10.760000228881836)
2024/05/03/13:35:31.827694;250137;1714768531;876179186;;['BL_Position', 'BL_Wheel', 'BR_Position', 'BR_Wheel', 'FL_Position', 'FL_Wheel', 'FR_Position', 'FR_Wheel'];(0.7838642001152039, 2746.07568359375, -0.7838642001152039, 2984.603515625, -0.7884661555290222, 2744.532470703125, 0.7853981852531433, 2989.029052734375);(0.0, 0.0, 0.0, 0.0, 0.0, 0.0, 0.0, 0.0);(13.450000762939453, 78.01000213623047, -18.829999923706055, 5.380000114440918, 13.450000762939453, -2.690000057220459, 8.069999694824219, -10.760000228881836)
2024/05/03/13:35:31.851985;250138;1714768531;892028649;;['BL_Position', 'BL_Wheel', 'BR_Position', 'BR_Wheel', 'FL_Position', 'FL_Wheel', 'FR_Position', 'FR_Wheel'];(0.7838642001152039, 2746.07568359375, -0.7838642001152039, 2984.603515625, -0.7884661555290222, 2744.532470703125, 0.7838642001152039, 2989.029052734375);(0.0, 0.0, 0.0, 0.0, 0.0, 0.0, 0.0, 0.0);(13.450000762939453, 78.01000213623047, -21.520000457763672, 5.380000114440918, 5.380000114440918, -2.690000057220459, 8.069999694824219, -10.760000228881836)
2024/05/03/13:35:31.865865;250139;1714768531;907965482;;['BL_Position', 'BL_Wheel', 'BR_Position', 'BR_Wheel', 'FL_Position', 'FL_Wheel', 'FR_Position', 'FR_Wheel'];(0.7838642001152039, 2746.07421875, -0.7838642001152039, 2984.603515625, -0.7884661555290222, 2744.532470703125, 0.7838642001152039, 2989.03076171875);(0.0, 0.0, 0.0, 0.0, 0.0, 0.0, 0.0, 0.0);(13.450000762939453, 78.01000213623047, -21.520000457763672, 5.380000114440918, 13.450000762939453, -2.690000057220459, 5.380000114440918, -10.760000228881836)
2024/05/03/13:35:31.874799;250140;1714768531;924218444;;['BL_Position', 'BL_Wheel', 'BR_Position', 'BR_Wheel', 'FL_Position', 'FL_Wheel', 'FR_Position', 'FR_Wheel'];(0.7838642001152039, 2746.07568359375, -0.7838642001152039, 2984.603515625, -0.7884661555290222, 2744.532470703125, 0.7838642001152039, 2989.029052734375);(0.0, 0.0, 0.0, 0.0, 0.0, 0.0, 0.0, 0.0);(13.450000762939453, 78.01000213623047, -21.520000457763672, 5.380000114440918, 2.690000057220459, -2.690000057220459, 10.760000228881836, -10.760000228881836)
2024/05/03/13:35:31.889848;250141;1714768531;939908592;;['BL_Position', 'BL_Wheel', 'BR_Position', 'BR_Wheel', 'FL_Position', 'FL_Wheel', 'FR_Position', 'FR_Wheel'];(0.7838642001152039, 2746.07568359375, -0.7838642001152039, 2984.603515625, -0.7869321703910828, 2744.532470703125, 0.7853981852531433, 2989.029052734375);(0.0, 0.0, 0.0, 0.0, 0.0, 0.0, 0.0, 0.0);(13.450000762939453, 78.01000213623047, -18.829999923706055, 5.380000114440918, 2.690000057220459, -2.690000057220459, 8.069999694824219, -10.760000228881836)
2024/05/03/13:35:31.906040;250142;1714768531;955958666;;['BL_Position', 'BL_Wheel', 'BR_Position', 'BR_Wheel', 'FL_Position', 'FL_Wheel', 'FR_Position', 'FR_Wheel'];(0.7838642001152039, 2746.07568359375, -0.7838642001152039, 2984.603515625, -0.7869321703910828, 2744.532470703125, 0.7838642001152039, 2989.029052734375);(0.0, 0.0, 0.0, 0.0, 0.0, 0.0, 0.0, 0.0);(13.450000762939453, 78.01000213623047, -18.829999923706055, 5.380000114440918, 5.380000114440918, -2.690000057220459, 8.069999694824219, -10.760000228881836)
2024/05/03/13:35:31.924585;250143;1714768531;971892906;;['BL_Position', 'BL_Wheel', 'BR_Position', 'BR_Wheel', 'FL_Position', 'FL_Wheel', 'FR_Position', 'FR_Wheel'];(0.7838642001152039, 2746.07421875, -0.7838642001152039, 2984.603515625, -0.7869321703910828, 2744.532470703125, 0.7853981852531433, 2989.029052734375);(0.0, 0.0, 0.0, 0.0, 0.0, 0.0, 0.0, 0.0);(10.760000228881836, 78.01000213623047, -18.829999923706055, 5.380000114440918, 5.380000114440918, -2.690000057220459, 8.069999694824219, -10.760000228881836)
2024/05/03/13:35:31.937924;250144;1714768531;987952184;;['BL_Position', 'BL_Wheel', 'BR_Position', 'BR_Wheel', 'FL_Position', 'FL_Wheel', 'FR_Position', 'FR_Wheel'];(0.7853981852531433, 2746.07568359375, -0.7853981852531433, 2984.603515625, -0.7884661555290222, 2744.532470703125, 0.7853981852531433, 2989.029052734375);(0.0, 0.0, 0.0, 0.0, 0.0, 0.0, 0.0, 0.0);(10.760000228881836, 78.01000213623047, -18.829999923706055, 5.380000114440918, 5.380000114440918, -2.690000057220459, 5.380000114440918, -10.760000228881836)
2024/05/03/13:35:31.956665;250145;1714768532;3917887;;['BL_Position', 'BL_Wheel', 'BR_Position', 'BR_Wheel', 'FL_Position', 'FL_Wheel', 'FR_Position', 'FR_Wheel'];(0.7853981852531433, 2746.07568359375, -0.7838642001152039, 2984.603515625, -0.7869321703910828, 2744.532470703125, 0.7853981852531433, 2989.029052734375);(0.0, 0.0, 0.0, 0.0, 0.0, 0.0, 0.0, 0.0);(10.760000228881836, 78.01000213623047, -21.520000457763672, 5.380000114440918, 5.380000114440918, -2.690000057220459, 8.069999694824219, -10.760000228881836)
2024/05/03/13:35:31.970201;250146;1714768532;19936627;;['BL_Position', 'BL_Wheel', 'BR_Position', 'BR_Wheel', 'FL_Position', 'FL_Wheel', 'FR_Position', 'FR_Wheel'];(0.7838642001152039, 2746.07568359375, -0.7838642001152039, 2984.603515625, -0.7884661555290222, 2744.532470703125, 0.7838642001152039, 2989.029052734375);(0.0, 0.0, 0.0, 0.0, 0.0, 0.0, 0.0, 0.0);(13.450000762939453, 78.01000213623047, -18.829999923706055, 5.380000114440918, 2.690000057220459, -2.690000057220459, 8.069999694824219, -10.760000228881836)
2024/05/03/13:35:31.989143;250147;1714768532;35936386;;['BL_Position', 'BL_Wheel', 'BR_Position', 'BR_Wheel', 'FL_Position', 'FL_Wheel', 'FR_Position', 'FR_Wheel'];(0.7838642001152039, 2746.07568359375, -0.7838642001152039, 2984.603515625, -0.7884661555290222, 2744.532470703125, 0.7853981852531433, 2989.029052734375);(0.0, 0.0, 0.0, 0.0, 0.0, 0.0, 0.0, 0.0);(13.450000762939453, 78.01000213623047, -18.829999923706055, 5.380000114440918, 8.069999694824219, -2.690000057220459, 8.069999694824219, -10.760000228881836)
2024/05/03/13:35:32.001942;250148;1714768532;51929608;;['BL_Position', 'BL_Wheel', 'BR_Position', 'BR_Wheel', 'FL_Position', 'FL_Wheel', 'FR_Position', 'FR_Wheel'];(0.7838642001152039, 2746.07568359375, -0.7838642001152039, 2984.603515625, -0.7869321703910828, 2744.532470703125, 0.7838642001152039, 2989.029052734375);(0.0, 0.0, 0.0, 0.0, 0.0, 0.0, 0.0, 0.0);(13.450000762939453, 78.01000213623047, -18.829999923706055, 5.380000114440918, 16.139999389648438, -2.690000057220459, 8.069999694824219, -10.760000228881836)
2024/05/03/13:35:32.017786;250149;1714768532;67934275;;['BL_Position', 'BL_Wheel', 'BR_Position', 'BR_Wheel', 'FL_Position', 'FL_Wheel', 'FR_Position', 'FR_Wheel'];(0.7838642001152039, 2746.07421875, -0.7838642001152039, 2984.603515625, -0.7869321703910828, 2744.532470703125, 0.7853981852531433, 2989.029052734375);(0.0, 0.0, 0.0, 0.0, 0.0, 0.0, 0.0, 0.0);(13.450000762939453, 78.01000213623047, -18.829999923706055, 5.380000114440918, 5.380000114440918, -2.690000057220459, 10.760000228881836, -10.760000228881836)
2024/05/03/13:35:32.035327;250150;1714768532;84211367;;['BL_Position', 'BL_Wheel', 'BR_Position', 'BR_Wheel', 'FL_Position', 'FL_Wheel', 'FR_Position', 'FR_Wheel'];(0.7838642001152039, 2746.07568359375, -0.7838642001152039, 2984.603515625, -0.7869321703910828, 2744.532470703125, 0.7838642001152039, 2989.029052734375);(0.0, 0.0, 0.0, 0.0, 0.0, 0.0, 0.0, 0.0);(10.760000228881836, 78.01000213623047, -18.829999923706055, 5.380000114440918, 10.760000228881836, -2.690000057220459, 10.760000228881836, -10.760000228881836)
2024/05/03/13:35:32.057239;250151;1714768532;99910292;;['BL_Position', 'BL_Wheel', 'BR_Position', 'BR_Wheel', 'FL_Position', 'FL_Wheel', 'FR_Position', 'FR_Wheel'];(0.7838642001152039, 2746.07568359375, -0.7838642001152039, 2984.603515625, -0.7884661555290222, 2744.532470703125, 0.7838642001152039, 2989.029052734375);(0.0, 0.0, 0.0, 0.0, 0.0, 0.0, 0.0, 0.0);(10.760000228881836, 78.01000213623047, -21.520000457763672, 5.380000114440918, 5.380000114440918, -2.690000057220459, 8.069999694824219, -10.760000228881836)
2024/05/03/13:35:32.068927;250152;1714768532;115863051;;['BL_Position', 'BL_Wheel', 'BR_Position', 'BR_Wheel', 'FL_Position', 'FL_Wheel', 'FR_Position', 'FR_Wheel'];(0.7838642001152039, 2746.07568359375, -0.7838642001152039, 2984.605224609375, -0.7869321703910828, 2744.532470703125, 0.7853981852531433, 2989.029052734375);(0.0, 0.0, 0.0, 0.0, 0.0, 0.0, 0.0, 0.0);(13.450000762939453, 78.01000213623047, -18.829999923706055, 5.380000114440918, 16.139999389648438, -2.690000057220459, 5.380000114440918, -10.760000228881836)
2024/05/03/13:35:32.081903;250153;1714768532;131908070;;['BL_Position', 'BL_Wheel', 'BR_Position', 'BR_Wheel', 'FL_Position', 'FL_Wheel', 'FR_Position', 'FR_Wheel'];(0.7838642001152039, 2746.07568359375, -0.7838642001152039, 2984.603515625, -0.7869321703910828, 2744.532470703125, 0.7853981852531433, 2989.029052734375);(0.0, 0.0, 0.0, 0.0, 0.0, 0.0, 0.0, 0.0);(10.760000228881836, 78.01000213623047, -18.829999923706055, 5.380000114440918, 5.380000114440918, -2.690000057220459, 10.760000228881836, -10.760000228881836)
2024/05/03/13:35:32.097915;250154;1714768532;147901773;;['BL_Position', 'BL_Wheel', 'BR_Position', 'BR_Wheel', 'FL_Position', 'FL_Wheel', 'FR_Position', 'FR_Wheel'];(0.7838642001152039, 2746.07568359375, -0.7838642001152039, 2984.603515625, -0.7869321703910828, 2744.532470703125, 0.7838642001152039, 2989.029052734375);(0.0, 0.0, 0.0, 0.0, 0.0, 0.0, 0.0, 0.0);(13.450000762939453, 78.01000213623047, -18.829999923706055, 5.380000114440918, 5.380000114440918, -2.690000057220459, 8.069999694824219, -10.760000228881836)
2024/05/03/13:35:32.113734;250155;1714768532;163913069;;['BL_Position', 'BL_Wheel', 'BR_Position', 'BR_Wheel', 'FL_Position', 'FL_Wheel', 'FR_Position', 'FR_Wheel'];(0.7853981852531433, 2746.07568359375, -0.7838642001152039, 2984.603515625, -0.7869321703910828, 2744.532470703125, 0.7838642001152039, 2989.029052734375);(0.0, 0.0, 0.0, 0.0, 0.0, 0.0, 0.0, 0.0);(13.450000762939453, 78.01000213623047, -18.829999923706055, 5.380000114440918, 5.380000114440918, -2.690000057220459, 10.760000228881836, -10.760000228881836)
2024/05/03/13:35:32.132818;250156;1714768532;179861976;;['BL_Position', 'BL_Wheel', 'BR_Position', 'BR_Wheel', 'FL_Position', 'FL_Wheel', 'FR_Position', 'FR_Wheel'];(0.7853981852531433, 2746.07568359375, -0.7838642001152039, 2984.603515625, -0.7869321703910828, 2744.532470703125, 0.7853981852531433, 2989.03076171875);(0.0, 0.0, 0.0, 0.0, 0.0, 0.0, 0.0, 0.0);(13.450000762939453, 78.01000213623047, -18.829999923706055, 5.380000114440918, 8.069999694824219, -2.690000057220459, 5.380000114440918, -10.760000228881836)
2024/05/03/13:35:32.145614;250157;1714768532;195861031;;['BL_Position', 'BL_Wheel', 'BR_Position', 'BR_Wheel', 'FL_Position', 'FL_Wheel', 'FR_Position', 'FR_Wheel'];(0.7838642001152039, 2746.07568359375, -0.7838642001152039, 2984.603515625, -0.7884661555290222, 2744.532470703125, 0.7838642001152039, 2989.029052734375);(0.0, 0.0, 0.0, 0.0, 0.0, 0.0, 0.0, 0.0);(13.450000762939453, 78.01000213623047, -18.829999923706055, 5.380000114440918, 2.690000057220459, -2.690000057220459, 8.069999694824219, -10.760000228881836)
2024/05/03/13:35:32.162147;250158;1714768532;211879290;;['BL_Position', 'BL_Wheel', 'BR_Position', 'BR_Wheel', 'FL_Position', 'FL_Wheel', 'FR_Position', 'FR_Wheel'];(0.7838642001152039, 2746.07568359375, -0.7838642001152039, 2984.605224609375, -0.7884661555290222, 2744.532470703125, 0.7853981852531433, 2989.029052734375);(0.0, 0.0, 0.0, 0.0, 0.0, 0.0, 0.0, 0.0);(13.450000762939453, 78.01000213623047, -21.520000457763672, 5.380000114440918, 16.139999389648438, -2.690000057220459, 10.760000228881836, -10.760000228881836)
2024/05/03/13:35:32.178893;250159;1714768532;227910827;;['BL_Position', 'BL_Wheel', 'BR_Position', 'BR_Wheel', 'FL_Position', 'FL_Wheel', 'FR_Position', 'FR_Wheel'];(0.7838642001152039, 2746.07568359375, -0.7838642001152039, 2984.605224609375, -0.7869321703910828, 2744.532470703125, 0.7838642001152039, 2989.029052734375);(0.0, 0.0, 0.0, 0.0, 0.0, 0.0, 0.0, 0.0);(13.450000762939453, 78.01000213623047, -21.520000457763672, 5.380000114440918, 5.380000114440918, -2.690000057220459, 8.069999694824219, -10.760000228881836)
2024/05/03/13:35:32.193715;250160;1714768532;243909845;;['BL_Position', 'BL_Wheel', 'BR_Position', 'BR_Wheel', 'FL_Position', 'FL_Wheel', 'FR_Position', 'FR_Wheel'];(0.7853981852531433, 2746.07568359375, -0.7838642001152039, 2984.603515625, -0.7869321703910828, 2744.532470703125, 0.7838642001152039, 2989.029052734375);(0.0, 0.0, 0.0, 0.0, 0.0, 0.0, 0.0, 0.0);(10.760000228881836, 78.01000213623047, -18.829999923706055, 5.380000114440918, 13.450000762939453, -2.690000057220459, 8.069999694824219, -10.760000228881836)
2024/05/03/13:35:32.211357;250161;1714768532;261376382;;['BL_Position', 'BL_Wheel', 'BR_Position', 'BR_Wheel', 'FL_Position', 'FL_Wheel', 'FR_Position', 'FR_Wheel'];(0.7838642001152039, 2746.07568359375, -0.7838642001152039, 2984.603515625, -0.7869321703910828, 2744.532470703125, 0.7838642001152039, 2989.029052734375);(0.0, 0.0, 0.0, 0.0, 0.0, 0.0, 0.0, 0.0);(13.450000762939453, 78.01000213623047, -18.829999923706055, 5.380000114440918, 8.069999694824219, -2.690000057220459, 5.380000114440918, -10.760000228881836)
2024/05/03/13:35:32.224597;250162;1714768532;275884696;;['BL_Position', 'BL_Wheel', 'BR_Position', 'BR_Wheel', 'FL_Position', 'FL_Wheel', 'FR_Position', 'FR_Wheel'];(0.7838642001152039, 2746.07568359375, -0.7838642001152039, 2984.603515625, -0.7869321703910828, 2744.532470703125, 0.7838642001152039, 2989.029052734375);(0.0, 0.0, 0.0, 0.0, 0.0, 0.0, 0.0, 0.0);(13.450000762939453, 78.01000213623047, -18.829999923706055, 5.380000114440918, 5.380000114440918, -2.690000057220459, 8.069999694824219, -10.760000228881836)
2024/05/03/13:35:32.243649;250163;1714768532;291900548;;['BL_Position', 'BL_Wheel', 'BR_Position', 'BR_Wheel', 'FL_Position', 'FL_Wheel', 'FR_Position', 'FR_Wheel'];(0.7838642001152039, 2746.07568359375, -0.7838642001152039, 2984.603515625, -0.7884661555290222, 2744.532470703125, 0.7838642001152039, 2989.029052734375);(0.0, 0.0, 0.0, 0.0, 0.0, 0.0, 0.0, 0.0);(13.450000762939453, 78.01000213623047, -18.829999923706055, 5.380000114440918, 8.069999694824219, -2.690000057220459, 8.069999694824219, -10.760000228881836)
2024/05/03/13:35:32.263969;250164;1714768532;307934251;;['BL_Position', 'BL_Wheel', 'BR_Position', 'BR_Wheel', 'FL_Position', 'FL_Wheel', 'FR_Position', 'FR_Wheel'];(0.7838642001152039, 2746.07568359375, -0.7838642001152039, 2984.603515625, -0.7869321703910828, 2744.532470703125, 0.7838642001152039, 2989.029052734375);(0.0, 0.0, 0.0, 0.0, 0.0, 0.0, 0.0, 0.0);(10.760000228881836, 78.01000213623047, -18.829999923706055, 5.380000114440918, 5.380000114440918, -2.690000057220459, 10.760000228881836, -10.760000228881836)
2024/05/03/13:35:32.276979;250165;1714768532;323840214;;['BL_Position', 'BL_Wheel', 'BR_Position', 'BR_Wheel', 'FL_Position', 'FL_Wheel', 'FR_Position', 'FR_Wheel'];(0.7853981852531433, 2746.07568359375, -0.7838642001152039, 2984.603515625, -0.7884661555290222, 2744.532470703125, 0.7853981852531433, 2989.029052734375);(0.0, 0.0, 0.0, 0.0, 0.0, 0.0, 0.0, 0.0);(10.760000228881836, 78.01000213623047, -21.520000457763672, 5.380000114440918, 18.829999923706055, -2.690000057220459, 10.760000228881836, -10.760000228881836)
2024/05/03/13:35:32.291122;250166;1714768532;339887621;;['BL_Position', 'BL_Wheel', 'BR_Position', 'BR_Wheel', 'FL_Position', 'FL_Wheel', 'FR_Position', 'FR_Wheel'];(0.7838642001152039, 2746.07568359375, -0.7838642001152039, 2984.603515625, -0.7869321703910828, 2744.532470703125, 0.7838642001152039, 2989.029052734375);(0.0, 0.0, 0.0, 0.0, 0.0, 0.0, 0.0, 0.0);(10.760000228881836, 78.01000213623047, -18.829999923706055, 5.380000114440918, 2.690000057220459, -2.690000057220459, 8.069999694824219, -10.760000228881836)
2024/05/03/13:35:32.305553;250167;1714768532;355834787;;['BL_Position', 'BL_Wheel', 'BR_Position', 'BR_Wheel', 'FL_Position', 'FL_Wheel', 'FR_Position', 'FR_Wheel'];(0.7838642001152039, 2746.07568359375, -0.7838642001152039, 2984.603515625, -0.7884661555290222, 2744.532470703125, 0.7853981852531433, 2989.029052734375);(0.0, 0.0, 0.0, 0.0, 0.0, 0.0, 0.0, 0.0);(13.450000762939453, 78.01000213623047, -16.139999389648438, 5.380000114440918, 13.450000762939453, -2.690000057220459, 8.069999694824219, -10.760000228881836)
2024/05/03/13:35:32.322114;250168;1714768532;371891305;;['BL_Position', 'BL_Wheel', 'BR_Position', 'BR_Wheel', 'FL_Position', 'FL_Wheel', 'FR_Position', 'FR_Wheel'];(0.7853981852531433, 2746.07568359375, -0.7853981852531433, 2984.603515625, -0.7869321703910828, 2744.532470703125, 0.7853981852531433, 2989.029052734375);(0.0, 0.0, 0.0, 0.0, 0.0, 0.0, 0.0, 0.0);(13.450000762939453, 78.01000213623047, -18.829999923706055, 5.380000114440918, 5.380000114440918, -2.690000057220459, 5.380000114440918, -10.760000228881836)
2024/05/03/13:35:32.342418;250169;1714768532;387863620;;['BL_Position', 'BL_Wheel', 'BR_Position', 'BR_Wheel', 'FL_Position', 'FL_Wheel', 'FR_Position', 'FR_Wheel'];(0.7838642001152039, 2746.07421875, -0.7838642001152039, 2984.603515625, -0.7869321703910828, 2744.532470703125, 0.7853981852531433, 2989.029052734375);(0.0, 0.0, 0.0, 0.0, 0.0, 0.0, 0.0, 0.0);(10.760000228881836, 78.01000213623047, -18.829999923706055, 5.380000114440918, 5.380000114440918, -2.690000057220459, 8.069999694824219, -10.760000228881836)
2024/05/03/13:35:32.364356;250170;1714768532;403860693;;['BL_Position', 'BL_Wheel', 'BR_Position', 'BR_Wheel', 'FL_Position', 'FL_Wheel', 'FR_Position', 'FR_Wheel'];(0.7838642001152039, 2746.07568359375, -0.7838642001152039, 2984.603515625, -0.7869321703910828, 2744.532470703125, 0.7838642001152039, 2989.029052734375);(0.0, 0.0, 0.0, 0.0, 0.0, 0.0, 0.0, 0.0);(13.450000762939453, 78.01000213623047, -18.829999923706055, 5.380000114440918, 13.450000762939453, -2.690000057220459, 8.069999694824219, -10.760000228881836)
2024/05/03/13:35:32.372266;250171;1714768532;419882712;;['BL_Position', 'BL_Wheel', 'BR_Position', 'BR_Wheel', 'FL_Position', 'FL_Wheel', 'FR_Position', 'FR_Wheel'];(0.7838642001152039, 2746.07568359375, -0.7838642001152039, 2984.605224609375, -0.7884661555290222, 2744.532470703125, 0.7853981852531433, 2989.029052734375);(0.0, 0.0, 0.0, 0.0, 0.0, 0.0, 0.0, 0.0);(13.450000762939453, 78.01000213623047, -18.829999923706055, 5.380000114440918, 10.760000228881836, -2.690000057220459, 8.069999694824219, -10.760000228881836)
2024/05/03/13:35:32.385735;250172;1714768532;435857137;;['BL_Position', 'BL_Wheel', 'BR_Position', 'BR_Wheel', 'FL_Position', 'FL_Wheel', 'FR_Position', 'FR_Wheel'];(0.7838642001152039, 2746.07568359375, -0.7838642001152039, 2984.603515625, -0.7869321703910828, 2744.532470703125, 0.7838642001152039, 2989.029052734375);(0.0, 0.0, 0.0, 0.0, 0.0, 0.0, 0.0, 0.0);(10.760000228881836, 78.01000213623047, -21.520000457763672, 5.380000114440918, 5.380000114440918, -2.690000057220459, 8.069999694824219, -10.760000228881836)
2024/05/03/13:35:32.401612;250173;1714768532;451867452;;['BL_Position', 'BL_Wheel', 'BR_Position', 'BR_Wheel', 'FL_Position', 'FL_Wheel', 'FR_Position', 'FR_Wheel'];(0.7853981852531433, 2746.07568359375, -0.7838642001152039, 2984.603515625, -0.7884661555290222, 2744.532470703125, 0.7838642001152039, 2989.029052734375);(0.0, 0.0, 0.0, 0.0, 0.0, 0.0, 0.0, 0.0);(10.760000228881836, 78.01000213623047, -18.829999923706055, 5.380000114440918, 2.690000057220459, -2.690000057220459, 8.069999694824219, -10.760000228881836)
2024/05/03/13:35:32.416290;250174;1714768532;467870859;;['BL_Position', 'BL_Wheel', 'BR_Position', 'BR_Wheel', 'FL_Position', 'FL_Wheel', 'FR_Position', 'FR_Wheel'];(0.7838642001152039, 2746.07568359375, -0.7853981852531433, 2984.603515625, -0.7869321703910828, 2744.532470703125, 0.7838642001152039, 2989.029052734375);(0.0, 0.0, 0.0, 0.0, 0.0, 0.0, 0.0, 0.0);(13.450000762939453, 78.01000213623047, -18.829999923706055, 5.380000114440918, 8.069999694824219, -2.690000057220459, 8.069999694824219, -10.760000228881836)
2024/05/03/13:35:32.436709;250175;1714768532;483866544;;['BL_Position', 'BL_Wheel', 'BR_Position', 'BR_Wheel', 'FL_Position', 'FL_Wheel', 'FR_Position', 'FR_Wheel'];(0.7838642001152039, 2746.07568359375, -0.7838642001152039, 2984.603515625, -0.7869321703910828, 2744.532470703125, 0.7838642001152039, 2989.029052734375);(0.0, 0.0, 0.0, 0.0, 0.0, 0.0, 0.0, 0.0);(13.450000762939453, 78.01000213623047, -18.829999923706055, 5.380000114440918, 13.450000762939453, -2.690000057220459, 8.069999694824219, -10.760000228881836)
2024/05/03/13:35:32.450813;250176;1714768532;501071173;;['BL_Position', 'BL_Wheel', 'BR_Position', 'BR_Wheel', 'FL_Position', 'FL_Wheel', 'FR_Position', 'FR_Wheel'];(0.7838642001152039, 2746.07568359375, -0.7838642001152039, 2984.603515625, -0.7869321703910828, 2744.532470703125, 0.7838642001152039, 2989.029052734375);(0.0, 0.0, 0.0, 0.0, 0.0, 0.0, 0.0, 0.0);(13.450000762939453, 78.01000213623047, -18.829999923706055, 5.380000114440918, 5.380000114440918, -2.690000057220459, 8.069999694824219, -10.760000228881836)
2024/05/03/13:35:32.467009;250177;1714768532;516071358;;['BL_Position', 'BL_Wheel', 'BR_Position', 'BR_Wheel', 'FL_Position', 'FL_Wheel', 'FR_Position', 'FR_Wheel'];(0.7838642001152039, 2746.07568359375, -0.7838642001152039, 2984.603515625, -0.7869321703910828, 2744.532470703125, 0.7853981852531433, 2989.029052734375);(0.0, 0.0, 0.0, 0.0, 0.0, 0.0, 0.0, 0.0);(13.450000762939453, 78.01000213623047, -18.829999923706055, 5.380000114440918, 5.380000114440918, -2.690000057220459, 5.380000114440918, -10.760000228881836)
2024/05/03/13:35:32.487313;250178;1714768532;535182672;;['BL_Position', 'BL_Wheel', 'BR_Position', 'BR_Wheel', 'FL_Position', 'FL_Wheel', 'FR_Position', 'FR_Wheel'];(0.7838642001152039, 2746.07568359375, -0.7838642001152039, 2984.603515625, -0.7869321703910828, 2744.532470703125, 0.7838642001152039, 2989.03076171875);(0.0, 0.0, 0.0, 0.0, 0.0, 0.0, 0.0, 0.0);(10.760000228881836, 78.01000213623047, -21.520000457763672, 5.380000114440918, 5.380000114440918, -2.690000057220459, 5.380000114440918, -10.760000228881836)
2024/05/03/13:35:32.501656;250179;1714768532;550794616;;['BL_Position', 'BL_Wheel', 'BR_Position', 'BR_Wheel', 'FL_Position', 'FL_Wheel', 'FR_Position', 'FR_Wheel'];(0.7838642001152039, 2746.07568359375, -0.7838642001152039, 2984.603515625, -0.7884661555290222, 2744.532470703125, 0.7853981852531433, 2989.029052734375);(0.0, 0.0, 0.0, 0.0, 0.0, 0.0, 0.0, 0.0);(10.760000228881836, 78.01000213623047, -18.829999923706055, 5.380000114440918, 10.760000228881836, -2.690000057220459, 5.380000114440918, -10.760000228881836)
2024/05/03/13:35:32.513974;250180;1714768532;563906560;;['BL_Position', 'BL_Wheel', 'BR_Position', 'BR_Wheel', 'FL_Position', 'FL_Wheel', 'FR_Position', 'FR_Wheel'];(0.7838642001152039, 2746.07568359375, -0.7838642001152039, 2984.603515625, -0.7884661555290222, 2744.532470703125, 0.7853981852531433, 2989.029052734375);(0.0, 0.0, 0.0, 0.0, 0.0, 0.0, 0.0, 0.0);(13.450000762939453, 78.01000213623047, -18.829999923706055, 5.380000114440918, 10.760000228881836, -2.690000057220459, 10.760000228881836, -10.760000228881836)
2024/05/03/13:35:32.530967;250181;1714768532;579856838;;['BL_Position', 'BL_Wheel', 'BR_Position', 'BR_Wheel', 'FL_Position', 'FL_Wheel', 'FR_Position', 'FR_Wheel'];(0.7853981852531433, 2746.07568359375, -0.7838642001152039, 2984.605224609375, -0.7869321703910828, 2744.532470703125, 0.7838642001152039, 2989.029052734375);(0.0, 0.0, 0.0, 0.0, 0.0, 0.0, 0.0, 0.0);(10.760000228881836, 78.01000213623047, -18.829999923706055, 5.380000114440918, 10.760000228881836, -2.690000057220459, 8.069999694824219, -10.760000228881836)
2024/05/03/13:35:32.550746;250182;1714768532;595865523;;['BL_Position', 'BL_Wheel', 'BR_Position', 'BR_Wheel', 'FL_Position', 'FL_Wheel', 'FR_Position', 'FR_Wheel'];(0.7838642001152039, 2746.07568359375, -0.7838642001152039, 2984.603515625, -0.7869321703910828, 2744.532470703125, 0.7838642001152039, 2989.03076171875);(0.0, 0.0, 0.0, 0.0, 0.0, 0.0, 0.0, 0.0);(10.760000228881836, 78.01000213623047, -18.829999923706055, 5.380000114440918, 13.450000762939453, -2.690000057220459, 10.760000228881836, -10.760000228881836)
2024/05/03/13:35:32.568952;250183;1714768532;611852819;;['BL_Position', 'BL_Wheel', 'BR_Position', 'BR_Wheel', 'FL_Position', 'FL_Wheel', 'FR_Position', 'FR_Wheel'];(0.7838642001152039, 2746.07568359375, -0.7838642001152039, 2984.603515625, -0.7869321703910828, 2744.532470703125, 0.7838642001152039, 2989.029052734375);(0.0, 0.0, 0.0, 0.0, 0.0, 0.0, 0.0, 0.0);(13.450000762939453, 78.01000213623047, -18.829999923706055, 5.380000114440918, 2.690000057220459, -2.690000057220459, 5.380000114440918, -10.760000228881836)
2024/05/03/13:35:32.581496;250184;1714768532;627896189;;['BL_Position', 'BL_Wheel', 'BR_Position', 'BR_Wheel', 'FL_Position', 'FL_Wheel', 'FR_Position', 'FR_Wheel'];(0.7838642001152039, 2746.07568359375, -0.7838642001152039, 2984.603515625, -0.7869321703910828, 2744.532470703125, 0.7853981852531433, 2989.029052734375);(0.0, 0.0, 0.0, 0.0, 0.0, 0.0, 0.0, 0.0);(10.760000228881836, 78.01000213623047, -18.829999923706055, 5.380000114440918, 18.829999923706055, -2.690000057220459, 10.760000228881836, -10.760000228881836)
2024/05/03/13:35:32.594101;250185;1714768532;643917911;;['BL_Position', 'BL_Wheel', 'BR_Position', 'BR_Wheel', 'FL_Position', 'FL_Wheel', 'FR_Position', 'FR_Wheel'];(0.7838642001152039, 2746.07568359375, -0.7838642001152039, 2984.603515625, -0.7869321703910828, 2744.532470703125, 0.7838642001152039, 2989.029052734375);(0.0, 0.0, 0.0, 0.0, 0.0, 0.0, 0.0, 0.0);(13.450000762939453, 78.01000213623047, -18.829999923706055, 5.380000114440918, 8.069999694824219, -2.690000057220459, 8.069999694824219, -10.760000228881836)
2024/05/03/13:35:32.610708;250186;1714768532;659877392;;['BL_Position', 'BL_Wheel', 'BR_Position', 'BR_Wheel', 'FL_Position', 'FL_Wheel', 'FR_Position', 'FR_Wheel'];(0.7838642001152039, 2746.07568359375, -0.7838642001152039, 2984.603515625, -0.7869321703910828, 2744.532470703125, 0.7838642001152039, 2989.029052734375);(0.0, 0.0, 0.0, 0.0, 0.0, 0.0, 0.0, 0.0);(13.450000762939453, 78.01000213623047, -18.829999923706055, 5.380000114440918, 8.069999694824219, -2.690000057220459, 10.760000228881836, -10.760000228881836)
2024/05/03/13:35:32.625765;250187;1714768532;675855095;;['BL_Position', 'BL_Wheel', 'BR_Position', 'BR_Wheel', 'FL_Position', 'FL_Wheel', 'FR_Position', 'FR_Wheel'];(0.7838642001152039, 2746.07568359375, -0.7838642001152039, 2984.603515625, -0.7869321703910828, 2744.532470703125, 0.7853981852531433, 2989.029052734375);(0.0, 0.0, 0.0, 0.0, 0.0, 0.0, 0.0, 0.0);(13.450000762939453, 78.01000213623047, -16.139999389648438, 5.380000114440918, 5.380000114440918, -2.690000057220459, 5.380000114440918, -10.760000228881836)
2024/05/03/13:35:32.705521;250188;1714768532;691944169;;['BL_Position', 'BL_Wheel', 'BR_Position', 'BR_Wheel', 'FL_Position', 'FL_Wheel', 'FR_Position', 'FR_Wheel'];(0.7838642001152039, 2746.07568359375, -0.7838642001152039, 2984.603515625, -0.7884661555290222, 2744.532470703125, 0.7853981852531433, 2989.029052734375);(0.0, 0.0, 0.0, 0.0, 0.0, 0.0, 0.0, 0.0);(10.760000228881836, 78.01000213623047, -18.829999923706055, 5.380000114440918, 8.069999694824219, -2.690000057220459, 10.760000228881836, -10.760000228881836)
2024/05/03/13:35:32.735824;250189;1714768532;708045391;;['BL_Position', 'BL_Wheel', 'BR_Position', 'BR_Wheel', 'FL_Position', 'FL_Wheel', 'FR_Position', 'FR_Wheel'];(0.7853981852531433, 2746.07568359375, -0.7838642001152039, 2984.603515625, -0.7884661555290222, 2744.532470703125, 0.7853981852531433, 2989.029052734375);(0.0, 0.0, 0.0, 0.0, 0.0, 0.0, 0.0, 0.0);(10.760000228881836, 78.01000213623047, -21.520000457763672, 5.380000114440918, 5.380000114440918, -2.690000057220459, 10.760000228881836, -10.760000228881836)
2024/05/03/13:35:32.735849;250190;1714768532;723892113;;['BL_Position', 'BL_Wheel', 'BR_Position', 'BR_Wheel', 'FL_Position', 'FL_Wheel', 'FR_Position', 'FR_Wheel'];(0.7853981852531433, 2746.07568359375, -0.7838642001152039, 2984.603515625, -0.7869321703910828, 2744.532470703125, 0.7853981852531433, 2989.029052734375);(0.0, 0.0, 0.0, 0.0, 0.0, 0.0, 0.0, 0.0);(10.760000228881836, 78.01000213623047, -18.829999923706055, 5.380000114440918, 8.069999694824219, -2.690000057220459, 10.760000228881836, -10.760000228881836)
2024/05/03/13:35:32.735868;250191;1714768532;742891075;;['BL_Position', 'BL_Wheel', 'BR_Position', 'BR_Wheel', 'FL_Position', 'FL_Wheel', 'FR_Position', 'FR_Wheel'];(0.7838642001152039, 2746.07568359375, -0.7838642001152039, 2984.603515625, -0.7884661555290222, 2744.532470703125, 0.7853981852531433, 2989.029052734375);(0.0, 0.0, 0.0, 0.0, 0.0, 0.0, 0.0, 0.0);(10.760000228881836, 78.01000213623047, -18.829999923706055, 5.380000114440918, 5.380000114440918, -2.690000057220459, 8.069999694824219, -10.760000228881836)
2024/05/03/13:35:32.736121;250192;1714768532;756169538;;['BL_Position', 'BL_Wheel', 'BR_Position', 'BR_Wheel', 'FL_Position', 'FL_Wheel', 'FR_Position', 'FR_Wheel'];(0.7838642001152039, 2746.07568359375, -0.7838642001152039, 2984.603515625, -0.7869321703910828, 2744.532470703125, 0.7838642001152039, 2989.029052734375);(0.0, 0.0, 0.0, 0.0, 0.0, 0.0, 0.0, 0.0);(13.450000762939453, 78.01000213623047, -21.520000457763672, 5.380000114440918, 13.450000762939453, -2.690000057220459, 5.380000114440918, -10.760000228881836)
2024/05/03/13:35:32.832993;250193;1714768532;771844982;;['BL_Position', 'BL_Wheel', 'BR_Position', 'BR_Wheel', 'FL_Position', 'FL_Wheel', 'FR_Position', 'FR_Wheel'];(0.7838642001152039, 2746.07421875, -0.7838642001152039, 2984.603515625, -0.7869321703910828, 2744.532470703125, 0.7838642001152039, 2989.029052734375);(0.0, 0.0, 0.0, 0.0, 0.0, 0.0, 0.0, 0.0);(13.450000762939453, 78.01000213623047, -21.520000457763672, 5.380000114440918, 18.829999923706055, -2.690000057220459, 10.760000228881836, -10.760000228881836)
2024/05/03/13:35:32.833021;250194;1714768532;787877834;;['BL_Position', 'BL_Wheel', 'BR_Position', 'BR_Wheel', 'FL_Position', 'FL_Wheel', 'FR_Position', 'FR_Wheel'];(0.7853981852531433, 2746.07568359375, -0.7838642001152039, 2984.603515625, -0.7869321703910828, 2744.532470703125, 0.7838642001152039, 2989.029052734375);(0.0, 0.0, 0.0, 0.0, 0.0, 0.0, 0.0, 0.0);(13.450000762939453, 78.01000213623047, -16.139999389648438, 5.380000114440918, 2.690000057220459, -2.690000057220459, 10.760000228881836, -10.760000228881836)
2024/05/03/13:35:32.833036;250195;1714768532;803881333;;['BL_Position', 'BL_Wheel', 'BR_Position', 'BR_Wheel', 'FL_Position', 'FL_Wheel', 'FR_Position', 'FR_Wheel'];(0.7838642001152039, 2746.07568359375, -0.7838642001152039, 2984.603515625, -0.7869321703910828, 2744.532470703125, 0.7853981852531433, 2989.029052734375);(0.0, 0.0, 0.0, 0.0, 0.0, 0.0, 0.0, 0.0);(10.760000228881836, 78.01000213623047, -21.520000457763672, 5.380000114440918, 2.690000057220459, -2.690000057220459, 8.069999694824219, -10.760000228881836)
