time;.header.seq;.header.stamp.secs;.header.stamp.nsecs;.header.frame_id;.name;.position;.velocity;.effort
2024/05/03/13:22:36.194571;201661;1714767756;224392310;;['BL_Position', 'BL_Wheel', 'BR_Position', 'BR_Wheel', 'FL_Position', 'FL_Wheel', 'FR_Position', 'FR_Wheel'];(0.0, 2710.608642578125, 0.006135923322290182, 2763.9052734375, -0.0015339808305725455, 2708.931884765625, 0.0, 2768.16357421875);(0.0, 0.0, 0.0, 0.0, 0.0, 0.0, 0.0, 0.0);(5.380000114440918, 34.970001220703125, -61.87000274658203, 5.380000114440918, 0.0, -2.690000057220459, 0.0, 0.0)
2024/05/03/13:22:36.210401;201662;1714767756;240374013;;['BL_Position', 'BL_Wheel', 'BR_Position', 'BR_Wheel', 'FL_Position', 'FL_Wheel', 'FR_Position', 'FR_Wheel'];(0.0, 2710.608642578125, 0.006135923322290182, 2763.9052734375, -0.0015339808305725455, 2708.931884765625, 0.0, 2768.16357421875);(0.0, 0.0, 0.0, 0.0, 0.0, 0.0, 0.0, 0.0);(5.380000114440918, 34.970001220703125, -61.87000274658203, 5.380000114440918, 8.069999694824219, -2.690000057220459, 0.0, 0.0)
2024/05/03/13:22:36.226336;201663;1714767756;256329494;;['BL_Position', 'BL_Wheel', 'BR_Position', 'BR_Wheel', 'FL_Position', 'FL_Wheel', 'FR_Position', 'FR_Wheel'];(0.0, 2710.608642578125, 0.006135923322290182, 2763.9052734375, -0.003067961661145091, 2708.933349609375, 0.0, 2768.16357421875);(0.0, 0.0, 0.0, 0.0, 0.0, 0.0, 0.0, 0.0);(5.380000114440918, 34.970001220703125, -61.87000274658203, 5.380000114440918, 13.450000762939453, -2.690000057220459, 0.0, 0.0)
2024/05/03/13:22:36.253457;201664;1714767756;272384012;;['BL_Position', 'BL_Wheel', 'BR_Position', 'BR_Wheel', 'FL_Position', 'FL_Wheel', 'FR_Position', 'FR_Wheel'];(0.0, 2710.608642578125, 0.006135923322290182, 2763.9052734375, -0.0015339808305725455, 2708.933349609375, 0.0, 2768.16357421875);(0.0, 0.0, 0.0, 0.0, 0.0, 0.0, 0.0, 0.0);(5.380000114440918, 34.970001220703125, -67.25, 5.380000114440918, 5.380000114440918, -2.690000057220459, 0.0, 0.0)
2024/05/03/13:22:36.258967;201665;1714767756;288374660;;['BL_Position', 'BL_Wheel', 'BR_Position', 'BR_Wheel', 'FL_Position', 'FL_Wheel', 'FR_Position', 'FR_Wheel'];(0.0, 2710.608642578125, 0.006135923322290182, 2763.9052734375, -0.003067961661145091, 2708.933349609375, 0.0, 2768.16357421875);(0.0, 0.0, 0.0, 0.0, 0.0, 0.0, 0.0, 0.0);(5.380000114440918, 34.970001220703125, -67.25, 5.380000114440918, 2.690000057220459, -2.690000057220459, 0.0, 0.0)
2024/05/03/13:22:36.275192;201666;1714767756;304343456;;['BL_Position', 'BL_Wheel', 'BR_Position', 'BR_Wheel', 'FL_Position', 'FL_Wheel', 'FR_Position', 'FR_Wheel'];(0.0, 2710.608642578125, 0.006135923322290182, 2763.9052734375, -0.003067961661145091, 2708.933349609375, 0.0, 2768.16357421875);(0.0, 0.0, 0.0, 0.0, 0.0, 0.0, 0.0, 0.0);(5.380000114440918, 34.970001220703125, -67.25, 5.380000114440918, 13.450000762939453, -2.690000057220459, 0.0, 0.0)
2024/05/03/13:22:36.289562;201667;1714767756;320354770;;['BL_Position', 'BL_Wheel', 'BR_Position', 'BR_Wheel', 'FL_Position', 'FL_Wheel', 'FR_Position', 'FR_Wheel'];(0.0, 2710.608642578125, 0.006135923322290182, 2763.9052734375, -0.0015339808305725455, 2708.933349609375, 0.0, 2768.16357421875);(0.0, 0.0, 0.0, 0.0, 0.0, 0.0, 0.0, 0.0);(5.380000114440918, 34.970001220703125, -67.25, 5.380000114440918, 21.520000457763672, -2.690000057220459, 0.0, 0.0)
2024/05/03/13:22:36.305727;201668;1714767756;336363400;;['BL_Position', 'BL_Wheel', 'BR_Position', 'BR_Wheel', 'FL_Position', 'FL_Wheel', 'FR_Position', 'FR_Wheel'];(0.0, 2710.608642578125, 0.006135923322290182, 2763.9052734375, -0.0015339808305725455, 2708.931884765625, 0.0, 2768.16357421875);(0.0, 0.0, 0.0, 0.0, 0.0, 0.0, 0.0, 0.0);(5.380000114440918, 34.970001220703125, -67.25, 5.380000114440918, 53.80000305175781, -2.690000057220459, 0.0, 0.0)
2024/05/03/13:22:36.322605;201669;1714767756;352361492;;['BL_Position', 'BL_Wheel', 'BR_Position', 'BR_Wheel', 'FL_Position', 'FL_Wheel', 'FR_Position', 'FR_Wheel'];(0.0, 2710.608642578125, 0.006135923322290182, 2763.9052734375, -0.0015339808305725455, 2708.933349609375, 0.0, 2768.16357421875);(0.0, 0.0, 0.0, 0.0, 0.0, 0.0, 0.0, 0.0);(5.380000114440918, 34.970001220703125, -67.25, 5.380000114440918, 61.87000274658203, -2.690000057220459, 0.0, 0.0)
2024/05/03/13:22:36.337675;201670;1714767756;368336418;;['BL_Position', 'BL_Wheel', 'BR_Position', 'BR_Wheel', 'FL_Position', 'FL_Wheel', 'FR_Position', 'FR_Wheel'];(0.0, 2710.608642578125, 0.006135923322290182, 2763.9052734375, -0.0015339808305725455, 2708.933349609375, 0.0, 2768.16357421875);(0.0, 0.0, 0.0, 0.0, 0.0, 0.0, 0.0, 0.0);(5.380000114440918, 34.970001220703125, -67.25, 5.380000114440918, 72.6300048828125, -2.690000057220459, 0.0, 0.0)
2024/05/03/13:22:36.355727;201671;1714767756;384320176;;['BL_Position', 'BL_Wheel', 'BR_Position', 'BR_Wheel', 'FL_Position', 'FL_Wheel', 'FR_Position', 'FR_Wheel'];(0.0, 2710.608642578125, 0.006135923322290182, 2763.9052734375, -0.003067961661145091, 2708.933349609375, 0.0, 2768.16357421875);(0.0, 0.0, 0.0, 0.0, 0.0, 0.0, 0.0, 0.0);(5.380000114440918, 34.970001220703125, -67.25, 5.380000114440918, 59.18000030517578, -2.690000057220459, 0.0, 0.0)
2024/05/03/13:22:36.377080;201672;1714767756;400386343;;['BL_Position', 'BL_Wheel', 'BR_Position', 'BR_Wheel', 'FL_Position', 'FL_Wheel', 'FR_Position', 'FR_Wheel'];(0.0, 2710.608642578125, 0.006135923322290182, 2763.9052734375, -0.003067961661145091, 2708.933349609375, 0.0, 2768.16357421875);(0.0, 0.0, 0.0, 0.0, 0.0, 0.0, 0.0, 0.0);(5.380000114440918, 34.970001220703125, -67.25, 5.380000114440918, 78.01000213623047, -2.690000057220459, 0.0, 0.0)
2024/05/03/13:22:36.386129;201673;1714767756;416373990;;['BL_Position', 'BL_Wheel', 'BR_Position', 'BR_Wheel', 'FL_Position', 'FL_Wheel', 'FR_Position', 'FR_Wheel'];(0.0, 2710.608642578125, 0.006135923322290182, 2763.9052734375, -0.003067961661145091, 2708.933349609375, 0.0, 2768.16357421875);(0.0, 0.0, 0.0, 0.0, 0.0, 0.0, 0.0, 0.0);(5.380000114440918, 34.970001220703125, -67.25, 5.380000114440918, 53.80000305175781, -2.690000057220459, 0.0, 0.0)
2024/05/03/13:22:36.401625;201674;1714767756;432382323;;['BL_Position', 'BL_Wheel', 'BR_Position', 'BR_Wheel', 'FL_Position', 'FL_Wheel', 'FR_Position', 'FR_Wheel'];(0.0, 2710.608642578125, 0.006135923322290182, 2763.9052734375, -0.0015339808305725455, 2708.933349609375, 0.0, 2768.16357421875);(0.0, 0.0, 0.0, 0.0, 0.0, 0.0, 0.0, 0.0);(5.380000114440918, 34.970001220703125, -67.25, 5.380000114440918, 32.279998779296875, -2.690000057220459, 0.0, 0.0)
2024/05/03/13:22:36.417649;201675;1714767756;448335360;;['BL_Position', 'BL_Wheel', 'BR_Position', 'BR_Wheel', 'FL_Position', 'FL_Wheel', 'FR_Position', 'FR_Wheel'];(0.0, 2710.608642578125, 0.006135923322290182, 2763.9052734375, -0.003067961661145091, 2708.933349609375, 0.0, 2768.16357421875);(0.0, 0.0, 0.0, 0.0, 0.0, 0.0, 0.0, 0.0);(5.380000114440918, 34.970001220703125, -64.55999755859375, 5.380000114440918, 18.829999923706055, -2.690000057220459, 0.0, 0.0)
2024/05/03/13:22:36.434307;201676;1714767756;464430915;;['BL_Position', 'BL_Wheel', 'BR_Position', 'BR_Wheel', 'FL_Position', 'FL_Wheel', 'FR_Position', 'FR_Wheel'];(0.0, 2710.608642578125, 0.006135923322290182, 2763.9052734375, -0.0015339808305725455, 2708.933349609375, 0.0, 2768.16357421875);(0.0, 0.0, 0.0, 0.0, 0.0, 0.0, 0.0, 0.0);(5.380000114440918, 34.970001220703125, -64.55999755859375, 5.380000114440918, 0.0, -2.690000057220459, 0.0, 0.0)
2024/05/03/13:22:36.458180;201677;1714767756;480374582;;['BL_Position', 'BL_Wheel', 'BR_Position', 'BR_Wheel', 'FL_Position', 'FL_Wheel', 'FR_Position', 'FR_Wheel'];(0.0, 2710.608642578125, 0.006135923322290182, 2763.9052734375, -0.003067961661145091, 2708.933349609375, 0.0, 2768.16357421875);(0.0, 0.0, 0.0, 0.0, 0.0, 0.0, 0.0, 0.0);(5.380000114440918, 34.970001220703125, -64.55999755859375, 5.380000114440918, -2.690000057220459, -2.690000057220459, 0.0, 0.0)
2024/05/03/13:22:36.466006;201678;1714767756;496345303;;['BL_Position', 'BL_Wheel', 'BR_Position', 'BR_Wheel', 'FL_Position', 'FL_Wheel', 'FR_Position', 'FR_Wheel'];(0.0, 2710.608642578125, 0.006135923322290182, 2763.9052734375, -0.003067961661145091, 2708.933349609375, 0.0, 2768.16357421875);(0.0, 0.0, 0.0, 0.0, 0.0, 0.0, 0.0, 0.0);(5.380000114440918, 34.970001220703125, -61.87000274658203, 5.380000114440918, 8.069999694824219, -2.690000057220459, 0.0, 0.0)
2024/05/03/13:22:36.489660;201679;1714767756;512386248;;['BL_Position', 'BL_Wheel', 'BR_Position', 'BR_Wheel', 'FL_Position', 'FL_Wheel', 'FR_Position', 'FR_Wheel'];(0.0, 2710.608642578125, 0.006135923322290182, 2763.9052734375, -0.003067961661145091, 2708.933349609375, 0.0, 2768.16357421875);(0.0, 0.0, 0.0, 0.0, 0.0, 0.0, 0.0, 0.0);(5.380000114440918, 34.970001220703125, -61.87000274658203, 5.380000114440918, 5.380000114440918, -2.690000057220459, 0.0, 0.0)
2024/05/03/13:22:36.497387;201680;1714767756;528353692;;['BL_Position', 'BL_Wheel', 'BR_Position', 'BR_Wheel', 'FL_Position', 'FL_Wheel', 'FR_Position', 'FR_Wheel'];(0.0, 2710.608642578125, 0.006135923322290182, 2763.9052734375, -0.003067961661145091, 2708.933349609375, 0.0, 2768.16357421875);(0.0, 0.0, 0.0, 0.0, 0.0, 0.0, 0.0, 0.0);(5.380000114440918, 34.970001220703125, -61.87000274658203, 5.380000114440918, 5.380000114440918, -2.690000057220459, 0.0, 0.0)
2024/05/03/13:22:36.514070;201681;1714767756;544282617;;['BL_Position', 'BL_Wheel', 'BR_Position', 'BR_Wheel', 'FL_Position', 'FL_Wheel', 'FR_Position', 'FR_Wheel'];(0.0, 2710.608642578125, 0.006135923322290182, 2763.9052734375, -0.0015339808305725455, 2708.933349609375, 0.0, 2768.16357421875);(0.0, 0.0, 0.0, 0.0, 0.0, 0.0, 0.0, 0.0);(5.380000114440918, 34.970001220703125, -61.87000274658203, 5.380000114440918, 16.139999389648438, -2.690000057220459, 0.0, 0.0)
2024/05/03/13:22:36.529480;201682;1714767756;560297376;;['BL_Position', 'BL_Wheel', 'BR_Position', 'BR_Wheel', 'FL_Position', 'FL_Wheel', 'FR_Position', 'FR_Wheel'];(0.0, 2710.608642578125, 0.006135923322290182, 2763.9052734375, -0.0015339808305725455, 2708.933349609375, 0.0, 2768.16357421875);(0.0, 0.0, 0.0, 0.0, 0.0, 0.0, 0.0, 0.0);(5.380000114440918, 34.970001220703125, -61.87000274658203, 5.380000114440918, 13.450000762939453, -2.690000057220459, 0.0, 0.0)
2024/05/03/13:22:36.546148;201683;1714767756;576287487;;['BL_Position', 'BL_Wheel', 'BR_Position', 'BR_Wheel', 'FL_Position', 'FL_Wheel', 'FR_Position', 'FR_Wheel'];(0.0, 2710.608642578125, 0.006135923322290182, 2763.9052734375, -0.0015339808305725455, 2708.933349609375, 0.0, 2768.16357421875);(0.0, 0.0, 0.0, 0.0, 0.0, 0.0, 0.0, 0.0);(5.380000114440918, 34.970001220703125, -61.87000274658203, 5.380000114440918, 32.279998779296875, -2.690000057220459, 0.0, 0.0)
2024/05/03/13:22:36.560762;201684;1714767756;592304764;;['BL_Position', 'BL_Wheel', 'BR_Position', 'BR_Wheel', 'FL_Position', 'FL_Wheel', 'FR_Position', 'FR_Wheel'];(0.0, 2710.608642578125, 0.006135923322290182, 2763.9052734375, -0.003067961661145091, 2708.933349609375, 0.0, 2768.161865234375);(0.0, 0.0, 0.0, 0.0, 0.0, 0.0, 0.0, 0.0);(5.380000114440918, 34.970001220703125, -61.87000274658203, 5.380000114440918, 48.42000198364258, -2.690000057220459, 0.0, 0.0)
2024/05/03/13:22:36.579524;201685;1714767756;608382153;;['BL_Position', 'BL_Wheel', 'BR_Position', 'BR_Wheel', 'FL_Position', 'FL_Wheel', 'FR_Position', 'FR_Wheel'];(0.0, 2710.608642578125, 0.006135923322290182, 2763.9052734375, -0.0015339808305725455, 2708.933349609375, 0.0015339808305725455, 2768.161865234375);(0.0, 0.0, 0.0, 0.0, 0.0, 0.0, 0.0, 0.0);(5.380000114440918, 34.970001220703125, -61.87000274658203, 5.380000114440918, 48.42000198364258, -2.690000057220459, 0.0, 0.0)
2024/05/03/13:22:36.595361;201686;1714767756;625855412;;['BL_Position', 'BL_Wheel', 'BR_Position', 'BR_Wheel', 'FL_Position', 'FL_Wheel', 'FR_Position', 'FR_Wheel'];(0.0, 2710.608642578125, 0.006135923322290182, 2763.9052734375, -0.0015339808305725455, 2708.933349609375, 0.0, 2768.16357421875);(0.0, 0.0, 0.0, 0.0, 0.0, 0.0, 0.0, 0.0);(5.380000114440918, 34.970001220703125, -61.87000274658203, 5.380000114440918, 29.59000015258789, -2.690000057220459, 0.0, 0.0)
2024/05/03/13:22:36.609852;201687;1714767756;640539319;;['BL_Position', 'BL_Wheel', 'BR_Position', 'BR_Wheel', 'FL_Position', 'FL_Wheel', 'FR_Position', 'FR_Wheel'];(0.0, 2710.608642578125, 0.006135923322290182, 2763.9052734375, -0.003067961661145091, 2708.933349609375, 0.0, 2768.16357421875);(0.0, 0.0, 0.0, 0.0, 0.0, 0.0, 0.0, 0.0);(5.380000114440918, 34.970001220703125, -61.87000274658203, 5.380000114440918, 5.380000114440918, -2.690000057220459, 0.0, 0.0)
2024/05/03/13:22:36.626493;201688;1714767756;656361466;;['BL_Position', 'BL_Wheel', 'BR_Position', 'BR_Wheel', 'FL_Position', 'FL_Wheel', 'FR_Position', 'FR_Wheel'];(0.0, 2710.608642578125, 0.006135923322290182, 2763.9052734375, -0.0015339808305725455, 2708.933349609375, 0.0, 2768.16357421875);(0.0, 0.0, 0.0, 0.0, 0.0, 0.0, 0.0, 0.0);(5.380000114440918, 34.970001220703125, -61.87000274658203, 5.380000114440918, 61.87000274658203, -2.690000057220459, 0.0, 0.0)
2024/05/03/13:22:36.640940;201689;1714767756;672338911;;['BL_Position', 'BL_Wheel', 'BR_Position', 'BR_Wheel', 'FL_Position', 'FL_Wheel', 'FR_Position', 'FR_Wheel'];(0.0, 2710.608642578125, 0.006135923322290182, 2763.9052734375, -0.003067961661145091, 2708.933349609375, 0.0, 2768.16357421875);(0.0, 0.0, 0.0, 0.0, 0.0, 0.0, 0.0, 0.0);(5.380000114440918, 34.970001220703125, -61.87000274658203, 5.380000114440918, 29.59000015258789, -2.690000057220459, 0.0, 0.0)
2024/05/03/13:22:36.663474;201690;1714767756;688378077;;['BL_Position', 'BL_Wheel', 'BR_Position', 'BR_Wheel', 'FL_Position', 'FL_Wheel', 'FR_Position', 'FR_Wheel'];(0.0, 2710.608642578125, 0.006135923322290182, 2763.9052734375, -0.0015339808305725455, 2708.933349609375, 0.0, 2768.16357421875);(0.0, 0.0, 0.0, 0.0, 0.0, 0.0, 0.0, 0.0);(5.380000114440918, 34.970001220703125, -61.87000274658203, 5.380000114440918, 0.0, -2.690000057220459, 0.0, 0.0)
2024/05/03/13:22:36.673662;201691;1714767756;704373188;;['BL_Position', 'BL_Wheel', 'BR_Position', 'BR_Wheel', 'FL_Position', 'FL_Wheel', 'FR_Position', 'FR_Wheel'];(0.0, 2710.608642578125, 0.006135923322290182, 2763.9052734375, -0.0015339808305725455, 2708.933349609375, 0.0, 2768.16357421875);(0.0, 0.0, 0.0, 0.0, 0.0, 0.0, 0.0, 0.0);(5.380000114440918, 34.970001220703125, -61.87000274658203, 5.380000114440918, 0.0, -2.690000057220459, 0.0, 0.0)
2024/05/03/13:22:36.692830;201692;1714767756;720337687;;['BL_Position', 'BL_Wheel', 'BR_Position', 'BR_Wheel', 'FL_Position', 'FL_Wheel', 'FR_Position', 'FR_Wheel'];(0.0, 2710.608642578125, 0.006135923322290182, 2763.9052734375, -0.0015339808305725455, 2708.933349609375, 0.0, 2768.16357421875);(0.0, 0.0, 0.0, 0.0, 0.0, 0.0, 0.0, 0.0);(5.380000114440918, 34.970001220703125, -61.87000274658203, 5.380000114440918, 10.760000228881836, -2.690000057220459, 0.0, 0.0)
2024/05/03/13:22:36.706549;201693;1714767756;736361131;;['BL_Position', 'BL_Wheel', 'BR_Position', 'BR_Wheel', 'FL_Position', 'FL_Wheel', 'FR_Position', 'FR_Wheel'];(0.0, 2710.608642578125, 0.006135923322290182, 2763.9052734375, -0.003067961661145091, 2708.933349609375, 0.0, 2768.16357421875);(0.0, 0.0, 0.0, 0.0, 0.0, 0.0, 0.0, 0.0);(5.380000114440918, 34.970001220703125, -61.87000274658203, 5.380000114440918, 21.520000457763672, -2.690000057220459, 0.0, 0.0)
2024/05/03/13:22:36.720643;201694;1714767756;752317372;;['BL_Position', 'BL_Wheel', 'BR_Position', 'BR_Wheel', 'FL_Position', 'FL_Wheel', 'FR_Position', 'FR_Wheel'];(0.0, 2710.608642578125, 0.006135923322290182, 2763.9052734375, -0.003067961661145091, 2708.933349609375, 0.0, 2768.16357421875);(0.0, 0.0, 0.0, 0.0, 0.0, 0.0, 0.0, 0.0);(5.380000114440918, 34.970001220703125, -61.87000274658203, 5.380000114440918, 8.069999694824219, -2.690000057220459, 0.0, 0.0)
2024/05/03/13:22:36.737624;201695;1714767756;768322631;;['BL_Position', 'BL_Wheel', 'BR_Position', 'BR_Wheel', 'FL_Position', 'FL_Wheel', 'FR_Position', 'FR_Wheel'];(0.0, 2710.608642578125, 0.006135923322290182, 2763.9052734375, -0.0015339808305725455, 2708.933349609375, 0.0, 2768.16357421875);(0.0, 0.0, 0.0, 0.0, 0.0, 0.0, 0.0, 0.0);(5.380000114440918, 34.970001220703125, -61.87000274658203, 5.380000114440918, -2.690000057220459, -2.690000057220459, 0.0, 0.0)
2024/05/03/13:22:36.765352;201696;1714767756;784422352;;['BL_Position', 'BL_Wheel', 'BR_Position', 'BR_Wheel', 'FL_Position', 'FL_Wheel', 'FR_Position', 'FR_Wheel'];(0.0, 2710.608642578125, 0.006135923322290182, 2763.9052734375, -0.003067961661145091, 2708.933349609375, 0.0, 2768.16357421875);(0.0, 0.0, 0.0, 0.0, 0.0, 0.0, 0.0, 0.0);(5.380000114440918, 34.970001220703125, -67.25, 5.380000114440918, -2.690000057220459, -2.690000057220459, 0.0, 0.0)
2024/05/03/13:22:36.770443;201697;1714767756;800353389;;['BL_Position', 'BL_Wheel', 'BR_Position', 'BR_Wheel', 'FL_Position', 'FL_Wheel', 'FR_Position', 'FR_Wheel'];(0.0, 2710.608642578125, 0.006135923322290182, 2763.9052734375, -0.003067961661145091, 2708.933349609375, 0.0, 2768.16357421875);(0.0, 0.0, 0.0, 0.0, 0.0, 0.0, 0.0, 0.0);(5.380000114440918, 34.970001220703125, -67.25, 5.380000114440918, 29.59000015258789, -2.690000057220459, 0.0, 0.0)
2024/05/03/13:22:36.789090;201698;1714767756;816437833;;['BL_Position', 'BL_Wheel', 'BR_Position', 'BR_Wheel', 'FL_Position', 'FL_Wheel', 'FR_Position', 'FR_Wheel'];(0.0, 2710.608642578125, 0.006135923322290182, 2763.9052734375, -0.0015339808305725455, 2708.933349609375, 0.0, 2768.16357421875);(0.0, 0.0, 0.0, 0.0, 0.0, 0.0, 0.0, 0.0);(5.380000114440918, 34.970001220703125, -67.25, 5.380000114440918, -5.380000114440918, -2.690000057220459, 0.0, 0.0)
2024/05/03/13:22:36.801791;201699;1714767756;832404870;;['BL_Position', 'BL_Wheel', 'BR_Position', 'BR_Wheel', 'FL_Position', 'FL_Wheel', 'FR_Position', 'FR_Wheel'];(0.0, 2710.608642578125, 0.006135923322290182, 2763.9052734375, -0.003067961661145091, 2708.933349609375, 0.0, 2768.16357421875);(0.0, 0.0, 0.0, 0.0, 0.0, 0.0, 0.0, 0.0);(5.380000114440918, 34.970001220703125, -67.25, 5.380000114440918, 2.690000057220459, -2.690000057220459, 0.0, 0.0)
2024/05/03/13:22:36.817559;201700;1714767756;848306240;;['BL_Position', 'BL_Wheel', 'BR_Position', 'BR_Wheel', 'FL_Position', 'FL_Wheel', 'FR_Position', 'FR_Wheel'];(0.0, 2710.608642578125, 0.006135923322290182, 2763.9052734375, -0.003067961661145091, 2708.933349609375, 0.0, 2768.161865234375);(0.0, 0.0, 0.0, 0.0, 0.0, 0.0, 0.0, 0.0);(5.380000114440918, 34.970001220703125, -67.25, 5.380000114440918, 8.069999694824219, -2.690000057220459, 0.0, 0.0)
2024/05/03/13:22:36.833634;201701;1714767756;864302721;;['BL_Position', 'BL_Wheel', 'BR_Position', 'BR_Wheel', 'FL_Position', 'FL_Wheel', 'FR_Position', 'FR_Wheel'];(0.0, 2710.608642578125, 0.006135923322290182, 2763.9052734375, -0.003067961661145091, 2708.933349609375, 0.0, 2768.16357421875);(0.0, 0.0, 0.0, 0.0, 0.0, 0.0, 0.0, 0.0);(5.380000114440918, 34.970001220703125, -64.55999755859375, 5.380000114440918, 13.450000762939453, -2.690000057220459, 0.0, 0.0)
2024/05/03/13:22:36.850143;201702;1714767756;880427276;;['BL_Position', 'BL_Wheel', 'BR_Position', 'BR_Wheel', 'FL_Position', 'FL_Wheel', 'FR_Position', 'FR_Wheel'];(0.0, 2710.608642578125, 0.006135923322290182, 2763.9052734375, -0.003067961661145091, 2708.933349609375, 0.0, 2768.161865234375);(0.0, 0.0, 0.0, 0.0, 0.0, 0.0, 0.0, 0.0);(5.380000114440918, 34.970001220703125, -64.55999755859375, 5.380000114440918, 2.690000057220459, -2.690000057220459, 0.0, 0.0)
2024/05/03/13:22:36.867650;201703;1714767756;896307072;;['BL_Position', 'BL_Wheel', 'BR_Position', 'BR_Wheel', 'FL_Position', 'FL_Wheel', 'FR_Position', 'FR_Wheel'];(0.0, 2710.608642578125, 0.006135923322290182, 2763.9052734375, -0.003067961661145091, 2708.933349609375, 0.0, 2768.161865234375);(0.0, 0.0, 0.0, 0.0, 0.0, 0.0, 0.0, 0.0);(5.380000114440918, 34.970001220703125, -64.55999755859375, 5.380000114440918, 37.65999984741211, -2.690000057220459, 0.0, 0.0)
2024/05/03/13:22:36.891990;201704;1714767756;912303294;;['BL_Position', 'BL_Wheel', 'BR_Position', 'BR_Wheel', 'FL_Position', 'FL_Wheel', 'FR_Position', 'FR_Wheel'];(0.0, 2710.608642578125, 0.006135923322290182, 2763.9052734375, -0.003067961661145091, 2708.933349609375, 0.0, 2768.16357421875);(0.0, 0.0, 0.0, 0.0, 0.0, 0.0, 0.0, 0.0);(5.380000114440918, 34.970001220703125, -64.55999755859375, 5.380000114440918, 26.900001525878906, -2.690000057220459, 0.0, 0.0)
2024/05/03/13:22:36.898862;201705;1714767756;928423812;;['BL_Position', 'BL_Wheel', 'BR_Position', 'BR_Wheel', 'FL_Position', 'FL_Wheel', 'FR_Position', 'FR_Wheel'];(0.0, 2710.608642578125, 0.006135923322290182, 2763.9052734375, -0.003067961661145091, 2708.933349609375, 0.0, 2768.16357421875);(0.0, 0.0, 0.0, 0.0, 0.0, 0.0, 0.0, 0.0);(5.380000114440918, 34.970001220703125, -64.55999755859375, 5.380000114440918, 56.4900016784668, -2.690000057220459, 0.0, 0.0)
2024/05/03/13:22:36.913767;201706;1714767756;944337978;;['BL_Position', 'BL_Wheel', 'BR_Position', 'BR_Wheel', 'FL_Position', 'FL_Wheel', 'FR_Position', 'FR_Wheel'];(0.0, 2710.608642578125, 0.006135923322290182, 2763.9052734375, -0.003067961661145091, 2708.933349609375, 0.0, 2768.16357421875);(0.0, 0.0, 0.0, 0.0, 0.0, 0.0, 0.0, 0.0);(5.380000114440918, 34.970001220703125, -64.55999755859375, 5.380000114440918, 45.72999954223633, -2.690000057220459, 0.0, 0.0)
2024/05/03/13:22:36.929839;201707;1714767756;960372960;;['BL_Position', 'BL_Wheel', 'BR_Position', 'BR_Wheel', 'FL_Position', 'FL_Wheel', 'FR_Position', 'FR_Wheel'];(0.0, 2710.608642578125, 0.006135923322290182, 2763.9052734375, -0.003067961661145091, 2708.933349609375, 0.0, 2768.16357421875);(0.0, 0.0, 0.0, 0.0, 0.0, 0.0, 0.0, 0.0);(5.380000114440918, 34.970001220703125, -64.55999755859375, 5.380000114440918, 59.18000030517578, -2.690000057220459, 0.0, 0.0)
2024/05/03/13:22:36.945939;201708;1714767756;976456237;;['BL_Position', 'BL_Wheel', 'BR_Position', 'BR_Wheel', 'FL_Position', 'FL_Wheel', 'FR_Position', 'FR_Wheel'];(0.0, 2710.608642578125, 0.006135923322290182, 2763.9052734375, -0.003067961661145091, 2708.933349609375, 0.0, 2768.16357421875);(0.0, 0.0, 0.0, 0.0, 0.0, 0.0, 0.0, 0.0);(5.380000114440918, 34.970001220703125, -64.55999755859375, 5.380000114440918, 56.4900016784668, -2.690000057220459, 0.0, 0.0)
2024/05/03/13:22:36.970331;201709;1714767756;992660514;;['BL_Position', 'BL_Wheel', 'BR_Position', 'BR_Wheel', 'FL_Position', 'FL_Wheel', 'FR_Position', 'FR_Wheel'];(0.0, 2710.608642578125, 0.006135923322290182, 2763.9052734375, -0.003067961661145091, 2708.933349609375, 0.0, 2768.16357421875);(0.0, 0.0, 0.0, 0.0, 0.0, 0.0, 0.0, 0.0);(5.380000114440918, 34.970001220703125, -64.55999755859375, 5.380000114440918, 53.80000305175781, -2.690000057220459, 0.0, 0.0)
2024/05/03/13:22:36.977516;201710;1714767757;8309014;;['BL_Position', 'BL_Wheel', 'BR_Position', 'BR_Wheel', 'FL_Position', 'FL_Wheel', 'FR_Position', 'FR_Wheel'];(0.0, 2710.608642578125, 0.006135923322290182, 2763.9052734375, -0.0015339808305725455, 2708.933349609375, 0.0, 2768.16357421875);(0.0, 0.0, 0.0, 0.0, 0.0, 0.0, 0.0, 0.0);(5.380000114440918, 34.970001220703125, -64.55999755859375, 5.380000114440918, 24.21000099182129, -2.690000057220459, 0.0, 0.0)
2024/05/03/13:22:36.994667;201711;1714767757;24311347;;['BL_Position', 'BL_Wheel', 'BR_Position', 'BR_Wheel', 'FL_Position', 'FL_Wheel', 'FR_Position', 'FR_Wheel'];(0.0, 2710.608642578125, 0.006135923322290182, 2763.9052734375, -0.0015339808305725455, 2708.933349609375, 0.0, 2768.16357421875);(0.0, 0.0, 0.0, 0.0, 0.0, 0.0, 0.0, 0.0);(5.380000114440918, 34.970001220703125, -64.55999755859375, 5.380000114440918, 32.279998779296875, -2.690000057220459, 0.0, 0.0)
2024/05/03/13:22:37.009466;201712;1714767757;40294235;;['BL_Position', 'BL_Wheel', 'BR_Position', 'BR_Wheel', 'FL_Position', 'FL_Wheel', 'FR_Position', 'FR_Wheel'];(0.0, 2710.608642578125, 0.006135923322290182, 2763.9052734375, -0.0015339808305725455, 2708.933349609375, 0.0, 2768.16357421875);(0.0, 0.0, 0.0, 0.0, 0.0, 0.0, 0.0, 0.0);(5.380000114440918, 34.970001220703125, -64.55999755859375, 5.380000114440918, 24.21000099182129, -2.690000057220459, 0.0, 0.0)
2024/05/03/13:22:37.025916;201713;1714767757;56393235;;['BL_Position', 'BL_Wheel', 'BR_Position', 'BR_Wheel', 'FL_Position', 'FL_Wheel', 'FR_Position', 'FR_Wheel'];(0.0, 2710.60693359375, 0.006135923322290182, 2763.9052734375, -0.003067961661145091, 2708.933349609375, 0.0, 2768.16357421875);(0.0, 0.0, 0.0, 0.0, 0.0, 0.0, 0.0, 0.0);(5.380000114440918, 34.970001220703125, -64.55999755859375, 5.380000114440918, 10.760000228881836, -2.690000057220459, 0.0, 0.0)
2024/05/03/13:22:37.041746;201714;1714767757;72314105;;['BL_Position', 'BL_Wheel', 'BR_Position', 'BR_Wheel', 'FL_Position', 'FL_Wheel', 'FR_Position', 'FR_Wheel'];(0.0, 2710.608642578125, 0.006135923322290182, 2763.9052734375, -0.003067961661145091, 2708.933349609375, 0.0, 2768.16357421875);(0.0, 0.0, 0.0, 0.0, 0.0, 0.0, 0.0, 0.0);(5.380000114440918, 34.970001220703125, -64.55999755859375, 5.380000114440918, -2.690000057220459, -2.690000057220459, 0.0, 0.0)
2024/05/03/13:22:37.057603;201715;1714767757;88371716;;['BL_Position', 'BL_Wheel', 'BR_Position', 'BR_Wheel', 'FL_Position', 'FL_Wheel', 'FR_Position', 'FR_Wheel'];(0.0, 2710.608642578125, 0.006135923322290182, 2763.9052734375, -0.003067961661145091, 2708.933349609375, 0.0015339808305725455, 2768.16357421875);(0.0, 0.0, 0.0, 0.0, 0.0, 0.0, 0.0, 0.0);(5.380000114440918, 34.970001220703125, -67.25, 5.380000114440918, 16.139999389648438, -2.690000057220459, 0.0, 0.0)
2024/05/03/13:22:37.073316;201716;1714767757;104353549;;['BL_Position', 'BL_Wheel', 'BR_Position', 'BR_Wheel', 'FL_Position', 'FL_Wheel', 'FR_Position', 'FR_Wheel'];(0.0, 2710.608642578125, 0.006135923322290182, 2763.9052734375, -0.003067961661145091, 2708.933349609375, 0.0, 2768.16357421875);(0.0, 0.0, 0.0, 0.0, 0.0, 0.0, 0.0, 0.0);(5.380000114440918, 34.970001220703125, -67.25, 5.380000114440918, 5.380000114440918, -2.690000057220459, 0.0, 0.0)
2024/05/03/13:22:37.094075;201717;1714767757;120344826;;['BL_Position', 'BL_Wheel', 'BR_Position', 'BR_Wheel', 'FL_Position', 'FL_Wheel', 'FR_Position', 'FR_Wheel'];(0.0, 2710.608642578125, 0.006135923322290182, 2763.9052734375, -0.0015339808305725455, 2708.933349609375, 0.0, 2768.16357421875);(0.0, 0.0, 0.0, 0.0, 0.0, 0.0, 0.0, 0.0);(5.380000114440918, 34.970001220703125, -67.25, 5.380000114440918, 16.139999389648438, -2.690000057220459, 0.0, 0.0)
2024/05/03/13:22:37.105592;201718;1714767757;136328178;;['BL_Position', 'BL_Wheel', 'BR_Position', 'BR_Wheel', 'FL_Position', 'FL_Wheel', 'FR_Position', 'FR_Wheel'];(0.0, 2710.608642578125, 0.006135923322290182, 2763.9052734375, -0.0015339808305725455, 2708.933349609375, 0.0, 2768.16357421875);(0.0, 0.0, 0.0, 0.0, 0.0, 0.0, 0.0, 0.0);(5.380000114440918, 34.970001220703125, -67.25, 5.380000114440918, 0.0, -2.690000057220459, 0.0, 0.0)
2024/05/03/13:22:37.122897;201719;1714767757;152320770;;['BL_Position', 'BL_Wheel', 'BR_Position', 'BR_Wheel', 'FL_Position', 'FL_Wheel', 'FR_Position', 'FR_Wheel'];(0.0, 2710.608642578125, 0.006135923322290182, 2763.9052734375, -0.0015339808305725455, 2708.933349609375, 0.0, 2768.16357421875);(0.0, 0.0, 0.0, 0.0, 0.0, 0.0, 0.0, 0.0);(5.380000114440918, 34.970001220703125, -67.25, 5.380000114440918, -5.380000114440918, -2.690000057220459, 0.0, 0.0)
2024/05/03/13:22:37.138039;201720;1714767757;168345047;;['BL_Position', 'BL_Wheel', 'BR_Position', 'BR_Wheel', 'FL_Position', 'FL_Wheel', 'FR_Position', 'FR_Wheel'];(-0.0015339808305725455, 2710.608642578125, 0.006135923322290182, 2763.9052734375, -0.0015339808305725455, 2708.933349609375, 0.0, 2768.16357421875);(0.0, 0.0, 0.0, 0.0, 0.0, 0.0, 0.0, 0.0);(5.380000114440918, 34.970001220703125, -67.25, 5.380000114440918, 0.0, -2.690000057220459, 0.0, 0.0)
2024/05/03/13:22:37.154391;201721;1714767757;184289621;;['BL_Position', 'BL_Wheel', 'BR_Position', 'BR_Wheel', 'FL_Position', 'FL_Wheel', 'FR_Position', 'FR_Wheel'];(0.0, 2710.608642578125, 0.006135923322290182, 2763.9052734375, -0.003067961661145091, 2708.933349609375, 0.0, 2768.16357421875);(0.0, 0.0, 0.0, 0.0, 0.0, 0.0, 0.0, 0.0);(5.380000114440918, 34.970001220703125, -67.25, 5.380000114440918, 10.760000228881836, -2.690000057220459, 0.0, 0.0)
2024/05/03/13:22:37.176040;201722;1714767757;200285769;;['BL_Position', 'BL_Wheel', 'BR_Position', 'BR_Wheel', 'FL_Position', 'FL_Wheel', 'FR_Position', 'FR_Wheel'];(0.0, 2710.608642578125, 0.006135923322290182, 2763.9052734375, -0.003067961661145091, 2708.933349609375, 0.0, 2768.16357421875);(0.0, 0.0, 0.0, 0.0, 0.0, 0.0, 0.0, 0.0);(5.380000114440918, 34.970001220703125, -67.25, 5.380000114440918, 5.380000114440918, -2.690000057220459, 0.0, 0.0)
2024/05/03/13:22:37.194550;201723;1714767757;216287528;;['BL_Position', 'BL_Wheel', 'BR_Position', 'BR_Wheel', 'FL_Position', 'FL_Wheel', 'FR_Position', 'FR_Wheel'];(0.0, 2710.608642578125, 0.006135923322290182, 2763.9052734375, -0.003067961661145091, 2708.933349609375, 0.0, 2768.16357421875);(0.0, 0.0, 0.0, 0.0, 0.0, 0.0, 0.0, 0.0);(5.380000114440918, 34.970001220703125, -67.25, 5.380000114440918, 2.690000057220459, -2.690000057220459, 0.0, 0.0)
2024/05/03/13:22:37.206616;201724;1714767757;232446953;;['BL_Position', 'BL_Wheel', 'BR_Position', 'BR_Wheel', 'FL_Position', 'FL_Wheel', 'FR_Position', 'FR_Wheel'];(0.0, 2710.608642578125, 0.006135923322290182, 2763.9052734375, -0.003067961661145091, 2708.933349609375, 0.0, 2768.161865234375);(0.0, 0.0, 0.0, 0.0, 0.0, 0.0, 0.0, 0.0);(2.690000057220459, 34.970001220703125, -67.25, 5.380000114440918, 5.380000114440918, -2.690000057220459, 0.0, 0.0)
2024/05/03/13:22:37.219502;201725;1714767757;248343268;;['BL_Position', 'BL_Wheel', 'BR_Position', 'BR_Wheel', 'FL_Position', 'FL_Wheel', 'FR_Position', 'FR_Wheel'];(0.0, 2710.608642578125, 0.006135923322290182, 2763.9052734375, -0.0015339808305725455, 2708.933349609375, 0.0, 2768.16357421875);(0.0, 0.0, 0.0, 0.0, 0.0, 0.0, 0.0, 0.0);(5.380000114440918, 34.970001220703125, -67.25, 5.380000114440918, 21.520000457763672, -2.690000057220459, 0.0, 0.0)
2024/05/03/13:22:37.238334;201726;1714767757;269218730;;['BL_Position', 'BL_Wheel', 'BR_Position', 'BR_Wheel', 'FL_Position', 'FL_Wheel', 'FR_Position', 'FR_Wheel'];(0.0, 2710.608642578125, 0.006135923322290182, 2763.9052734375, -0.003067961661145091, 2708.933349609375, 0.0, 2768.16357421875);(0.0, 0.0, 0.0, 0.0, 0.0, 0.0, 0.0, 0.0);(5.380000114440918, 34.970001220703125, -67.25, 5.380000114440918, 10.760000228881836, -2.690000057220459, 0.0, 0.0)
2024/05/03/13:22:37.249665;201727;1714767757;280335137;;['BL_Position', 'BL_Wheel', 'BR_Position', 'BR_Wheel', 'FL_Position', 'FL_Wheel', 'FR_Position', 'FR_Wheel'];(0.0, 2710.608642578125, 0.006135923322290182, 2763.9052734375, -0.003067961661145091, 2708.933349609375, 0.0, 2768.16357421875);(0.0, 0.0, 0.0, 0.0, 0.0, 0.0, 0.0, 0.0);(5.380000114440918, 34.970001220703125, -67.25, 5.380000114440918, 43.040000915527344, -2.690000057220459, 0.0, 0.0)
2024/05/03/13:22:37.277613;201728;1714767757;296439230;;['BL_Position', 'BL_Wheel', 'BR_Position', 'BR_Wheel', 'FL_Position', 'FL_Wheel', 'FR_Position', 'FR_Wheel'];(0.0, 2710.608642578125, 0.006135923322290182, 2763.9052734375, -0.0015339808305725455, 2708.933349609375, 0.0, 2768.16357421875);(0.0, 0.0, 0.0, 0.0, 0.0, 0.0, 0.0, 0.0);(5.380000114440918, 34.970001220703125, -67.25, 5.380000114440918, 0.0, -2.690000057220459, 0.0, 0.0)
2024/05/03/13:22:37.282595;201729;1714767757;312456340;;['BL_Position', 'BL_Wheel', 'BR_Position', 'BR_Wheel', 'FL_Position', 'FL_Wheel', 'FR_Position', 'FR_Wheel'];(0.0, 2710.608642578125, 0.006135923322290182, 2763.9052734375, -0.003067961661145091, 2708.933349609375, 0.0, 2768.16357421875);(0.0, 0.0, 0.0, 0.0, 0.0, 0.0, 0.0, 0.0);(5.380000114440918, 34.970001220703125, -67.25, 5.380000114440918, 26.900001525878906, -2.690000057220459, 0.0, 0.0)
2024/05/03/13:22:37.296827;201730;1714767757;328318210;;['BL_Position', 'BL_Wheel', 'BR_Position', 'BR_Wheel', 'FL_Position', 'FL_Wheel', 'FR_Position', 'FR_Wheel'];(0.0, 2710.608642578125, 0.006135923322290182, 2763.9052734375, -0.0015339808305725455, 2708.933349609375, 0.0, 2768.16357421875);(0.0, 0.0, 0.0, 0.0, 0.0, 0.0, 0.0, 0.0);(5.380000114440918, 34.970001220703125, -64.55999755859375, 5.380000114440918, 0.0, -2.690000057220459, 0.0, 0.0)
2024/05/03/13:22:37.312632;201731;1714767757;344320895;;['BL_Position', 'BL_Wheel', 'BR_Position', 'BR_Wheel', 'FL_Position', 'FL_Wheel', 'FR_Position', 'FR_Wheel'];(0.0, 2710.608642578125, 0.006135923322290182, 2763.9052734375, -0.003067961661145091, 2708.933349609375, 0.0, 2768.16357421875);(0.0, 0.0, 0.0, 0.0, 0.0, 0.0, 0.0, 0.0);(5.380000114440918, 34.970001220703125, -64.55999755859375, 5.380000114440918, 0.0, -2.690000057220459, 0.0, 0.0)
2024/05/03/13:22:37.329805;201732;1714767757;360285284;;['BL_Position', 'BL_Wheel', 'BR_Position', 'BR_Wheel', 'FL_Position', 'FL_Wheel', 'FR_Position', 'FR_Wheel'];(0.0, 2710.608642578125, 0.006135923322290182, 2763.9052734375, -0.003067961661145091, 2708.933349609375, 0.0, 2768.16357421875);(0.0, 0.0, 0.0, 0.0, 0.0, 0.0, 0.0, 0.0);(5.380000114440918, 34.970001220703125, -64.55999755859375, 5.380000114440918, 5.380000114440918, -2.690000057220459, 0.0, 0.0)
2024/05/03/13:22:37.345436;201733;1714767757;376311043;;['BL_Position', 'BL_Wheel', 'BR_Position', 'BR_Wheel', 'FL_Position', 'FL_Wheel', 'FR_Position', 'FR_Wheel'];(0.0, 2710.608642578125, 0.006135923322290182, 2763.9052734375, -0.0015339808305725455, 2708.933349609375, 0.0, 2768.16357421875);(0.0, 0.0, 0.0, 0.0, 0.0, 0.0, 0.0, 0.0);(5.380000114440918, 34.970001220703125, -64.55999755859375, 5.380000114440918, 5.380000114440918, -2.690000057220459, 0.0, 0.0)
2024/05/03/13:22:37.362494;201734;1714767757;392495764;;['BL_Position', 'BL_Wheel', 'BR_Position', 'BR_Wheel', 'FL_Position', 'FL_Wheel', 'FR_Position', 'FR_Wheel'];(0.0, 2710.608642578125, 0.006135923322290182, 2763.9052734375, -0.0015339808305725455, 2708.933349609375, 0.0, 2768.16357421875);(0.0, 0.0, 0.0, 0.0, 0.0, 0.0, 0.0, 0.0);(5.380000114440918, 34.970001220703125, -64.55999755859375, 5.380000114440918, 2.690000057220459, -2.690000057220459, 0.0, 0.0)
2024/05/03/13:22:37.380251;201735;1714767757;408601431;;['BL_Position', 'BL_Wheel', 'BR_Position', 'BR_Wheel', 'FL_Position', 'FL_Wheel', 'FR_Position', 'FR_Wheel'];(0.0, 2710.60693359375, 0.006135923322290182, 2763.9052734375, -0.003067961661145091, 2708.933349609375, 0.0, 2768.16357421875);(0.0, 0.0, 0.0, 0.0, 0.0, 0.0, 0.0, 0.0);(5.380000114440918, 34.970001220703125, -64.55999755859375, 5.380000114440918, 37.65999984741211, -2.690000057220459, 0.0, 0.0)
2024/05/03/13:22:37.404114;201736;1714767757;425431245;;['BL_Position', 'BL_Wheel', 'BR_Position', 'BR_Wheel', 'FL_Position', 'FL_Wheel', 'FR_Position', 'FR_Wheel'];(0.0, 2710.608642578125, 0.006135923322290182, 2763.9052734375, -0.0015339808305725455, 2708.933349609375, 0.0, 2768.16357421875);(0.0, 0.0, 0.0, 0.0, 0.0, 0.0, 0.0, 0.0);(5.380000114440918, 34.970001220703125, -67.25, 5.380000114440918, 21.520000457763672, -2.690000057220459, 0.0, 0.0)
2024/05/03/13:22:37.409676;201737;1714767757;440606949;;['BL_Position', 'BL_Wheel', 'BR_Position', 'BR_Wheel', 'FL_Position', 'FL_Wheel', 'FR_Position', 'FR_Wheel'];(0.0, 2710.608642578125, 0.006135923322290182, 2763.9052734375, -0.003067961661145091, 2708.933349609375, 0.0, 2768.16357421875);(0.0, 0.0, 0.0, 0.0, 0.0, 0.0, 0.0, 0.0);(5.380000114440918, 34.970001220703125, -64.55999755859375, 5.380000114440918, 72.6300048828125, -2.690000057220459, 0.0, 0.0)
2024/05/03/13:22:37.425346;201738;1714767757;456388985;;['BL_Position', 'BL_Wheel', 'BR_Position', 'BR_Wheel', 'FL_Position', 'FL_Wheel', 'FR_Position', 'FR_Wheel'];(0.0, 2710.608642578125, 0.006135923322290182, 2763.9052734375, -0.0015339808305725455, 2708.933349609375, 0.0, 2768.16357421875);(0.0, 0.0, 0.0, 0.0, 0.0, 0.0, 0.0, 0.0);(5.380000114440918, 34.970001220703125, -67.25, 5.380000114440918, 16.139999389648438, -2.690000057220459, 0.0, 0.0)
2024/05/03/13:22:37.441227;201739;1714767757;472289263;;['BL_Position', 'BL_Wheel', 'BR_Position', 'BR_Wheel', 'FL_Position', 'FL_Wheel', 'FR_Position', 'FR_Wheel'];(0.0, 2710.608642578125, 0.006135923322290182, 2763.9052734375, -0.0015339808305725455, 2708.933349609375, 0.0, 2768.16357421875);(0.0, 0.0, 0.0, 0.0, 0.0, 0.0, 0.0, 0.0);(5.380000114440918, 34.970001220703125, -67.25, 5.380000114440918, 18.829999923706055, -2.690000057220459, 0.0, 0.0)
2024/05/03/13:22:37.458173;201740;1714767757;488255596;;['BL_Position', 'BL_Wheel', 'BR_Position', 'BR_Wheel', 'FL_Position', 'FL_Wheel', 'FR_Position', 'FR_Wheel'];(0.0, 2710.608642578125, 0.006135923322290182, 2763.9052734375, -0.0015339808305725455, 2708.933349609375, 0.0, 2768.16357421875);(0.0, 0.0, 0.0, 0.0, 0.0, 0.0, 0.0, 0.0);(5.380000114440918, 34.970001220703125, -67.25, 5.380000114440918, 13.450000762939453, -2.690000057220459, 0.0, 0.0)
2024/05/03/13:22:37.482603;201741;1714767757;504365595;;['BL_Position', 'BL_Wheel', 'BR_Position', 'BR_Wheel', 'FL_Position', 'FL_Wheel', 'FR_Position', 'FR_Wheel'];(0.0, 2710.608642578125, 0.006135923322290182, 2763.9052734375, -0.003067961661145091, 2708.933349609375, 0.0, 2768.16357421875);(0.0, 0.0, 0.0, 0.0, 0.0, 0.0, 0.0, 0.0);(5.380000114440918, 34.970001220703125, -67.25, 5.380000114440918, 13.450000762939453, -2.690000057220459, 0.0, 0.0)
2024/05/03/13:22:37.489969;201742;1714767757;520327317;;['BL_Position', 'BL_Wheel', 'BR_Position', 'BR_Wheel', 'FL_Position', 'FL_Wheel', 'FR_Position', 'FR_Wheel'];(0.0, 2710.608642578125, 0.006135923322290182, 2763.9052734375, -0.003067961661145091, 2708.933349609375, 0.0, 2768.16357421875);(0.0, 0.0, 0.0, 0.0, 0.0, 0.0, 0.0, 0.0);(5.380000114440918, 34.970001220703125, -64.55999755859375, 5.380000114440918, 26.900001525878906, -2.690000057220459, 0.0, 0.0)
2024/05/03/13:22:37.513373;201743;1714767757;536323595;;['BL_Position', 'BL_Wheel', 'BR_Position', 'BR_Wheel', 'FL_Position', 'FL_Wheel', 'FR_Position', 'FR_Wheel'];(0.0, 2710.608642578125, 0.006135923322290182, 2763.9052734375, -0.0015339808305725455, 2708.933349609375, 0.0, 2768.16357421875);(0.0, 0.0, 0.0, 0.0, 0.0, 0.0, 0.0, 0.0);(5.380000114440918, 34.970001220703125, -64.55999755859375, 5.380000114440918, 13.450000762939453, -2.690000057220459, 0.0, 0.0)
2024/05/03/13:22:37.520218;201744;1714767757;552302872;;['BL_Position', 'BL_Wheel', 'BR_Position', 'BR_Wheel', 'FL_Position', 'FL_Wheel', 'FR_Position', 'FR_Wheel'];(0.0, 2710.608642578125, 0.006135923322290182, 2763.9052734375, -0.0015339808305725455, 2708.933349609375, 0.0, 2768.16357421875);(0.0, 0.0, 0.0, 0.0, 0.0, 0.0, 0.0, 0.0);(5.380000114440918, 34.970001220703125, -64.55999755859375, 5.380000114440918, 8.069999694824219, -2.690000057220459, 0.0, 0.0)
2024/05/03/13:22:37.538118;201745;1714767757;568323779;;['BL_Position', 'BL_Wheel', 'BR_Position', 'BR_Wheel', 'FL_Position', 'FL_Wheel', 'FR_Position', 'FR_Wheel'];(0.0, 2710.608642578125, 0.006135923322290182, 2763.9052734375, -0.003067961661145091, 2708.933349609375, 0.0, 2768.16357421875);(0.0, 0.0, 0.0, 0.0, 0.0, 0.0, 0.0, 0.0);(5.380000114440918, 34.970001220703125, -64.55999755859375, 5.380000114440918, 10.760000228881836, -2.690000057220459, 0.0, 0.0)
2024/05/03/13:22:37.553314;201746;1714767757;584335279;;['BL_Position', 'BL_Wheel', 'BR_Position', 'BR_Wheel', 'FL_Position', 'FL_Wheel', 'FR_Position', 'FR_Wheel'];(0.0, 2710.608642578125, 0.006135923322290182, 2763.9052734375, -0.003067961661145091, 2708.933349609375, 0.0, 2768.16357421875);(0.0, 0.0, 0.0, 0.0, 0.0, 0.0, 0.0, 0.0);(5.380000114440918, 34.970001220703125, -64.55999755859375, 5.380000114440918, 18.829999923706055, -2.690000057220459, 0.0, 0.0)
2024/05/03/13:22:37.569875;201747;1714767757;600272426;;['BL_Position', 'BL_Wheel', 'BR_Position', 'BR_Wheel', 'FL_Position', 'FL_Wheel', 'FR_Position', 'FR_Wheel'];(0.0, 2710.608642578125, 0.006135923322290182, 2763.9052734375, -0.0015339808305725455, 2708.933349609375, 0.0, 2768.16357421875);(0.0, 0.0, 0.0, 0.0, 0.0, 0.0, 0.0, 0.0);(5.380000114440918, 34.970001220703125, -64.55999755859375, 5.380000114440918, 40.35000228881836, -2.690000057220459, 0.0, 0.0)
2024/05/03/13:22:37.585652;201748;1714767757;616239759;;['BL_Position', 'BL_Wheel', 'BR_Position', 'BR_Wheel', 'FL_Position', 'FL_Wheel', 'FR_Position', 'FR_Wheel'];(0.0, 2710.608642578125, 0.006135923322290182, 2763.9052734375, -0.0015339808305725455, 2708.933349609375, 0.0, 2768.16357421875);(0.0, 0.0, 0.0, 0.0, 0.0, 0.0, 0.0, 0.0);(5.380000114440918, 34.970001220703125, -67.25, 5.380000114440918, 45.72999954223633, -2.690000057220459, 0.0, 0.0)
2024/05/03/13:22:37.609864;201749;1714767757;632328833;;['BL_Position', 'BL_Wheel', 'BR_Position', 'BR_Wheel', 'FL_Position', 'FL_Wheel', 'FR_Position', 'FR_Wheel'];(0.0, 2710.608642578125, 0.006135923322290182, 2763.9052734375, -0.003067961661145091, 2708.933349609375, 0.0, 2768.161865234375);(0.0, 0.0, 0.0, 0.0, 0.0, 0.0, 0.0, 0.0);(5.380000114440918, 34.970001220703125, -67.25, 5.380000114440918, 51.11000061035156, -2.690000057220459, 0.0, 0.0)
2024/05/03/13:22:37.620408;201750;1714767757;648306629;;['BL_Position', 'BL_Wheel', 'BR_Position', 'BR_Wheel', 'FL_Position', 'FL_Wheel', 'FR_Position', 'FR_Wheel'];(0.0, 2710.608642578125, 0.006135923322290182, 2763.9052734375, -0.003067961661145091, 2708.933349609375, 0.0, 2768.16357421875);(0.0, 0.0, 0.0, 0.0, 0.0, 0.0, 0.0, 0.0);(5.380000114440918, 34.970001220703125, -67.25, 5.380000114440918, 75.31999969482422, -2.690000057220459, 0.0, 0.0)
2024/05/03/13:22:37.634377;201751;1714767757;664303740;;['BL_Position', 'BL_Wheel', 'BR_Position', 'BR_Wheel', 'FL_Position', 'FL_Wheel', 'FR_Position', 'FR_Wheel'];(0.0, 2710.608642578125, 0.006135923322290182, 2763.9052734375, -0.003067961661145091, 2708.933349609375, 0.0, 2768.16357421875);(0.0, 0.0, 0.0, 0.0, 0.0, 0.0, 0.0, 0.0);(5.380000114440918, 34.970001220703125, -67.25, 5.380000114440918, 69.94000244140625, -2.690000057220459, 0.0, 0.0)
2024/05/03/13:22:37.649509;201752;1714767757;680326943;;['BL_Position', 'BL_Wheel', 'BR_Position', 'BR_Wheel', 'FL_Position', 'FL_Wheel', 'FR_Position', 'FR_Wheel'];(0.0, 2710.608642578125, 0.006135923322290182, 2763.9052734375, -0.0015339808305725455, 2708.933349609375, 0.0, 2768.16357421875);(0.0, 0.0, 0.0, 0.0, 0.0, 0.0, 0.0, 0.0);(5.380000114440918, 34.970001220703125, -67.25, 5.380000114440918, 72.6300048828125, -2.690000057220459, 0.0, 0.0)
2024/05/03/13:22:37.665662;201753;1714767757;696338776;;['BL_Position', 'BL_Wheel', 'BR_Position', 'BR_Wheel', 'FL_Position', 'FL_Wheel', 'FR_Position', 'FR_Wheel'];(0.0, 2710.608642578125, 0.006135923322290182, 2763.9052734375, -0.0015339808305725455, 2708.933349609375, 0.0, 2768.16357421875);(0.0, 0.0, 0.0, 0.0, 0.0, 0.0, 0.0, 0.0);(5.380000114440918, 34.970001220703125, -67.25, 5.380000114440918, 51.11000061035156, -2.690000057220459, 0.0, 0.0)
2024/05/03/13:22:37.687405;201754;1714767757;712286665;;['BL_Position', 'BL_Wheel', 'BR_Position', 'BR_Wheel', 'FL_Position', 'FL_Wheel', 'FR_Position', 'FR_Wheel'];(0.0, 2710.608642578125, 0.006135923322290182, 2763.9052734375, -0.003067961661145091, 2708.933349609375, 0.0, 2768.16357421875);(0.0, 0.0, 0.0, 0.0, 0.0, 0.0, 0.0, 0.0);(5.380000114440918, 34.970001220703125, -67.25, 5.380000114440918, 59.18000030517578, -2.690000057220459, 0.0, 0.0)
2024/05/03/13:22:37.712889;201755;1714767757;731300590;;['BL_Position', 'BL_Wheel', 'BR_Position', 'BR_Wheel', 'FL_Position', 'FL_Wheel', 'FR_Position', 'FR_Wheel'];(0.0, 2710.608642578125, 0.006135923322290182, 2763.9052734375, -0.003067961661145091, 2708.933349609375, 0.0, 2768.16357421875);(0.0, 0.0, 0.0, 0.0, 0.0, 0.0, 0.0, 0.0);(5.380000114440918, 34.970001220703125, -67.25, 5.380000114440918, 43.040000915527344, -2.690000057220459, 0.0, 0.0)
2024/05/03/13:22:37.718656;201756;1714767757;744467386;;['BL_Position', 'BL_Wheel', 'BR_Position', 'BR_Wheel', 'FL_Position', 'FL_Wheel', 'FR_Position', 'FR_Wheel'];(0.0, 2710.608642578125, 0.006135923322290182, 2763.9052734375, -0.0015339808305725455, 2708.933349609375, 0.0, 2768.16357421875);(0.0, 0.0, 0.0, 0.0, 0.0, 0.0, 0.0, 0.0);(5.380000114440918, 34.970001220703125, -67.25, 5.380000114440918, 67.25, -2.690000057220459, 0.0, 0.0)
2024/05/03/13:22:37.730823;201757;1714767757;760307738;;['BL_Position', 'BL_Wheel', 'BR_Position', 'BR_Wheel', 'FL_Position', 'FL_Wheel', 'FR_Position', 'FR_Wheel'];(0.0, 2710.608642578125, 0.006135923322290182, 2763.9052734375, -0.003067961661145091, 2708.933349609375, 0.0, 2768.16357421875);(0.0, 0.0, 0.0, 0.0, 0.0, 0.0, 0.0, 0.0);(5.380000114440918, 34.970001220703125, -67.25, 5.380000114440918, 32.279998779296875, -2.690000057220459, 0.0, 0.0)
2024/05/03/13:22:37.744984;201758;1714767757;776313348;;['BL_Position', 'BL_Wheel', 'BR_Position', 'BR_Wheel', 'FL_Position', 'FL_Wheel', 'FR_Position', 'FR_Wheel'];(0.0, 2710.608642578125, 0.006135923322290182, 2763.9052734375, -0.003067961661145091, 2708.933349609375, 0.0, 2768.16357421875);(0.0, 0.0, 0.0, 0.0, 0.0, 0.0, 0.0, 0.0);(5.380000114440918, 34.970001220703125, -67.25, 5.380000114440918, 43.040000915527344, -2.690000057220459, 0.0, 0.0)
2024/05/03/13:22:37.760863;201759;1714767757;792268292;;['BL_Position', 'BL_Wheel', 'BR_Position', 'BR_Wheel', 'FL_Position', 'FL_Wheel', 'FR_Position', 'FR_Wheel'];(0.0, 2710.608642578125, 0.006135923322290182, 2763.9052734375, -0.003067961661145091, 2708.933349609375, 0.0, 2768.16357421875);(0.0, 0.0, 0.0, 0.0, 0.0, 0.0, 0.0, 0.0);(5.380000114440918, 34.970001220703125, -67.25, 5.380000114440918, 43.040000915527344, -2.690000057220459, 0.0, 0.0)
2024/05/03/13:22:37.789098;201760;1714767757;808366792;;['BL_Position', 'BL_Wheel', 'BR_Position', 'BR_Wheel', 'FL_Position', 'FL_Wheel', 'FR_Position', 'FR_Wheel'];(0.0, 2710.608642578125, 0.006135923322290182, 2763.9052734375, -0.0015339808305725455, 2708.933349609375, 0.0, 2768.16357421875);(0.0, 0.0, 0.0, 0.0, 0.0, 0.0, 0.0, 0.0);(5.380000114440918, 34.970001220703125, -67.25, 5.380000114440918, 21.520000457763672, -2.690000057220459, 0.0, 0.0)
2024/05/03/13:22:37.794115;201761;1714767757;824373606;;['BL_Position', 'BL_Wheel', 'BR_Position', 'BR_Wheel', 'FL_Position', 'FL_Wheel', 'FR_Position', 'FR_Wheel'];(0.0, 2710.608642578125, 0.006135923322290182, 2763.9052734375, -0.003067961661145091, 2708.933349609375, 0.0, 2768.16357421875);(0.0, 0.0, 0.0, 0.0, 0.0, 0.0, 0.0, 0.0);(5.380000114440918, 34.970001220703125, -67.25, 5.380000114440918, 26.900001525878906, -2.690000057220459, 0.0, 0.0)
2024/05/03/13:22:37.809713;201762;1714767757;840356773;;['BL_Position', 'BL_Wheel', 'BR_Position', 'BR_Wheel', 'FL_Position', 'FL_Wheel', 'FR_Position', 'FR_Wheel'];(0.0, 2710.608642578125, 0.006135923322290182, 2763.9052734375, -0.003067961661145091, 2708.933349609375, 0.0, 2768.16357421875);(0.0, 0.0, 0.0, 0.0, 0.0, 0.0, 0.0, 0.0);(5.380000114440918, 34.970001220703125, -67.25, 5.380000114440918, 21.520000457763672, -2.690000057220459, 0.0, 0.0)
2024/05/03/13:22:37.825596;201763;1714767757;856343569;;['BL_Position', 'BL_Wheel', 'BR_Position', 'BR_Wheel', 'FL_Position', 'FL_Wheel', 'FR_Position', 'FR_Wheel'];(0.0, 2710.608642578125, 0.006135923322290182, 2763.9052734375, -0.003067961661145091, 2708.933349609375, 0.0, 2768.16357421875);(0.0, 0.0, 0.0, 0.0, 0.0, 0.0, 0.0, 0.0);(5.380000114440918, 34.970001220703125, -64.55999755859375, 5.380000114440918, 8.069999694824219, -2.690000057220459, 0.0, 0.0)
2024/05/03/13:22:37.841457;201764;1714767757;872292161;;['BL_Position', 'BL_Wheel', 'BR_Position', 'BR_Wheel', 'FL_Position', 'FL_Wheel', 'FR_Position', 'FR_Wheel'];(0.0, 2710.608642578125, 0.006135923322290182, 2763.9052734375, -0.0015339808305725455, 2708.933349609375, 0.0, 2768.16357421875);(0.0, 0.0, 0.0, 0.0, 0.0, 0.0, 0.0, 0.0);(5.380000114440918, 34.970001220703125, -64.55999755859375, 5.380000114440918, 2.690000057220459, -2.690000057220459, 0.0, 0.0)
2024/05/03/13:22:37.858710;201765;1714767757;888303457;;['BL_Position', 'BL_Wheel', 'BR_Position', 'BR_Wheel', 'FL_Position', 'FL_Wheel', 'FR_Position', 'FR_Wheel'];(0.0, 2710.608642578125, 0.006135923322290182, 2763.9052734375, -0.0015339808305725455, 2708.933349609375, 0.0, 2768.16357421875);(0.0, 0.0, 0.0, 0.0, 0.0, 0.0, 0.0, 0.0);(5.380000114440918, 34.970001220703125, -64.55999755859375, 5.380000114440918, 16.139999389648438, -2.690000057220459, 0.0, 0.0)
2024/05/03/13:22:37.875373;201766;1714767757;904280401;;['BL_Position', 'BL_Wheel', 'BR_Position', 'BR_Wheel', 'FL_Position', 'FL_Wheel', 'FR_Position', 'FR_Wheel'];(0.0, 2710.608642578125, 0.006135923322290182, 2763.9052734375, -0.0015339808305725455, 2708.933349609375, 0.0, 2768.16357421875);(0.0, 0.0, 0.0, 0.0, 0.0, 0.0, 0.0, 0.0);(5.380000114440918, 34.970001220703125, -64.55999755859375, 5.380000114440918, 51.11000061035156, -2.690000057220459, 0.0, 0.0)
2024/05/03/13:22:37.894789;201767;1714767757;920269660;;['BL_Position', 'BL_Wheel', 'BR_Position', 'BR_Wheel', 'FL_Position', 'FL_Wheel', 'FR_Position', 'FR_Wheel'];(0.0, 2710.608642578125, 0.006135923322290182, 2763.9052734375, -0.003067961661145091, 2708.933349609375, 0.0, 2768.16357421875);(0.0, 0.0, 0.0, 0.0, 0.0, 0.0, 0.0, 0.0);(5.380000114440918, 34.970001220703125, -64.55999755859375, 5.380000114440918, 56.4900016784668, -2.690000057220459, 0.0, 0.0)
2024/05/03/13:22:37.916567;201768;1714767757;936267419;;['BL_Position', 'BL_Wheel', 'BR_Position', 'BR_Wheel', 'FL_Position', 'FL_Wheel', 'FR_Position', 'FR_Wheel'];(0.0, 2710.608642578125, 0.006135923322290182, 2763.9052734375, -0.003067961661145091, 2708.933349609375, 0.0, 2768.16357421875);(0.0, 0.0, 0.0, 0.0, 0.0, 0.0, 0.0, 0.0);(5.380000114440918, 34.970001220703125, -64.55999755859375, 5.380000114440918, 61.87000274658203, -2.690000057220459, 0.0, 0.0)
2024/05/03/13:22:37.922439;201769;1714767757;952273492;;['BL_Position', 'BL_Wheel', 'BR_Position', 'BR_Wheel', 'FL_Position', 'FL_Wheel', 'FR_Position', 'FR_Wheel'];(0.0, 2710.608642578125, 0.006135923322290182, 2763.9052734375, -0.0015339808305725455, 2708.933349609375, 0.0, 2768.16357421875);(0.0, 0.0, 0.0, 0.0, 0.0, 0.0, 0.0, 0.0);(5.380000114440918, 34.970001220703125, -64.55999755859375, 5.380000114440918, 53.80000305175781, -2.690000057220459, 0.0, 0.0)
2024/05/03/13:22:37.937817;201770;1714767757;968253288;;['BL_Position', 'BL_Wheel', 'BR_Position', 'BR_Wheel', 'FL_Position', 'FL_Wheel', 'FR_Position', 'FR_Wheel'];(0.0, 2710.608642578125, 0.006135923322290182, 2763.9052734375, -0.003067961661145091, 2708.933349609375, 0.0, 2768.16357421875);(0.0, 0.0, 0.0, 0.0, 0.0, 0.0, 0.0, 0.0);(5.380000114440918, 34.970001220703125, -64.55999755859375, 5.380000114440918, 43.040000915527344, -2.690000057220459, 0.0, 0.0)
2024/05/03/13:22:37.952671;201771;1714767757;984254362;;['BL_Position', 'BL_Wheel', 'BR_Position', 'BR_Wheel', 'FL_Position', 'FL_Wheel', 'FR_Position', 'FR_Wheel'];(0.0, 2710.608642578125, 0.006135923322290182, 2763.9052734375, -0.0015339808305725455, 2708.933349609375, 0.0, 2768.16357421875);(0.0, 0.0, 0.0, 0.0, 0.0, 0.0, 0.0, 0.0);(5.380000114440918, 34.970001220703125, -64.55999755859375, 5.380000114440918, 10.760000228881836, -2.690000057220459, 0.0, 0.0)
2024/05/03/13:22:37.970006;201772;1714767758;254139;;['BL_Position', 'BL_Wheel', 'BR_Position', 'BR_Wheel', 'FL_Position', 'FL_Wheel', 'FR_Position', 'FR_Wheel'];(0.0, 2710.608642578125, 0.006135923322290182, 2763.9052734375, -0.003067961661145091, 2708.933349609375, 0.0, 2768.161865234375);(0.0, 0.0, 0.0, 0.0, 0.0, 0.0, 0.0, 0.0);(5.380000114440918, 34.970001220703125, -64.55999755859375, 5.380000114440918, 13.450000762939453, -2.690000057220459, 0.0, 0.0)
2024/05/03/13:22:37.994280;201773;1714767758;16285009;;['BL_Position', 'BL_Wheel', 'BR_Position', 'BR_Wheel', 'FL_Position', 'FL_Wheel', 'FR_Position', 'FR_Wheel'];(0.0, 2710.608642578125, 0.006135923322290182, 2763.9052734375, -0.0015339808305725455, 2708.933349609375, 0.0, 2768.16357421875);(0.0, 0.0, 0.0, 0.0, 0.0, 0.0, 0.0, 0.0);(5.380000114440918, 34.970001220703125, -64.55999755859375, 5.380000114440918, 2.690000057220459, -2.690000057220459, 0.0, 0.0)
2024/05/03/13:22:38.001105;201774;1714767758;32839028;;['BL_Position', 'BL_Wheel', 'BR_Position', 'BR_Wheel', 'FL_Position', 'FL_Wheel', 'FR_Position', 'FR_Wheel'];(0.0, 2710.608642578125, 0.006135923322290182, 2763.9052734375, -0.0015339808305725455, 2708.933349609375, 0.0, 2768.16357421875);(0.0, 0.0, 0.0, 0.0, 0.0, 0.0, 0.0, 0.0);(5.380000114440918, 34.970001220703125, -64.55999755859375, 5.380000114440918, 10.760000228881836, -2.690000057220459, 0.0, 0.0)
2024/05/03/13:22:38.021403;201775;1714767758;48283416;;['BL_Position', 'BL_Wheel', 'BR_Position', 'BR_Wheel', 'FL_Position', 'FL_Wheel', 'FR_Position', 'FR_Wheel'];(0.0, 2710.608642578125, 0.006135923322290182, 2763.9052734375, -0.0015339808305725455, 2708.933349609375, 0.0, 2768.16357421875);(0.0, 0.0, 0.0, 0.0, 0.0, 0.0, 0.0, 0.0);(5.380000114440918, 34.970001220703125, -64.55999755859375, 5.380000114440918, 8.069999694824219, -2.690000057220459, 0.0, 0.0)
2024/05/03/13:22:38.034960;201776;1714767758;64504916;;['BL_Position', 'BL_Wheel', 'BR_Position', 'BR_Wheel', 'FL_Position', 'FL_Wheel', 'FR_Position', 'FR_Wheel'];(0.0, 2710.608642578125, 0.0076699042692780495, 2763.9052734375, -0.003067961661145091, 2708.933349609375, 0.0, 2768.16357421875);(0.0, 0.0, 0.0, 0.0, 0.0, 0.0, 0.0, 0.0);(766.6500244140625, 107.60000610351562, 763.9600219726562, 61.87000274658203, -750.510009765625, 67.25, -747.8200073242188, 48.42000198364258)
2024/05/03/13:22:38.050064;201777;1714767758;80317064;;['BL_Position', 'BL_Wheel', 'BR_Position', 'BR_Wheel', 'FL_Position', 'FL_Wheel', 'FR_Position', 'FR_Wheel'];(0.03374757990241051, 2710.61474609375, 0.03988350182771683, 2763.911376953125, -0.03681553900241852, 2708.939697265625, -0.03528155758976936, 2768.16650390625);(0.0959232971072197, 0.0, 0.0959232971072197, 0.0, -0.0959232971072197, 0.0, -0.0959232971072197, 0.0);(242.10000610351562, 185.61000061035156, 293.2099914550781, 88.77000427246094, -255.5500030517578, 129.1199951171875, -242.10000610351562, 110.29000091552734)
2024/05/03/13:22:38.065923;201778;1714767758;96327082;;['BL_Position', 'BL_Wheel', 'BR_Position', 'BR_Wheel', 'FL_Position', 'FL_Wheel', 'FR_Position', 'FR_Wheel'];(0.09357283264398575, 2710.63623046875, 0.10124273598194122, 2763.92041015625, -0.0951068103313446, 2708.9609375, -0.09817477315664291, 2768.180419921875);(0.5995206236839294, 0.14388494193553925, 0.6235014200210571, 0.07194247096776962, -0.6235014200210571, 0.14388494193553925, -0.6235014200210571, 0.07194247096776962);(-107.60000610351562, 196.37001037597656, 172.16000366210938, 96.84000396728516, 126.43000030517578, 147.9499969482422, -107.60000610351562, 131.80999755859375)
2024/05/03/13:22:38.081795;201779;1714767758;112294933;;['BL_Position', 'BL_Wheel', 'BR_Position', 'BR_Wheel', 'FL_Position', 'FL_Wheel', 'FR_Position', 'FR_Wheel'];(0.1288543939590454, 2710.66845703125, 0.16106799244880676, 2763.946533203125, -0.1365242898464203, 2708.996337890625, -0.16873788833618164, 2768.20654296875);(1.2949645519256592, 0.455635666847229, 1.4628303050994873, 0.2877698838710785, -1.366907000541687, 0.455635666847229, -1.5107918977737427, 0.2877698838710785);(-110.29000091552734, 196.37001037597656, -121.05000305175781, 110.29000091552734, 174.85000610351562, 145.260009765625, 215.20001220703125, 104.91000366210938)
2024/05/03/13:22:38.098576;201780;1714767758;128395803;;['BL_Position', 'BL_Wheel', 'BR_Position', 'BR_Wheel', 'FL_Position', 'FL_Wheel', 'FR_Position', 'FR_Wheel'];(0.13805827498435974, 2710.7158203125, 0.18561168015003204, 2763.98046875, -0.15033012628555298, 2709.04541015625, -0.20555342733860016, 2768.240234375);(1.774580955505371, 0.9592329859733582, 2.1822550296783447, 0.6474822759628296, -1.8944851160049438, 0.9832137823104858, -2.3741016387939453, 0.6714630722999573);(-26.900001525878906, 177.54000854492188, -45.72999954223633, 102.22000122070312, 56.4900016784668, 123.74000549316406, 177.54000854492188, 72.6300048828125)
2024/05/03/13:22:38.115165;201781;1714767758;144288914;;['BL_Position', 'BL_Wheel', 'BR_Position', 'BR_Wheel', 'FL_Position', 'FL_Wheel', 'FR_Position', 'FR_Wheel'];(0.13805827498435974, 2710.77587890625, 0.1871456652879715, 2764.023193359375, -0.15033012628555298, 2709.105224609375, -0.21168935298919678, 2768.28173828125);(1.9184659719467163, 1.654676914215088, 2.470024824142456, 1.127098798751831, -2.0623509883880615, 1.6786576509475708, -2.8297371864318848, 1.1750603914260864);(5.380000114440918, 153.3300018310547, 43.040000915527344, 75.31999969482422, 0.0, 96.84000396728516, 32.279998779296875, 48.42000198364258)
2024/05/03/13:22:38.151339;201782;1714767758;160309747;;['BL_Position', 'BL_Wheel', 'BR_Position', 'BR_Wheel', 'FL_Position', 'FL_Wheel', 'FR_Position', 'FR_Wheel'];(0.1365242898464203, 2710.841796875, 0.1871456652879715, 2764.073974609375, -0.15033012628555298, 2709.17431640625, -0.21168935298919678, 2768.332275390625);(1.4628303050994873, 2.3980824947357178, 2.086331605911255, 1.7506002187728882, -1.606715202331543, 2.4460439682006836, -2.517986536026001, 1.7266193628311157);(2.690000057220459, 123.74000549316406, 40.35000228881836, 53.80000305175781, 0.0, 72.6300048828125, 0.0, 32.279998779296875)
2024/05/03/13:22:38.157501;201783;1714767758;176324376;;['BL_Position', 'BL_Wheel', 'BR_Position', 'BR_Wheel', 'FL_Position', 'FL_Wheel', 'FR_Position', 'FR_Wheel'];(0.1365242898464203, 2710.913818359375, 0.18561168015003204, 2764.127685546875, -0.15033012628555298, 2709.246337890625, -0.21322333812713623, 2768.384521484375);(0.7913671731948853, 3.0935263633728027, 1.318945288658142, 2.2781782150268555, -0.911271333694458, 3.1414880752563477, -1.7266193628311157, 2.2302167415618896);(0.0, 99.52999877929688, 26.900001525878906, 53.80000305175781, 5.380000114440918, 64.55999755859375, 0.0, 24.21000099182129)
2024/05/03/13:22:38.167534;201784;1714767758;192280691;;['BL_Position', 'BL_Wheel', 'BR_Position', 'BR_Wheel', 'FL_Position', 'FL_Wheel', 'FR_Position', 'FR_Wheel'];(0.1365242898464203, 2710.98583984375, 0.1871456652879715, 2764.181396484375, -0.15033012628555298, 2709.320068359375, -0.21168935298919678, 2768.4365234375);(0.33573153614997864, 3.6690661907196045, 0.6235014200210571, 2.685852289199829, -0.40767401456832886, 3.7410085201263428, -0.8872904777526855, 2.637890577316284);(0.0, 88.77000427246094, 18.829999923706055, 48.42000198364258, 0.0, 48.42000198364258, 2.690000057220459, 8.069999694824219)
2024/05/03/13:22:38.178412;201785;1714767758;208699135;;['BL_Position', 'BL_Wheel', 'BR_Position', 'BR_Wheel', 'FL_Position', 'FL_Wheel', 'FR_Position', 'FR_Wheel'];(0.1365242898464203, 2711.065673828125, 0.18561168015003204, 2764.239501953125, -0.15033012628555298, 2709.4013671875, -0.21168935298919678, 2768.496337890625);(0.0959232971072197, 4.124701976776123, 0.21582742035388947, 3.045564651489258, -0.11990412324666977, 4.196644306182861, -0.33573153614997864, 2.9736223220825195);(0.0, 75.31999969482422, 10.760000228881836, 40.35000228881836, 2.690000057220459, 37.65999984741211, 0.0, 0.0)
2024/05/03/13:22:38.205743;201786;1714767758;224222838;;['BL_Position', 'BL_Wheel', 'BR_Position', 'BR_Wheel', 'FL_Position', 'FL_Wheel', 'FR_Position', 'FR_Wheel'];(0.1365242898464203, 2711.142333984375, 0.1871456652879715, 2764.29931640625, -0.15033012628555298, 2709.482666015625, -0.21168935298919678, 2768.55615234375);(0.023980824276804924, 4.388490676879883, 0.07194247096776962, 3.261392116546631, -0.04796164855360985, 4.532375812530518, -0.11990412324666977, 3.213430404663086);(0.0, 67.25, 29.59000015258789, 37.65999984741211, 0.0, 32.279998779296875, 2.690000057220459, 0.0)
2024/05/03/13:22:38.228024;201787;1714767758;240299264;;['BL_Position', 'BL_Wheel', 'BR_Position', 'BR_Wheel', 'FL_Position', 'FL_Wheel', 'FR_Position', 'FR_Wheel'];(0.1365242898464203, 2711.217529296875, 0.18561168015003204, 2764.35302734375, -0.15033012628555298, 2709.55615234375, -0.21168935298919678, 2768.613037109375);(0.0, 4.556356430053711, 0.023980824276804924, 3.429257869720459, 0.0, 4.700241565704346, -0.04796164855360985, 3.381296157836914);(2.690000057220459, 67.25, 37.65999984741211, 37.65999984741211, 0.0, 32.279998779296875, 0.0, 0.0)
