time;.header.seq;.header.stamp.secs;.header.stamp.nsecs;.header.frame_id;.name;.position;.velocity;.effort
2024/05/03/13:16:16.738415;177944;1714767376;766214525;;['BL_Position', 'BL_Wheel', 'BR_Position', 'BR_Wheel', 'FL_Position', 'FL_Wheel', 'FR_Position', 'FR_Wheel'];(0.0, 2244.482421875, 0.004601942375302315, 2461.898193359375, -0.0015339808305725455, 2242.67236328125, 0.0, 2466.257568359375);(0.0, 0.0, 0.0, 0.0, 0.0, 0.0, 0.0, 0.0);(0.0, 40.35000228881836, -61.87000274658203, 5.380000114440918, 29.59000015258789, -2.690000057220459, 0.0, 0.0)
2024/05/03/13:16:16.752662;177945;1714767376;782229395;;['BL_Position', 'BL_Wheel', 'BR_Position', 'BR_Wheel', 'FL_Position', 'FL_Wheel', 'FR_Position', 'FR_Wheel'];(0.0, 2244.482421875, 0.006135923322290182, 2461.896484375, -0.0015339808305725455, 2242.67236328125, 0.0, 2466.257568359375);(0.0, 0.0, 0.0, 0.0, 0.0, 0.0, 0.0, 0.0);(2.690000057220459, 40.35000228881836, -61.87000274658203, 5.380000114440918, 10.760000228881836, -2.690000057220459, 0.0, 0.0)
2024/05/03/13:16:16.787531;177946;1714767376;798234820;;['BL_Position', 'BL_Wheel', 'BR_Position', 'BR_Wheel', 'FL_Position', 'FL_Wheel', 'FR_Position', 'FR_Wheel'];(0.0, 2244.482421875, 0.006135923322290182, 2461.896484375, -0.0015339808305725455, 2242.67236328125, 0.0, 2466.257568359375);(0.0, 0.0, 0.0, 0.0, 0.0, 0.0, 0.0, 0.0);(2.690000057220459, 40.35000228881836, -59.18000030517578, 5.380000114440918, 24.21000099182129, -2.690000057220459, 0.0, 0.0)
2024/05/03/13:16:16.792188;177947;1714767376;814248875;;['BL_Position', 'BL_Wheel', 'BR_Position', 'BR_Wheel', 'FL_Position', 'FL_Wheel', 'FR_Position', 'FR_Wheel'];(0.0, 2244.482421875, 0.006135923322290182, 2461.898193359375, -0.003067961661145091, 2242.67236328125, 0.0, 2466.257568359375);(0.0, 0.0, 0.0, 0.0, 0.0, 0.0, 0.0, 0.0);(2.690000057220459, 40.35000228881836, -61.87000274658203, 5.380000114440918, 16.139999389648438, -2.690000057220459, 0.0, 0.0)
2024/05/03/13:16:16.801848;177948;1714767376;830246134;;['BL_Position', 'BL_Wheel', 'BR_Position', 'BR_Wheel', 'FL_Position', 'FL_Wheel', 'FR_Position', 'FR_Wheel'];(0.0, 2244.482421875, 0.006135923322290182, 2461.896484375, -0.0015339808305725455, 2242.67236328125, 0.0, 2466.257568359375);(0.0, 0.0, 0.0, 0.0, 0.0, 0.0, 0.0, 0.0);(2.690000057220459, 40.35000228881836, -64.55999755859375, 5.380000114440918, 24.21000099182129, -2.690000057220459, 0.0, 0.0)
2024/05/03/13:16:16.818497;177949;1714767376;846197949;;['BL_Position', 'BL_Wheel', 'BR_Position', 'BR_Wheel', 'FL_Position', 'FL_Wheel', 'FR_Position', 'FR_Wheel'];(0.0, 2244.482421875, 0.006135923322290182, 2461.898193359375, -0.0015339808305725455, 2242.67236328125, 0.0, 2466.257568359375);(0.0, 0.0, 0.0, 0.0, 0.0, 0.0, 0.0, 0.0);(2.690000057220459, 40.35000228881836, -59.18000030517578, 5.380000114440918, 34.970001220703125, -2.690000057220459, 0.0, 0.0)
2024/05/03/13:16:16.833754;177950;1714767376;862245282;;['BL_Position', 'BL_Wheel', 'BR_Position', 'BR_Wheel', 'FL_Position', 'FL_Wheel', 'FR_Position', 'FR_Wheel'];(0.0, 2244.482421875, 0.006135923322290182, 2461.896484375, -0.0015339808305725455, 2242.670654296875, 0.0, 2466.25927734375);(0.0, 0.0, 0.0, 0.0, 0.0, 0.0, 0.0, 0.0);(2.690000057220459, 40.35000228881836, -59.18000030517578, 5.380000114440918, 13.450000762939453, -2.690000057220459, 0.0, 0.0)
2024/05/03/13:16:16.854590;177951;1714767376;878243318;;['BL_Position', 'BL_Wheel', 'BR_Position', 'BR_Wheel', 'FL_Position', 'FL_Wheel', 'FR_Position', 'FR_Wheel'];(0.0, 2244.482421875, 0.006135923322290182, 2461.898193359375, -0.0015339808305725455, 2242.67236328125, 0.0, 2466.25927734375);(0.0, 0.0, 0.0, 0.0, 0.0, 0.0, 0.0, 0.0);(2.690000057220459, 40.35000228881836, -61.87000274658203, 5.380000114440918, 13.450000762939453, -2.690000057220459, 0.0, 0.0)
2024/05/03/13:16:16.865913;177952;1714767376;894258170;;['BL_Position', 'BL_Wheel', 'BR_Position', 'BR_Wheel', 'FL_Position', 'FL_Wheel', 'FR_Position', 'FR_Wheel'];(0.0, 2244.482421875, 0.006135923322290182, 2461.896484375, -0.0015339808305725455, 2242.670654296875, 0.0, 2466.257568359375);(0.0, 0.0, 0.0, 0.0, 0.0, 0.0, 0.0, 0.0);(2.690000057220459, 40.35000228881836, -61.87000274658203, 5.380000114440918, 16.139999389648438, -2.690000057220459, 0.0, 0.0)
2024/05/03/13:16:16.890777;177953;1714767376;910682521;;['BL_Position', 'BL_Wheel', 'BR_Position', 'BR_Wheel', 'FL_Position', 'FL_Wheel', 'FR_Position', 'FR_Wheel'];(0.0, 2244.482421875, 0.006135923322290182, 2461.896484375, -0.0015339808305725455, 2242.67236328125, 0.0, 2466.257568359375);(0.0, 0.0, 0.0, 0.0, 0.0, 0.0, 0.0, 0.0);(2.690000057220459, 40.35000228881836, -61.87000274658203, 5.380000114440918, 26.900001525878906, -2.690000057220459, 0.0, 0.0)
2024/05/03/13:16:16.899807;177954;1714767376;926386669;;['BL_Position', 'BL_Wheel', 'BR_Position', 'BR_Wheel', 'FL_Position', 'FL_Wheel', 'FR_Position', 'FR_Wheel'];(0.0, 2244.482421875, 0.006135923322290182, 2461.898193359375, -0.0015339808305725455, 2242.67236328125, 0.0, 2466.257568359375);(0.0, 0.0, 0.0, 0.0, 0.0, 0.0, 0.0, 0.0);(2.690000057220459, 40.35000228881836, -61.87000274658203, 5.380000114440918, 21.520000457763672, -2.690000057220459, 0.0, 0.0)
2024/05/03/13:16:16.913986;177955;1714767376;942333002;;['BL_Position', 'BL_Wheel', 'BR_Position', 'BR_Wheel', 'FL_Position', 'FL_Wheel', 'FR_Position', 'FR_Wheel'];(0.0, 2244.482421875, 0.004601942375302315, 2461.896484375, -0.0015339808305725455, 2242.67236328125, 0.0, 2466.257568359375);(0.0, 0.0, 0.0, 0.0, 0.0, 0.0, 0.0, 0.0);(2.690000057220459, 40.35000228881836, -61.87000274658203, 5.380000114440918, 16.139999389648438, -2.690000057220459, 0.0, 0.0)
2024/05/03/13:16:16.930077;177956;1714767376;958234724;;['BL_Position', 'BL_Wheel', 'BR_Position', 'BR_Wheel', 'FL_Position', 'FL_Wheel', 'FR_Position', 'FR_Wheel'];(0.0, 2244.482421875, 0.006135923322290182, 2461.898193359375, -0.003067961661145091, 2242.67236328125, 0.0, 2466.257568359375);(0.0, 0.0, 0.0, 0.0, 0.0, 0.0, 0.0, 0.0);(2.690000057220459, 40.35000228881836, -61.87000274658203, 5.380000114440918, 16.139999389648438, -2.690000057220459, 0.0, 0.0)
2024/05/03/13:16:16.956990;177957;1714767376;974201779;;['BL_Position', 'BL_Wheel', 'BR_Position', 'BR_Wheel', 'FL_Position', 'FL_Wheel', 'FR_Position', 'FR_Wheel'];(0.0, 2244.482421875, 0.006135923322290182, 2461.898193359375, -0.0015339808305725455, 2242.670654296875, 0.0, 2466.257568359375);(0.0, 0.0, 0.0, 0.0, 0.0, 0.0, 0.0, 0.0);(2.690000057220459, 40.35000228881836, -61.87000274658203, 5.380000114440918, 40.35000228881836, -2.690000057220459, 0.0, 0.0)
2024/05/03/13:16:16.961887;177958;1714767376;990211852;;['BL_Position', 'BL_Wheel', 'BR_Position', 'BR_Wheel', 'FL_Position', 'FL_Wheel', 'FR_Position', 'FR_Wheel'];(0.0, 2244.482421875, 0.004601942375302315, 2461.896484375, -0.0015339808305725455, 2242.67236328125, 0.0, 2466.257568359375);(0.0, 0.0, 0.0, 0.0, 0.0, 0.0, 0.0, 0.0);(0.0, 40.35000228881836, -59.18000030517578, 5.380000114440918, 32.279998779296875, -2.690000057220459, 0.0, 0.0)
2024/05/03/13:16:16.991552;177959;1714767377;6230259;;['BL_Position', 'BL_Wheel', 'BR_Position', 'BR_Wheel', 'FL_Position', 'FL_Wheel', 'FR_Position', 'FR_Wheel'];(0.0, 2244.482421875, 0.006135923322290182, 2461.896484375, -0.0015339808305725455, 2242.67236328125, 0.0, 2466.257568359375);(0.0, 0.0, 0.0, 0.0, 0.0, 0.0, 0.0, 0.0);(0.0, 40.35000228881836, -61.87000274658203, 5.380000114440918, 16.139999389648438, -2.690000057220459, 0.0, 0.0)
2024/05/03/13:16:16.996805;177960;1714767377;22225185;;['BL_Position', 'BL_Wheel', 'BR_Position', 'BR_Wheel', 'FL_Position', 'FL_Wheel', 'FR_Position', 'FR_Wheel'];(0.0, 2244.482421875, 0.006135923322290182, 2461.896484375, -0.0015339808305725455, 2242.67236328125, 0.0, 2466.257568359375);(0.0, 0.0, 0.0, 0.0, 0.0, 0.0, 0.0, 0.0);(0.0, 40.35000228881836, -61.87000274658203, 5.380000114440918, 13.450000762939453, -2.690000057220459, 0.0, 0.0)
2024/05/03/13:16:17.010016;177961;1714767377;38281536;;['BL_Position', 'BL_Wheel', 'BR_Position', 'BR_Wheel', 'FL_Position', 'FL_Wheel', 'FR_Position', 'FR_Wheel'];(0.0, 2244.482421875, 0.006135923322290182, 2461.896484375, -0.0015339808305725455, 2242.67236328125, 0.0, 2466.25927734375);(0.0, 0.0, 0.0, 0.0, 0.0, 0.0, 0.0, 0.0);(0.0, 40.35000228881836, -59.18000030517578, 5.380000114440918, 13.450000762939453, -2.690000057220459, 0.0, 0.0)
2024/05/03/13:16:17.025894;177962;1714767377;54248666;;['BL_Position', 'BL_Wheel', 'BR_Position', 'BR_Wheel', 'FL_Position', 'FL_Wheel', 'FR_Position', 'FR_Wheel'];(0.0, 2244.482421875, 0.006135923322290182, 2461.896484375, -0.0015339808305725455, 2242.670654296875, 0.0, 2466.257568359375);(0.0, 0.0, 0.0, 0.0, 0.0, 0.0, 0.0, 0.0);(0.0, 40.35000228881836, -61.87000274658203, 5.380000114440918, 37.65999984741211, -2.690000057220459, 0.0, 0.0)
2024/05/03/13:16:17.042191;177963;1714767377;70196647;;['BL_Position', 'BL_Wheel', 'BR_Position', 'BR_Wheel', 'FL_Position', 'FL_Wheel', 'FR_Position', 'FR_Wheel'];(0.0, 2244.482421875, 0.006135923322290182, 2461.898193359375, -0.0015339808305725455, 2242.67236328125, 0.0, 2466.257568359375);(0.0, 0.0, 0.0, 0.0, 0.0, 0.0, 0.0, 0.0);(0.0, 40.35000228881836, -61.87000274658203, 5.380000114440918, 34.970001220703125, -2.690000057220459, 0.0, 0.0)
2024/05/03/13:16:17.059006;177964;1714767377;86244906;;['BL_Position', 'BL_Wheel', 'BR_Position', 'BR_Wheel', 'FL_Position', 'FL_Wheel', 'FR_Position', 'FR_Wheel'];(0.0, 2244.482421875, 0.006135923322290182, 2461.898193359375, -0.0015339808305725455, 2242.67236328125, 0.0, 2466.257568359375);(0.0, 0.0, 0.0, 0.0, 0.0, 0.0, 0.0, 0.0);(0.0, 40.35000228881836, -61.87000274658203, 5.380000114440918, 26.900001525878906, -2.690000057220459, 0.0, 0.0)
2024/05/03/13:16:17.094323;177965;1714767377;102208127;;['BL_Position', 'BL_Wheel', 'BR_Position', 'BR_Wheel', 'FL_Position', 'FL_Wheel', 'FR_Position', 'FR_Wheel'];(0.0, 2244.482421875, 0.006135923322290182, 2461.898193359375, -0.0015339808305725455, 2242.67236328125, 0.0, 2466.257568359375);(0.0, 0.0, 0.0, 0.0, 0.0, 0.0, 0.0, 0.0);(0.0, 40.35000228881836, -59.18000030517578, 5.380000114440918, 13.450000762939453, -2.690000057220459, 0.0, 0.0)
2024/05/03/13:16:17.099557;177966;1714767377;118193979;;['BL_Position', 'BL_Wheel', 'BR_Position', 'BR_Wheel', 'FL_Position', 'FL_Wheel', 'FR_Position', 'FR_Wheel'];(0.0, 2244.482421875, 0.006135923322290182, 2461.896484375, -0.0015339808305725455, 2242.67236328125, 0.0, 2466.257568359375);(0.0, 0.0, 0.0, 0.0, 0.0, 0.0, 0.0, 0.0);(0.0, 40.35000228881836, -59.18000030517578, 5.380000114440918, 8.069999694824219, -2.690000057220459, 0.0, 0.0)
2024/05/03/13:16:17.106217;177967;1714767377;134205441;;['BL_Position', 'BL_Wheel', 'BR_Position', 'BR_Wheel', 'FL_Position', 'FL_Wheel', 'FR_Position', 'FR_Wheel'];(0.0, 2244.482421875, 0.006135923322290182, 2461.896484375, -0.0015339808305725455, 2242.67236328125, 0.0, 2466.257568359375);(0.0, 0.0, 0.0, 0.0, 0.0, 0.0, 0.0, 0.0);(0.0, 40.35000228881836, -59.18000030517578, 5.380000114440918, 18.829999923706055, -2.690000057220459, 0.0, 0.0)
2024/05/03/13:16:17.123039;177968;1714767377;150187700;;['BL_Position', 'BL_Wheel', 'BR_Position', 'BR_Wheel', 'FL_Position', 'FL_Wheel', 'FR_Position', 'FR_Wheel'];(0.0, 2244.482421875, 0.006135923322290182, 2461.898193359375, -0.0015339808305725455, 2242.67236328125, 0.0, 2466.257568359375);(0.0, 0.0, 0.0, 0.0, 0.0, 0.0, 0.0, 0.0);(0.0, 40.35000228881836, -61.87000274658203, 5.380000114440918, 24.21000099182129, -2.690000057220459, 0.0, 0.0)
2024/05/03/13:16:17.137828;177969;1714767377;166147052;;['BL_Position', 'BL_Wheel', 'BR_Position', 'BR_Wheel', 'FL_Position', 'FL_Wheel', 'FR_Position', 'FR_Wheel'];(0.0, 2244.482421875, 0.006135923322290182, 2461.898193359375, -0.003067961661145091, 2242.67236328125, 0.0, 2466.257568359375);(0.0, 0.0, 0.0, 0.0, 0.0, 0.0, 0.0, 0.0);(0.0, 40.35000228881836, -59.18000030517578, 5.380000114440918, 34.970001220703125, -2.690000057220459, 0.0, 0.0)
2024/05/03/13:16:17.158534;177970;1714767377;182170422;;['BL_Position', 'BL_Wheel', 'BR_Position', 'BR_Wheel', 'FL_Position', 'FL_Wheel', 'FR_Position', 'FR_Wheel'];(0.0, 2244.482421875, 0.006135923322290182, 2461.898193359375, -0.0015339808305725455, 2242.67236328125, 0.0, 2466.257568359375);(0.0, 0.0, 0.0, 0.0, 0.0, 0.0, 0.0, 0.0);(2.690000057220459, 40.35000228881836, -61.87000274658203, 5.380000114440918, 34.970001220703125, -2.690000057220459, 0.0, 0.0)
2024/05/03/13:16:17.170084;177971;1714767377;198226532;;['BL_Position', 'BL_Wheel', 'BR_Position', 'BR_Wheel', 'FL_Position', 'FL_Wheel', 'FR_Position', 'FR_Wheel'];(0.0, 2244.482421875, 0.006135923322290182, 2461.898193359375, -0.0015339808305725455, 2242.67236328125, 0.0, 2466.25927734375);(0.0, 0.0, 0.0, 0.0, 0.0, 0.0, 0.0, 0.0);(2.690000057220459, 40.35000228881836, -61.87000274658203, 5.380000114440918, 24.21000099182129, -2.690000057220459, 0.0, 0.0)
2024/05/03/13:16:17.197459;177972;1714767377;214754143;;['BL_Position', 'BL_Wheel', 'BR_Position', 'BR_Wheel', 'FL_Position', 'FL_Wheel', 'FR_Position', 'FR_Wheel'];(0.0, 2244.482421875, 0.006135923322290182, 2461.898193359375, -0.003067961661145091, 2242.670654296875, 0.0, 2466.257568359375);(0.0, 0.0, 0.0, 0.0, 0.0, 0.0, 0.0, 0.0);(0.0, 40.35000228881836, -61.87000274658203, 5.380000114440918, 16.139999389648438, -2.690000057220459, 0.0, 0.0)
2024/05/03/13:16:17.202188;177973;1714767377;230315161;;['BL_Position', 'BL_Wheel', 'BR_Position', 'BR_Wheel', 'FL_Position', 'FL_Wheel', 'FR_Position', 'FR_Wheel'];(0.0, 2244.482421875, 0.006135923322290182, 2461.896484375, -0.0015339808305725455, 2242.67236328125, 0.0, 2466.257568359375);(0.0, 0.0, 0.0, 0.0, 0.0, 0.0, 0.0, 0.0);(0.0, 40.35000228881836, -61.87000274658203, 5.380000114440918, 18.829999923706055, -2.690000057220459, 0.0, 0.0)
2024/05/03/13:16:17.218518;177974;1714767377;246235179;;['BL_Position', 'BL_Wheel', 'BR_Position', 'BR_Wheel', 'FL_Position', 'FL_Wheel', 'FR_Position', 'FR_Wheel'];(0.0, 2244.482421875, 0.006135923322290182, 2461.898193359375, -0.003067961661145091, 2242.67236328125, 0.0, 2466.257568359375);(0.0, 0.0, 0.0, 0.0, 0.0, 0.0, 0.0, 0.0);(0.0, 40.35000228881836, -61.87000274658203, 5.380000114440918, 10.760000228881836, -2.690000057220459, 0.0, 0.0)
2024/05/03/13:16:17.234649;177975;1714767377;262192864;;['BL_Position', 'BL_Wheel', 'BR_Position', 'BR_Wheel', 'FL_Position', 'FL_Wheel', 'FR_Position', 'FR_Wheel'];(0.0, 2244.482421875, 0.006135923322290182, 2461.898193359375, -0.0015339808305725455, 2242.67236328125, 0.0, 2466.257568359375);(0.0, 0.0, 0.0, 0.0, 0.0, 0.0, 0.0, 0.0);(0.0, 40.35000228881836, -61.87000274658203, 5.380000114440918, 13.450000762939453, -2.690000057220459, 0.0, 0.0)
2024/05/03/13:16:17.249954;177976;1714767377;278180530;;['BL_Position', 'BL_Wheel', 'BR_Position', 'BR_Wheel', 'FL_Position', 'FL_Wheel', 'FR_Position', 'FR_Wheel'];(0.0, 2244.482421875, 0.006135923322290182, 2461.896484375, -0.0015339808305725455, 2242.67236328125, 0.0, 2466.257568359375);(0.0, 0.0, 0.0, 0.0, 0.0, 0.0, 0.0, 0.0);(0.0, 40.35000228881836, -61.87000274658203, 5.380000114440918, 16.139999389648438, -2.690000057220459, 0.0, 0.0)
2024/05/03/13:16:17.265800;177977;1714767377;294231178;;['BL_Position', 'BL_Wheel', 'BR_Position', 'BR_Wheel', 'FL_Position', 'FL_Wheel', 'FR_Position', 'FR_Wheel'];(0.0, 2244.482421875, 0.006135923322290182, 2461.896484375, -0.0015339808305725455, 2242.67236328125, 0.0, 2466.257568359375);(0.0, 0.0, 0.0, 0.0, 0.0, 0.0, 0.0, 0.0);(0.0, 40.35000228881836, -61.87000274658203, 5.380000114440918, 18.829999923706055, -2.690000057220459, 0.0, 0.0)
2024/05/03/13:16:17.300732;177978;1714767377;310292103;;['BL_Position', 'BL_Wheel', 'BR_Position', 'BR_Wheel', 'FL_Position', 'FL_Wheel', 'FR_Position', 'FR_Wheel'];(0.0, 2244.482421875, 0.006135923322290182, 2461.898193359375, -0.003067961661145091, 2242.67236328125, 0.0, 2466.257568359375);(0.0, 0.0, 0.0, 0.0, 0.0, 0.0, 0.0, 0.0);(0.0, 40.35000228881836, -61.87000274658203, 5.380000114440918, 21.520000457763672, -2.690000057220459, 0.0, 0.0)
2024/05/03/13:16:17.305700;177979;1714767377;326264825;;['BL_Position', 'BL_Wheel', 'BR_Position', 'BR_Wheel', 'FL_Position', 'FL_Wheel', 'FR_Position', 'FR_Wheel'];(0.0, 2244.482421875, 0.006135923322290182, 2461.898193359375, -0.0015339808305725455, 2242.67236328125, 0.0, 2466.257568359375);(0.0, 0.0, 0.0, 0.0, 0.0, 0.0, 0.0, 0.0);(0.0, 40.35000228881836, -59.18000030517578, 5.380000114440918, 24.21000099182129, -2.690000057220459, 0.0, 0.0)
2024/05/03/13:16:17.313442;177980;1714767377;342224658;;['BL_Position', 'BL_Wheel', 'BR_Position', 'BR_Wheel', 'FL_Position', 'FL_Wheel', 'FR_Position', 'FR_Wheel'];(0.0, 2244.482421875, 0.006135923322290182, 2461.896484375, -0.0015339808305725455, 2242.67236328125, 0.0, 2466.257568359375);(0.0, 0.0, 0.0, 0.0, 0.0, 0.0, 0.0, 0.0);(0.0, 40.35000228881836, -61.87000274658203, 5.380000114440918, 13.450000762939453, -2.690000057220459, 0.0, 0.0)
2024/05/03/13:16:17.329185;177981;1714767377;358194176;;['BL_Position', 'BL_Wheel', 'BR_Position', 'BR_Wheel', 'FL_Position', 'FL_Wheel', 'FR_Position', 'FR_Wheel'];(0.0, 2244.482421875, 0.006135923322290182, 2461.896484375, -0.003067961661145091, 2242.67236328125, 0.0, 2466.257568359375);(0.0, 0.0, 0.0, 0.0, 0.0, 0.0, 0.0, 0.0);(0.0, 40.35000228881836, -61.87000274658203, 5.380000114440918, 16.139999389648438, -2.690000057220459, 0.0, 0.0)
2024/05/03/13:16:17.345920;177982;1714767377;374218954;;['BL_Position', 'BL_Wheel', 'BR_Position', 'BR_Wheel', 'FL_Position', 'FL_Wheel', 'FR_Position', 'FR_Wheel'];(0.0, 2244.482421875, 0.006135923322290182, 2461.898193359375, -0.003067961661145091, 2242.67236328125, 0.0, 2466.25927734375);(0.0, 0.0, 0.0, 0.0, 0.0, 0.0, 0.0, 0.0);(0.0, 40.35000228881836, -61.87000274658203, 5.380000114440918, 34.970001220703125, -2.690000057220459, 0.0, 0.0)
2024/05/03/13:16:17.363356;177983;1714767377;390196083;;['BL_Position', 'BL_Wheel', 'BR_Position', 'BR_Wheel', 'FL_Position', 'FL_Wheel', 'FR_Position', 'FR_Wheel'];(0.0, 2244.482421875, 0.004601942375302315, 2461.898193359375, -0.0015339808305725455, 2242.67236328125, 0.0, 2466.257568359375);(0.0, 0.0, 0.0, 0.0, 0.0, 0.0, 0.0, 0.0);(0.0, 40.35000228881836, -61.87000274658203, 5.380000114440918, 32.279998779296875, -2.690000057220459, 0.0, 0.0)
2024/05/03/13:16:17.377913;177984;1714767377;406233064;;['BL_Position', 'BL_Wheel', 'BR_Position', 'BR_Wheel', 'FL_Position', 'FL_Wheel', 'FR_Position', 'FR_Wheel'];(0.0, 2244.482421875, 0.004601942375302315, 2461.896484375, -0.003067961661145091, 2242.67236328125, 0.0, 2466.257568359375);(0.0, 0.0, 0.0, 0.0, 0.0, 0.0, 0.0, 0.0);(0.0, 40.35000228881836, -61.87000274658203, 5.380000114440918, 16.139999389648438, -2.690000057220459, 0.0, 0.0)
2024/05/03/13:16:17.403314;177985;1714767377;422192212;;['BL_Position', 'BL_Wheel', 'BR_Position', 'BR_Wheel', 'FL_Position', 'FL_Wheel', 'FR_Position', 'FR_Wheel'];(0.0, 2244.482421875, 0.006135923322290182, 2461.898193359375, -0.0015339808305725455, 2242.67236328125, 0.0, 2466.257568359375);(0.0, 0.0, 0.0, 0.0, 0.0, 0.0, 0.0, 0.0);(0.0, 40.35000228881836, -61.87000274658203, 5.380000114440918, 16.139999389648438, -2.690000057220459, 0.0, 0.0)
2024/05/03/13:16:17.411485;177986;1714767377;439305785;;['BL_Position', 'BL_Wheel', 'BR_Position', 'BR_Wheel', 'FL_Position', 'FL_Wheel', 'FR_Position', 'FR_Wheel'];(0.0, 2244.482421875, 0.006135923322290182, 2461.898193359375, -0.0015339808305725455, 2242.67236328125, 0.0, 2466.257568359375);(0.0, 0.0, 0.0, 0.0, 0.0, 0.0, 0.0, 0.0);(0.0, 40.35000228881836, -61.87000274658203, 5.380000114440918, 24.21000099182129, -2.690000057220459, 0.0, 0.0)
2024/05/03/13:16:17.424706;177987;1714767377;454271544;;['BL_Position', 'BL_Wheel', 'BR_Position', 'BR_Wheel', 'FL_Position', 'FL_Wheel', 'FR_Position', 'FR_Wheel'];(0.0, 2244.482421875, 0.006135923322290182, 2461.898193359375, -0.003067961661145091, 2242.670654296875, 0.0, 2466.257568359375);(0.0, 0.0, 0.0, 0.0, 0.0, 0.0, 0.0, 0.0);(0.0, 40.35000228881836, -59.18000030517578, 5.380000114440918, 10.760000228881836, -2.690000057220459, 0.0, 0.0)
2024/05/03/13:16:17.441929;177988;1714767377;470187822;;['BL_Position', 'BL_Wheel', 'BR_Position', 'BR_Wheel', 'FL_Position', 'FL_Wheel', 'FR_Position', 'FR_Wheel'];(0.0, 2244.482421875, 0.006135923322290182, 2461.896484375, -0.0015339808305725455, 2242.67236328125, 0.0, 2466.257568359375);(0.0, 0.0, 0.0, 0.0, 0.0, 0.0, 0.0, 0.0);(0.0, 40.35000228881836, -61.87000274658203, 5.380000114440918, 13.450000762939453, -2.690000057220459, 0.0, 0.0)
2024/05/03/13:16:17.460231;177989;1714767377;486175969;;['BL_Position', 'BL_Wheel', 'BR_Position', 'BR_Wheel', 'FL_Position', 'FL_Wheel', 'FR_Position', 'FR_Wheel'];(0.0, 2244.482421875, 0.006135923322290182, 2461.898193359375, -0.0015339808305725455, 2242.67236328125, 0.0, 2466.257568359375);(0.0, 0.0, 0.0, 0.0, 0.0, 0.0, 0.0, 0.0);(0.0, 40.35000228881836, -61.87000274658203, 5.380000114440918, 8.069999694824219, -2.690000057220459, 0.0, 0.0)
2024/05/03/13:16:17.474909;177990;1714767377;502180228;;['BL_Position', 'BL_Wheel', 'BR_Position', 'BR_Wheel', 'FL_Position', 'FL_Wheel', 'FR_Position', 'FR_Wheel'];(0.0, 2244.482421875, 0.006135923322290182, 2461.896484375, -0.0015339808305725455, 2242.67236328125, 0.0, 2466.25927734375);(0.0, 0.0, 0.0, 0.0, 0.0, 0.0, 0.0, 0.0);(0.0, 40.35000228881836, -61.87000274658203, 5.380000114440918, 16.139999389648438, -2.690000057220459, 0.0, 0.0)
2024/05/03/13:16:17.504923;177991;1714767377;518197746;;['BL_Position', 'BL_Wheel', 'BR_Position', 'BR_Wheel', 'FL_Position', 'FL_Wheel', 'FR_Position', 'FR_Wheel'];(0.0, 2244.482421875, 0.006135923322290182, 2461.898193359375, -0.0015339808305725455, 2242.67236328125, 0.0, 2466.257568359375);(0.0, 0.0, 0.0, 0.0, 0.0, 0.0, 0.0, 0.0);(0.0, 40.35000228881836, -61.87000274658203, 5.380000114440918, 13.450000762939453, -2.690000057220459, 0.0, 0.0)
2024/05/03/13:16:17.510063;177992;1714767377;534196876;;['BL_Position', 'BL_Wheel', 'BR_Position', 'BR_Wheel', 'FL_Position', 'FL_Wheel', 'FR_Position', 'FR_Wheel'];(0.0, 2244.482421875, 0.006135923322290182, 2461.896484375, -0.0015339808305725455, 2242.67236328125, 0.0, 2466.257568359375);(0.0, 0.0, 0.0, 0.0, 0.0, 0.0, 0.0, 0.0);(2.690000057220459, 40.35000228881836, -61.87000274658203, 5.380000114440918, 24.21000099182129, -2.690000057220459, 0.0, 0.0)
2024/05/03/13:16:17.521829;177993;1714767377;550178690;;['BL_Position', 'BL_Wheel', 'BR_Position', 'BR_Wheel', 'FL_Position', 'FL_Wheel', 'FR_Position', 'FR_Wheel'];(0.0, 2244.482421875, 0.006135923322290182, 2461.896484375, -0.0015339808305725455, 2242.67236328125, 0.0, 2466.257568359375);(0.0, 0.0, 0.0, 0.0, 0.0, 0.0, 0.0, 0.0);(2.690000057220459, 40.35000228881836, -61.87000274658203, 5.380000114440918, 32.279998779296875, -2.690000057220459, 0.0, 0.0)
2024/05/03/13:16:17.537939;177994;1714767377;566178745;;['BL_Position', 'BL_Wheel', 'BR_Position', 'BR_Wheel', 'FL_Position', 'FL_Wheel', 'FR_Position', 'FR_Wheel'];(0.0, 2244.482421875, 0.006135923322290182, 2461.898193359375, -0.0015339808305725455, 2242.670654296875, 0.0, 2466.257568359375);(0.0, 0.0, 0.0, 0.0, 0.0, 0.0, 0.0, 0.0);(2.690000057220459, 40.35000228881836, -61.87000274658203, 5.380000114440918, 18.829999923706055, -2.690000057220459, 0.0, 0.0)
2024/05/03/13:16:17.553865;177995;1714767377;582166171;;['BL_Position', 'BL_Wheel', 'BR_Position', 'BR_Wheel', 'FL_Position', 'FL_Wheel', 'FR_Position', 'FR_Wheel'];(0.0, 2244.482421875, 0.006135923322290182, 2461.896484375, -0.0015339808305725455, 2242.67236328125, 0.0, 2466.257568359375);(0.0, 0.0, 0.0, 0.0, 0.0, 0.0, 0.0, 0.0);(0.0, 40.35000228881836, -61.87000274658203, 5.380000114440918, 10.760000228881836, -2.690000057220459, 0.0, 0.0)
2024/05/03/13:16:17.571373;177996;1714767377;598122559;;['BL_Position', 'BL_Wheel', 'BR_Position', 'BR_Wheel', 'FL_Position', 'FL_Wheel', 'FR_Position', 'FR_Wheel'];(0.0, 2244.482421875, 0.006135923322290182, 2461.898193359375, -0.003067961661145091, 2242.670654296875, 0.0, 2466.257568359375);(0.0, 0.0, 0.0, 0.0, 0.0, 0.0, 0.0, 0.0);(2.690000057220459, 40.35000228881836, -56.4900016784668, 5.380000114440918, 21.520000457763672, -2.690000057220459, 0.0, 0.0)
2024/05/03/13:16:17.609132;177997;1714767377;614210244;;['BL_Position', 'BL_Wheel', 'BR_Position', 'BR_Wheel', 'FL_Position', 'FL_Wheel', 'FR_Position', 'FR_Wheel'];(0.0, 2244.482421875, 0.006135923322290182, 2461.896484375, -0.003067961661145091, 2242.67236328125, 0.0, 2466.257568359375);(0.0, 0.0, 0.0, 0.0, 0.0, 0.0, 0.0, 0.0);(0.0, 40.35000228881836, -61.87000274658203, 5.380000114440918, 21.520000457763672, -2.690000057220459, 0.0, 0.0)
2024/05/03/13:16:17.616626;177998;1714767377;630194984;;['BL_Position', 'BL_Wheel', 'BR_Position', 'BR_Wheel', 'FL_Position', 'FL_Wheel', 'FR_Position', 'FR_Wheel'];(0.0, 2244.482421875, 0.006135923322290182, 2461.896484375, -0.0015339808305725455, 2242.67236328125, 0.0, 2466.257568359375);(0.0, 0.0, 0.0, 0.0, 0.0, 0.0, 0.0, 0.0);(2.690000057220459, 40.35000228881836, -59.18000030517578, 5.380000114440918, 24.21000099182129, -2.690000057220459, 0.0, 0.0)
2024/05/03/13:16:17.621762;177999;1714767377;646285558;;['BL_Position', 'BL_Wheel', 'BR_Position', 'BR_Wheel', 'FL_Position', 'FL_Wheel', 'FR_Position', 'FR_Wheel'];(0.0, 2244.482421875, 0.006135923322290182, 2461.896484375, -0.0015339808305725455, 2242.67236328125, 0.0, 2466.257568359375);(0.0, 0.0, 0.0, 0.0, 0.0, 0.0, 0.0, 0.0);(2.690000057220459, 40.35000228881836, -61.87000274658203, 5.380000114440918, 13.450000762939453, -2.690000057220459, 0.0, 0.0)
2024/05/03/13:16:17.633919;178000;1714767377;662228687;;['BL_Position', 'BL_Wheel', 'BR_Position', 'BR_Wheel', 'FL_Position', 'FL_Wheel', 'FR_Position', 'FR_Wheel'];(0.0, 2244.482421875, 0.006135923322290182, 2461.896484375, -0.0015339808305725455, 2242.67236328125, 0.0, 2466.257568359375);(0.0, 0.0, 0.0, 0.0, 0.0, 0.0, 0.0, 0.0);(0.0, 40.35000228881836, -59.18000030517578, 5.380000114440918, 29.59000015258789, -2.690000057220459, 0.0, 0.0)
2024/05/03/13:16:17.650295;178001;1714767377;678182038;;['BL_Position', 'BL_Wheel', 'BR_Position', 'BR_Wheel', 'FL_Position', 'FL_Wheel', 'FR_Position', 'FR_Wheel'];(0.0, 2244.482421875, 0.006135923322290182, 2461.898193359375, -0.0015339808305725455, 2242.67236328125, 0.0, 2466.257568359375);(0.0, 0.0, 0.0, 0.0, 0.0, 0.0, 0.0, 0.0);(0.0, 40.35000228881836, -61.87000274658203, 5.380000114440918, 34.970001220703125, -2.690000057220459, 0.0, 0.0)
2024/05/03/13:16:17.674451;178002;1714767377;694194260;;['BL_Position', 'BL_Wheel', 'BR_Position', 'BR_Wheel', 'FL_Position', 'FL_Wheel', 'FR_Position', 'FR_Wheel'];(0.0, 2244.482421875, 0.006135923322290182, 2461.898193359375, -0.003067961661145091, 2242.67236328125, 0.0, 2466.25927734375);(0.0, 0.0, 0.0, 0.0, 0.0, 0.0, 0.0, 0.0);(0.0, 40.35000228881836, -61.87000274658203, 5.380000114440918, 24.21000099182129, -2.690000057220459, 0.0, 0.0)
2024/05/03/13:16:17.682279;178003;1714767377;710186945;;['BL_Position', 'BL_Wheel', 'BR_Position', 'BR_Wheel', 'FL_Position', 'FL_Wheel', 'FR_Position', 'FR_Wheel'];(0.0, 2244.482421875, 0.006135923322290182, 2461.898193359375, -0.003067961661145091, 2242.67236328125, 0.0, 2466.257568359375);(0.0, 0.0, 0.0, 0.0, 0.0, 0.0, 0.0, 0.0);(0.0, 40.35000228881836, -61.87000274658203, 5.380000114440918, 24.21000099182129, -2.690000057220459, 0.0, 0.0)
2024/05/03/13:16:17.706725;178004;1714767377;726363630;;['BL_Position', 'BL_Wheel', 'BR_Position', 'BR_Wheel', 'FL_Position', 'FL_Wheel', 'FR_Position', 'FR_Wheel'];(0.0, 2244.482421875, 0.006135923322290182, 2461.898193359375, -0.003067961661145091, 2242.67236328125, 0.0, 2466.257568359375);(0.0, 0.0, 0.0, 0.0, 0.0, 0.0, 0.0, 0.0);(0.0, 40.35000228881836, -61.87000274658203, 5.380000114440918, 18.829999923706055, -2.690000057220459, 0.0, 0.0)
2024/05/03/13:16:17.713996;178005;1714767377;742217685;;['BL_Position', 'BL_Wheel', 'BR_Position', 'BR_Wheel', 'FL_Position', 'FL_Wheel', 'FR_Position', 'FR_Wheel'];(0.0, 2244.482421875, 0.006135923322290182, 2461.896484375, -0.003067961661145091, 2242.67236328125, 0.0, 2466.257568359375);(0.0, 0.0, 0.0, 0.0, 0.0, 0.0, 0.0, 0.0);(0.0, 40.35000228881836, -61.87000274658203, 5.380000114440918, 26.900001525878906, -2.690000057220459, 0.0, 0.0)
2024/05/03/13:16:17.729947;178006;1714767377;758179629;;['BL_Position', 'BL_Wheel', 'BR_Position', 'BR_Wheel', 'FL_Position', 'FL_Wheel', 'FR_Position', 'FR_Wheel'];(0.0, 2244.482421875, 0.006135923322290182, 2461.898193359375, -0.0015339808305725455, 2242.67236328125, 0.0, 2466.257568359375);(0.0, 0.0, 0.0, 0.0, 0.0, 0.0, 0.0, 0.0);(0.0, 40.35000228881836, -61.87000274658203, 5.380000114440918, 29.59000015258789, -2.690000057220459, 0.0, 0.0)
2024/05/03/13:16:17.746644;178007;1714767377;774223147;;['BL_Position', 'BL_Wheel', 'BR_Position', 'BR_Wheel', 'FL_Position', 'FL_Wheel', 'FR_Position', 'FR_Wheel'];(0.0, 2244.482421875, 0.004601942375302315, 2461.896484375, -0.003067961661145091, 2242.67236328125, 0.0, 2466.257568359375);(0.0, 0.0, 0.0, 0.0, 0.0, 0.0, 0.0, 0.0);(0.0, 40.35000228881836, -61.87000274658203, 5.380000114440918, 10.760000228881836, -2.690000057220459, 0.0, 0.0)
2024/05/03/13:16:17.763760;178008;1714767377;790194536;;['BL_Position', 'BL_Wheel', 'BR_Position', 'BR_Wheel', 'FL_Position', 'FL_Wheel', 'FR_Position', 'FR_Wheel'];(0.0, 2244.482421875, 0.006135923322290182, 2461.898193359375, -0.0015339808305725455, 2242.67236328125, 0.0, 2466.257568359375);(0.0, 0.0, 0.0, 0.0, 0.0, 0.0, 0.0, 0.0);(0.0, 40.35000228881836, -61.87000274658203, 5.380000114440918, 10.760000228881836, -2.690000057220459, 0.0, 0.0)
2024/05/03/13:16:17.776835;178009;1714767377;806350350;;['BL_Position', 'BL_Wheel', 'BR_Position', 'BR_Wheel', 'FL_Position', 'FL_Wheel', 'FR_Position', 'FR_Wheel'];(0.0, 2244.482421875, 0.006135923322290182, 2461.896484375, -0.0015339808305725455, 2242.67236328125, 0.0, 2466.25927734375);(0.0, 0.0, 0.0, 0.0, 0.0, 0.0, 0.0, 0.0);(0.0, 40.35000228881836, -61.87000274658203, 5.380000114440918, 18.829999923706055, -2.690000057220459, 0.0, 0.0)
2024/05/03/13:16:17.810999;178010;1714767377;822227738;;['BL_Position', 'BL_Wheel', 'BR_Position', 'BR_Wheel', 'FL_Position', 'FL_Wheel', 'FR_Position', 'FR_Wheel'];(0.0, 2244.482421875, 0.006135923322290182, 2461.896484375, -0.0015339808305725455, 2242.67236328125, 0.0, 2466.257568359375);(0.0, 0.0, 0.0, 0.0, 0.0, 0.0, 0.0, 0.0);(0.0, 40.35000228881836, -61.87000274658203, 5.380000114440918, 24.21000099182129, -2.690000057220459, 0.0, 0.0)
2024/05/03/13:16:17.816655;178011;1714767377;838259423;;['BL_Position', 'BL_Wheel', 'BR_Position', 'BR_Wheel', 'FL_Position', 'FL_Wheel', 'FR_Position', 'FR_Wheel'];(0.0, 2244.482421875, 0.006135923322290182, 2461.898193359375, -0.0015339808305725455, 2242.67236328125, 0.0, 2466.257568359375);(0.0, 0.0, 0.0, 0.0, 0.0, 0.0, 0.0, 0.0);(0.0, 40.35000228881836, -61.87000274658203, 5.380000114440918, 18.829999923706055, -2.690000057220459, 0.0, 0.0)
2024/05/03/13:16:17.827169;178012;1714767377;854212164;;['BL_Position', 'BL_Wheel', 'BR_Position', 'BR_Wheel', 'FL_Position', 'FL_Wheel', 'FR_Position', 'FR_Wheel'];(0.0, 2244.482421875, 0.006135923322290182, 2461.898193359375, -0.0015339808305725455, 2242.670654296875, 0.0, 2466.257568359375);(0.0, 0.0, 0.0, 0.0, 0.0, 0.0, 0.0, 0.0);(0.0, 40.35000228881836, -61.87000274658203, 5.380000114440918, 13.450000762939453, -2.690000057220459, 0.0, 0.0)
2024/05/03/13:16:17.842996;178013;1714767377;870503459;;['BL_Position', 'BL_Wheel', 'BR_Position', 'BR_Wheel', 'FL_Position', 'FL_Wheel', 'FR_Position', 'FR_Wheel'];(0.0, 2244.482421875, 0.006135923322290182, 2461.898193359375, -0.0015339808305725455, 2242.67236328125, 0.0, 2466.257568359375);(0.0, 0.0, 0.0, 0.0, 0.0, 0.0, 0.0, 0.0);(0.0, 40.35000228881836, -61.87000274658203, 5.380000114440918, 43.040000915527344, -2.690000057220459, 0.0, 0.0)
2024/05/03/13:16:17.856777;178014;1714767377;886170459;;['BL_Position', 'BL_Wheel', 'BR_Position', 'BR_Wheel', 'FL_Position', 'FL_Wheel', 'FR_Position', 'FR_Wheel'];(0.0, 2244.482421875, 0.006135923322290182, 2461.898193359375, -0.0015339808305725455, 2242.67236328125, 0.0, 2466.257568359375);(0.0, 0.0, 0.0, 0.0, 0.0, 0.0, 0.0, 0.0);(0.0, 40.35000228881836, -59.18000030517578, 5.380000114440918, 16.139999389648438, -2.690000057220459, 0.0, 0.0)
2024/05/03/13:16:17.878595;178015;1714767377;902190440;;['BL_Position', 'BL_Wheel', 'BR_Position', 'BR_Wheel', 'FL_Position', 'FL_Wheel', 'FR_Position', 'FR_Wheel'];(0.0, 2244.482421875, 0.006135923322290182, 2461.898193359375, -0.0015339808305725455, 2242.67236328125, 0.0, 2466.25927734375);(0.0, 0.0, 0.0, 0.0, 0.0, 0.0, 0.0, 0.0);(0.0, 40.35000228881836, -59.18000030517578, 5.380000114440918, 8.069999694824219, -2.690000057220459, 0.0, 0.0)
2024/05/03/13:16:17.890481;178016;1714767377;918181736;;['BL_Position', 'BL_Wheel', 'BR_Position', 'BR_Wheel', 'FL_Position', 'FL_Wheel', 'FR_Position', 'FR_Wheel'];(0.0, 2244.482421875, 0.006135923322290182, 2461.896484375, -0.0015339808305725455, 2242.67236328125, 0.0, 2466.257568359375);(0.0, 0.0, 0.0, 0.0, 0.0, 0.0, 0.0, 0.0);(0.0, 40.35000228881836, -61.87000274658203, 5.380000114440918, 16.139999389648438, -2.690000057220459, 0.0, 0.0)
2024/05/03/13:16:17.914365;178017;1714767377;934151328;;['BL_Position', 'BL_Wheel', 'BR_Position', 'BR_Wheel', 'FL_Position', 'FL_Wheel', 'FR_Position', 'FR_Wheel'];(0.0, 2244.482421875, 0.006135923322290182, 2461.898193359375, -0.003067961661145091, 2242.67236328125, 0.0, 2466.257568359375);(0.0, 0.0, 0.0, 0.0, 0.0, 0.0, 0.0, 0.0);(0.0, 40.35000228881836, -59.18000030517578, 5.380000114440918, 26.900001525878906, -2.690000057220459, 0.0, 0.0)
2024/05/03/13:16:17.923067;178018;1714767377;950131420;;['BL_Position', 'BL_Wheel', 'BR_Position', 'BR_Wheel', 'FL_Position', 'FL_Wheel', 'FR_Position', 'FR_Wheel'];(0.0, 2244.482421875, 0.006135923322290182, 2461.896484375, -0.0015339808305725455, 2242.67236328125, 0.0, 2466.257568359375);(0.0, 0.0, 0.0, 0.0, 0.0, 0.0, 0.0, 0.0);(0.0, 40.35000228881836, -61.87000274658203, 5.380000114440918, 21.520000457763672, -2.690000057220459, 0.0, 0.0)
2024/05/03/13:16:17.938033;178019;1714767377;966140309;;['BL_Position', 'BL_Wheel', 'BR_Position', 'BR_Wheel', 'FL_Position', 'FL_Wheel', 'FR_Position', 'FR_Wheel'];(0.0, 2244.482421875, 0.006135923322290182, 2461.896484375, -0.0015339808305725455, 2242.670654296875, 0.0, 2466.257568359375);(0.0, 0.0, 0.0, 0.0, 0.0, 0.0, 0.0, 0.0);(0.0, 40.35000228881836, -61.87000274658203, 5.380000114440918, 13.450000762939453, -2.690000057220459, 0.0, 0.0)
2024/05/03/13:16:17.953892;178020;1714767377;982133883;;['BL_Position', 'BL_Wheel', 'BR_Position', 'BR_Wheel', 'FL_Position', 'FL_Wheel', 'FR_Position', 'FR_Wheel'];(0.0, 2244.482421875, 0.006135923322290182, 2461.898193359375, -0.003067961661145091, 2242.67236328125, 0.0, 2466.257568359375);(0.0, 0.0, 0.0, 0.0, 0.0, 0.0, 0.0, 0.0);(0.0, 40.35000228881836, -59.18000030517578, 5.380000114440918, 18.829999923706055, -2.690000057220459, 0.0, 0.0)
2024/05/03/13:16:17.972685;178021;1714767377;998144197;;['BL_Position', 'BL_Wheel', 'BR_Position', 'BR_Wheel', 'FL_Position', 'FL_Wheel', 'FR_Position', 'FR_Wheel'];(0.0, 2244.482421875, 0.006135923322290182, 2461.898193359375, -0.0015339808305725455, 2242.67236328125, 0.0, 2466.257568359375);(0.0, 0.0, 0.0, 0.0, 0.0, 0.0, 0.0, 0.0);(0.0, 40.35000228881836, -59.18000030517578, 5.380000114440918, 21.520000457763672, -2.690000057220459, 0.0, 0.0)
2024/05/03/13:16:17.985832;178022;1714767378;14151641;;['BL_Position', 'BL_Wheel', 'BR_Position', 'BR_Wheel', 'FL_Position', 'FL_Wheel', 'FR_Position', 'FR_Wheel'];(0.0, 2244.482421875, 0.006135923322290182, 2461.898193359375, -0.0015339808305725455, 2242.67236328125, 0.0, 2466.257568359375);(0.0, 0.0, 0.0, 0.0, 0.0, 0.0, 0.0, 0.0);(0.0, 40.35000228881836, -59.18000030517578, 5.380000114440918, 26.900001525878906, -2.690000057220459, 0.0, 0.0)
2024/05/03/13:16:18.014793;178023;1714767378;30726066;;['BL_Position', 'BL_Wheel', 'BR_Position', 'BR_Wheel', 'FL_Position', 'FL_Wheel', 'FR_Position', 'FR_Wheel'];(0.0, 2244.482421875, 0.006135923322290182, 2461.898193359375, -0.0015339808305725455, 2242.670654296875, 0.0, 2466.257568359375);(0.0, 0.0, 0.0, 0.0, 0.0, 0.0, 0.0, 0.0);(0.0, 40.35000228881836, -59.18000030517578, 5.380000114440918, 16.139999389648438, -2.690000057220459, 0.0, 0.0)
2024/05/03/13:16:18.021439;178024;1714767378;46420270;;['BL_Position', 'BL_Wheel', 'BR_Position', 'BR_Wheel', 'FL_Position', 'FL_Wheel', 'FR_Position', 'FR_Wheel'];(0.0, 2244.482421875, 0.006135923322290182, 2461.898193359375, -0.003067961661145091, 2242.67236328125, 0.0, 2466.257568359375);(0.0, 0.0, 0.0, 0.0, 0.0, 0.0, 0.0, 0.0);(0.0, 40.35000228881836, -59.18000030517578, 5.380000114440918, 24.21000099182129, -2.690000057220459, 0.0, 0.0)
2024/05/03/13:16:18.034298;178025;1714767378;62327158;;['BL_Position', 'BL_Wheel', 'BR_Position', 'BR_Wheel', 'FL_Position', 'FL_Wheel', 'FR_Position', 'FR_Wheel'];(0.0, 2244.482421875, 0.006135923322290182, 2461.896484375, -0.0015339808305725455, 2242.670654296875, 0.0, 2466.25927734375);(0.0, 0.0, 0.0, 0.0, 0.0, 0.0, 0.0, 0.0);(0.0, 40.35000228881836, -56.4900016784668, 5.380000114440918, 16.139999389648438, -2.690000057220459, 0.0, 0.0)
2024/05/03/13:16:18.052069;178026;1714767378;79626195;;['BL_Position', 'BL_Wheel', 'BR_Position', 'BR_Wheel', 'FL_Position', 'FL_Wheel', 'FR_Position', 'FR_Wheel'];(0.0, 2244.482421875, 0.006135923322290182, 2461.898193359375, -0.0015339808305725455, 2242.67236328125, 0.0, 2466.257568359375);(0.0, 0.0, 0.0, 0.0, 0.0, 0.0, 0.0, 0.0);(0.0, 40.35000228881836, -61.87000274658203, 5.380000114440918, 26.900001525878906, -2.690000057220459, 0.0, 0.0)
2024/05/03/13:16:18.065364;178027;1714767378;94141139;;['BL_Position', 'BL_Wheel', 'BR_Position', 'BR_Wheel', 'FL_Position', 'FL_Wheel', 'FR_Position', 'FR_Wheel'];(0.0, 2244.482421875, 0.006135923322290182, 2461.896484375, -0.003067961661145091, 2242.67236328125, 0.0, 2466.257568359375);(0.0, 0.0, 0.0, 0.0, 0.0, 0.0, 0.0, 0.0);(0.0, 40.35000228881836, -61.87000274658203, 5.380000114440918, 13.450000762939453, -2.690000057220459, 0.0, 0.0)
2024/05/03/13:16:18.083678;178028;1714767378;110187046;;['BL_Position', 'BL_Wheel', 'BR_Position', 'BR_Wheel', 'FL_Position', 'FL_Wheel', 'FR_Position', 'FR_Wheel'];(0.0, 2244.482421875, 0.006135923322290182, 2461.896484375, -0.003067961661145091, 2242.67236328125, 0.0, 2466.257568359375);(0.0, 0.0, 0.0, 0.0, 0.0, 0.0, 0.0, 0.0);(0.0, 40.35000228881836, -61.87000274658203, 5.380000114440918, 13.450000762939453, -2.690000057220459, 0.0, 0.0)
2024/05/03/13:16:18.118958;178029;1714767378;126176360;;['BL_Position', 'BL_Wheel', 'BR_Position', 'BR_Wheel', 'FL_Position', 'FL_Wheel', 'FR_Position', 'FR_Wheel'];(0.0, 2244.482421875, 0.006135923322290182, 2461.898193359375, -0.0015339808305725455, 2242.67236328125, 0.0, 2466.257568359375);(0.0, 0.0, 0.0, 0.0, 0.0, 0.0, 0.0, 0.0);(0.0, 40.35000228881836, -61.87000274658203, 5.380000114440918, 21.520000457763672, -2.690000057220459, 0.0, 0.0)
2024/05/03/13:16:18.124642;178030;1714767378;142213045;;['BL_Position', 'BL_Wheel', 'BR_Position', 'BR_Wheel', 'FL_Position', 'FL_Wheel', 'FR_Position', 'FR_Wheel'];(0.0, 2244.482421875, 0.004601942375302315, 2461.896484375, -0.0015339808305725455, 2242.670654296875, 0.0, 2466.257568359375);(0.0, 0.0, 0.0, 0.0, 0.0, 0.0, 0.0, 0.0);(0.0, 40.35000228881836, -61.87000274658203, 5.380000114440918, 10.760000228881836, -2.690000057220459, 0.0, 0.0)
2024/05/03/13:16:18.131550;178031;1714767378;158174563;;['BL_Position', 'BL_Wheel', 'BR_Position', 'BR_Wheel', 'FL_Position', 'FL_Wheel', 'FR_Position', 'FR_Wheel'];(0.0, 2244.482421875, 0.006135923322290182, 2461.896484375, -0.0015339808305725455, 2242.67236328125, 0.0, 2466.257568359375);(0.0, 0.0, 0.0, 0.0, 0.0, 0.0, 0.0, 0.0);(0.0, 40.35000228881836, -61.87000274658203, 5.380000114440918, 26.900001525878906, -2.690000057220459, 0.0, 0.0)
2024/05/03/13:16:18.145770;178032;1714767378;174156600;;['BL_Position', 'BL_Wheel', 'BR_Position', 'BR_Wheel', 'FL_Position', 'FL_Wheel', 'FR_Position', 'FR_Wheel'];(0.0, 2244.482421875, 0.004601942375302315, 2461.896484375, -0.003067961661145091, 2242.67236328125, 0.0, 2466.257568359375);(0.0, 0.0, 0.0, 0.0, 0.0, 0.0, 0.0, 0.0);(0.0, 40.35000228881836, -61.87000274658203, 5.380000114440918, 45.72999954223633, -2.690000057220459, 0.0, 0.0)
2024/05/03/13:16:18.161837;178033;1714767378;190145729;;['BL_Position', 'BL_Wheel', 'BR_Position', 'BR_Wheel', 'FL_Position', 'FL_Wheel', 'FR_Position', 'FR_Wheel'];(0.0, 2244.482421875, 0.006135923322290182, 2461.896484375, -0.003067961661145091, 2242.67236328125, 0.0, 2466.257568359375);(0.0, 0.0, 0.0, 0.0, 0.0, 0.0, 0.0, 0.0);(0.0, 40.35000228881836, -61.87000274658203, 5.380000114440918, 21.520000457763672, -2.690000057220459, 0.0, 0.0)
2024/05/03/13:16:18.185170;178034;1714767378;206150321;;['BL_Position', 'BL_Wheel', 'BR_Position', 'BR_Wheel', 'FL_Position', 'FL_Wheel', 'FR_Position', 'FR_Wheel'];(0.0, 2244.482421875, 0.006135923322290182, 2461.896484375, -0.003067961661145091, 2242.67236328125, 0.0, 2466.25927734375);(0.0, 0.0, 0.0, 0.0, 0.0, 0.0, 0.0, 0.0);(0.0, 40.35000228881836, -61.87000274658203, 5.380000114440918, 18.829999923706055, -2.690000057220459, 0.0, 0.0)
2024/05/03/13:16:18.195251;178035;1714767378;222169784;;['BL_Position', 'BL_Wheel', 'BR_Position', 'BR_Wheel', 'FL_Position', 'FL_Wheel', 'FR_Position', 'FR_Wheel'];(0.0, 2244.482421875, 0.006135923322290182, 2461.898193359375, -0.0015339808305725455, 2242.67236328125, 0.0, 2466.257568359375);(0.0, 0.0, 0.0, 0.0, 0.0, 0.0, 0.0, 0.0);(0.0, 40.35000228881836, -61.87000274658203, 5.380000114440918, 13.450000762939453, -2.690000057220459, 0.0, 0.0)
2024/05/03/13:16:18.221163;178036;1714767378;238167820;;['BL_Position', 'BL_Wheel', 'BR_Position', 'BR_Wheel', 'FL_Position', 'FL_Wheel', 'FR_Position', 'FR_Wheel'];(0.0, 2244.482421875, 0.006135923322290182, 2461.898193359375, -0.0015339808305725455, 2242.67236328125, 0.0, 2466.257568359375);(0.0, 0.0, 0.0, 0.0, 0.0, 0.0, 0.0, 0.0);(0.0, 40.35000228881836, -61.87000274658203, 5.380000114440918, 8.069999694824219, -2.690000057220459, 0.0, 0.0)
2024/05/03/13:16:18.226280;178037;1714767378;254196857;;['BL_Position', 'BL_Wheel', 'BR_Position', 'BR_Wheel', 'FL_Position', 'FL_Wheel', 'FR_Position', 'FR_Wheel'];(0.0, 2244.482421875, 0.006135923322290182, 2461.898193359375, -0.0015339808305725455, 2242.67236328125, 0.0, 2466.257568359375);(0.0, 0.0, 0.0, 0.0, 0.0, 0.0, 0.0, 0.0);(2.690000057220459, 40.35000228881836, -61.87000274658203, 5.380000114440918, 8.069999694824219, -2.690000057220459, 0.0, 0.0)
2024/05/03/13:16:18.241838;178038;1714767378;270145597;;['BL_Position', 'BL_Wheel', 'BR_Position', 'BR_Wheel', 'FL_Position', 'FL_Wheel', 'FR_Position', 'FR_Wheel'];(0.0, 2244.482421875, 0.006135923322290182, 2461.896484375, -0.0015339808305725455, 2242.67236328125, 0.0, 2466.257568359375);(0.0, 0.0, 0.0, 0.0, 0.0, 0.0, 0.0, 0.0);(2.690000057220459, 40.35000228881836, -61.87000274658203, 5.380000114440918, 13.450000762939453, -2.690000057220459, 0.0, 0.0)
2024/05/03/13:16:18.259061;178039;1714767378;287328764;;['BL_Position', 'BL_Wheel', 'BR_Position', 'BR_Wheel', 'FL_Position', 'FL_Wheel', 'FR_Position', 'FR_Wheel'];(0.0, 2244.482421875, 0.006135923322290182, 2461.896484375, -0.003067961661145091, 2242.67236328125, 0.0, 2466.257568359375);(0.0, 0.0, 0.0, 0.0, 0.0, 0.0, 0.0, 0.0);(2.690000057220459, 40.35000228881836, -61.87000274658203, 5.380000114440918, 34.970001220703125, -2.690000057220459, 0.0, 0.0)
2024/05/03/13:16:18.273849;178040;1714767378;302159430;;['BL_Position', 'BL_Wheel', 'BR_Position', 'BR_Wheel', 'FL_Position', 'FL_Wheel', 'FR_Position', 'FR_Wheel'];(0.0, 2244.482421875, 0.006135923322290182, 2461.898193359375, -0.0015339808305725455, 2242.67236328125, 0.0, 2466.257568359375);(0.0, 0.0, 0.0, 0.0, 0.0, 0.0, 0.0, 0.0);(2.690000057220459, 40.35000228881836, -61.87000274658203, 5.380000114440918, 10.760000228881836, -2.690000057220459, 0.0, 0.0)
2024/05/03/13:16:18.288816;178041;1714767378;318147652;;['BL_Position', 'BL_Wheel', 'BR_Position', 'BR_Wheel', 'FL_Position', 'FL_Wheel', 'FR_Position', 'FR_Wheel'];(0.0, 2244.482421875, 0.006135923322290182, 2461.898193359375, -0.0015339808305725455, 2242.67236328125, 0.0, 2466.257568359375);(0.0, 0.0, 0.0, 0.0, 0.0, 0.0, 0.0, 0.0);(2.690000057220459, 40.35000228881836, -61.87000274658203, 5.380000114440918, 32.279998779296875, -2.690000057220459, 0.0, 0.0)
2024/05/03/13:16:18.320150;178042;1714767378;334168336;;['BL_Position', 'BL_Wheel', 'BR_Position', 'BR_Wheel', 'FL_Position', 'FL_Wheel', 'FR_Position', 'FR_Wheel'];(0.0, 2244.482421875, 0.006135923322290182, 2461.898193359375, -0.0015339808305725455, 2242.67236328125, 0.0, 2466.257568359375);(0.0, 0.0, 0.0, 0.0, 0.0, 0.0, 0.0, 0.0);(2.690000057220459, 40.35000228881836, -61.87000274658203, 5.380000114440918, 10.760000228881836, -2.690000057220459, 0.0, 0.0)
2024/05/03/13:16:18.325522;178043;1714767378;350131614;;['BL_Position', 'BL_Wheel', 'BR_Position', 'BR_Wheel', 'FL_Position', 'FL_Wheel', 'FR_Position', 'FR_Wheel'];(0.0, 2244.482421875, 0.006135923322290182, 2461.898193359375, -0.0015339808305725455, 2242.67236328125, 0.0, 2466.257568359375);(0.0, 0.0, 0.0, 0.0, 0.0, 0.0, 0.0, 0.0);(2.690000057220459, 40.35000228881836, -61.87000274658203, 5.380000114440918, 13.450000762939453, -2.690000057220459, 0.0, 0.0)
2024/05/03/13:16:18.338964;178044;1714767378;366132984;;['BL_Position', 'BL_Wheel', 'BR_Position', 'BR_Wheel', 'FL_Position', 'FL_Wheel', 'FR_Position', 'FR_Wheel'];(0.0, 2244.482421875, 0.006135923322290182, 2461.896484375, -0.0015339808305725455, 2242.67236328125, 0.0, 2466.257568359375);(0.0, 0.0, 0.0, 0.0, 0.0, 0.0, 0.0, 0.0);(2.690000057220459, 40.35000228881836, -59.18000030517578, 5.380000114440918, 18.829999923706055, -2.690000057220459, 0.0, 0.0)
2024/05/03/13:16:18.354959;178045;1714767378;382206650;;['BL_Position', 'BL_Wheel', 'BR_Position', 'BR_Wheel', 'FL_Position', 'FL_Wheel', 'FR_Position', 'FR_Wheel'];(0.0, 2244.482421875, 0.006135923322290182, 2461.896484375, -0.0015339808305725455, 2242.67236328125, 0.0, 2466.257568359375);(0.0, 0.0, 0.0, 0.0, 0.0, 0.0, 0.0, 0.0);(2.690000057220459, 40.35000228881836, -61.87000274658203, 5.380000114440918, 29.59000015258789, -2.690000057220459, 0.0, 0.0)
2024/05/03/13:16:18.370551;178046;1714767378;398179316;;['BL_Position', 'BL_Wheel', 'BR_Position', 'BR_Wheel', 'FL_Position', 'FL_Wheel', 'FR_Position', 'FR_Wheel'];(0.0, 2244.482421875, 0.006135923322290182, 2461.896484375, -0.003067961661145091, 2242.67236328125, 0.0, 2466.257568359375);(0.0, 0.0, 0.0, 0.0, 0.0, 0.0, 0.0, 0.0);(2.690000057220459, 40.35000228881836, -61.87000274658203, 5.380000114440918, 8.069999694824219, -2.690000057220459, 0.0, 0.0)
2024/05/03/13:16:18.387839;178047;1714767378;414160557;;['BL_Position', 'BL_Wheel', 'BR_Position', 'BR_Wheel', 'FL_Position', 'FL_Wheel', 'FR_Position', 'FR_Wheel'];(0.0, 2244.482421875, 0.006135923322290182, 2461.896484375, -0.0015339808305725455, 2242.67236328125, 0.0, 2466.257568359375);(0.0, 0.0, 0.0, 0.0, 0.0, 0.0, 0.0, 0.0);(2.690000057220459, 40.35000228881836, -56.4900016784668, 5.380000114440918, 29.59000015258789, -2.690000057220459, 0.0, 0.0)
2024/05/03/13:16:18.401873;178048;1714767378;430181741;;['BL_Position', 'BL_Wheel', 'BR_Position', 'BR_Wheel', 'FL_Position', 'FL_Wheel', 'FR_Position', 'FR_Wheel'];(0.0015339808305725455, 2244.482421875, 0.006135923322290182, 2461.896484375, -0.0015339808305725455, 2242.67236328125, 0.0, 2466.257568359375);(0.0, 0.0, 0.0, 0.0, 0.0, 0.0, 0.0, 0.0);(2.690000057220459, 40.35000228881836, -61.87000274658203, 5.380000114440918, 29.59000015258789, -2.690000057220459, 0.0, 0.0)
2024/05/03/13:16:18.424985;178049;1714767378;446114574;;['BL_Position', 'BL_Wheel', 'BR_Position', 'BR_Wheel', 'FL_Position', 'FL_Wheel', 'FR_Position', 'FR_Wheel'];(0.0, 2244.482421875, 0.004601942375302315, 2461.898193359375, -0.0015339808305725455, 2242.67236328125, 0.0, 2466.25927734375);(0.0, 0.0, 0.0, 0.0, 0.0, 0.0, 0.0, 0.0);(2.690000057220459, 40.35000228881836, -61.87000274658203, 5.380000114440918, 10.760000228881836, -2.690000057220459, 0.0, 0.0)
2024/05/03/13:16:18.436098;178050;1714767378;462185037;;['BL_Position', 'BL_Wheel', 'BR_Position', 'BR_Wheel', 'FL_Position', 'FL_Wheel', 'FR_Position', 'FR_Wheel'];(0.0, 2244.482421875, 0.004601942375302315, 2461.896484375, -0.003067961661145091, 2242.67236328125, 0.0, 2466.257568359375);(0.0, 0.0, 0.0, 0.0, 0.0, 0.0, 0.0, 0.0);(2.690000057220459, 40.35000228881836, -61.87000274658203, 5.380000114440918, 10.760000228881836, -2.690000057220459, 0.0, 0.0)
2024/05/03/13:16:18.450512;178051;1714767378;478226944;;['BL_Position', 'BL_Wheel', 'BR_Position', 'BR_Wheel', 'FL_Position', 'FL_Wheel', 'FR_Position', 'FR_Wheel'];(0.0, 2244.482421875, 0.006135923322290182, 2461.896484375, -0.0015339808305725455, 2242.67236328125, 0.0, 2466.257568359375);(0.0, 0.0, 0.0, 0.0, 0.0, 0.0, 0.0, 0.0);(2.690000057220459, 40.35000228881836, -61.87000274658203, 5.380000114440918, 45.72999954223633, -2.690000057220459, 0.0, 0.0)
2024/05/03/13:16:18.466390;178052;1714767378;494200203;;['BL_Position', 'BL_Wheel', 'BR_Position', 'BR_Wheel', 'FL_Position', 'FL_Wheel', 'FR_Position', 'FR_Wheel'];(0.03221359848976135, 2244.488525390625, 0.03681553900241852, 2461.902587890625, -0.03528155758976936, 2242.67529296875, -0.03221359848976135, 2466.25927734375);(0.07194247096776962, 0.0, 0.07194247096776962, 0.0, -0.0959232971072197, 0.0, -0.0959232971072197, 0.0);(252.86000061035156, 190.99000549316406, 295.8999938964844, 96.84000396728516, -266.30999755859375, 129.1199951171875, -266.30999755859375, 112.9800033569336)
2024/05/03/13:16:18.493245;178053;1714767378;510119221;;['BL_Position', 'BL_Wheel', 'BR_Position', 'BR_Wheel', 'FL_Position', 'FL_Wheel', 'FR_Position', 'FR_Wheel'];(0.0920388475060463, 2244.510009765625, 0.10124273598194122, 2461.9150390625, -0.09664079546928406, 2242.69677734375, -0.09664079546928406, 2466.276123046875);(0.6235014200210571, 0.14388494193553925, 0.5995206236839294, 0.07194247096776962, -0.6235014200210571, 0.0959232971072197, -0.6235014200210571, 0.07194247096776962);(-112.9800033569336, 209.82000732421875, 172.16000366210938, 107.60000610351562, 129.1199951171875, 142.57000732421875, -110.29000091552734, 131.80999755859375)
2024/05/03/13:16:18.499105;178054;1714767378;526336720;;['BL_Position', 'BL_Wheel', 'BR_Position', 'BR_Wheel', 'FL_Position', 'FL_Wheel', 'FR_Position', 'FR_Wheel'];(0.12732040882110596, 2244.54541015625, 0.1595340073108673, 2461.941162109375, -0.1365242898464203, 2242.735107421875, -0.16566993296146393, 2466.30224609375);(1.318945288658142, 0.455635666847229, 1.4148685932159424, 0.31175071001052856, -1.366907000541687, 0.43165484070777893, -1.5107918977737427, 0.2877698838710785);(-102.22000122070312, 204.44000244140625, -129.1199951171875, 115.67000579833984, 177.54000854492188, 137.19000244140625, 209.82000732421875, 115.67000579833984)
2024/05/03/13:16:18.524122;178055;1714767378;542162905;;['BL_Position', 'BL_Wheel', 'BR_Position', 'BR_Wheel', 'FL_Position', 'FL_Wheel', 'FR_Position', 'FR_Wheel'];(0.13499031960964203, 2244.594482421875, 0.18254372477531433, 2461.976318359375, -0.15033012628555298, 2242.787353515625, -0.20248547196388245, 2466.3359375);(1.7506002187728882, 1.0071946382522583, 2.1342933177948, 0.6954439282417297, -1.9184659719467163, 0.9832137823104858, -2.3741016387939453, 0.6714630722999573);(-21.520000457763672, 185.61000061035156, -53.80000305175781, 107.60000610351562, 64.55999755859375, 118.36000061035156, 174.85000610351562, 75.31999969482422)
2024/05/03/13:16:18.533122;178056;1714767378;558198460;;['BL_Position', 'BL_Wheel', 'BR_Position', 'BR_Wheel', 'FL_Position', 'FL_Wheel', 'FR_Position', 'FR_Wheel'];(0.1365242898464203, 2244.65576171875, 0.18561168015003204, 2462.02392578125, -0.15033012628555298, 2242.8486328125, -0.21168935298919678, 2466.3818359375);(1.8944851160049438, 1.7266193628311157, 2.4460439682006836, 1.2230219841003418, -2.0623509883880615, 1.7506002187728882, -2.8057563304901123, 1.1990412473678589);(16.139999389648438, 145.260009765625, 59.18000030517578, 75.31999969482422, 0.0, 88.77000427246094, 45.72999954223633, 48.42000198364258)
2024/05/03/13:16:18.547025;178057;1714767378;574170090;;['BL_Position', 'BL_Wheel', 'BR_Position', 'BR_Wheel', 'FL_Position', 'FL_Wheel', 'FR_Position', 'FR_Wheel'];(0.13499031960964203, 2244.724853515625, 0.18561168015003204, 2462.072998046875, -0.15033012628555298, 2242.92236328125, -0.21168935298919678, 2466.429443359375);(1.4628303050994873, 2.4940056800842285, 2.086331605911255, 1.822542667388916, -1.606715202331543, 2.565948247909546, -2.517986536026001, 1.774580955505371);(8.069999694824219, 112.9800033569336, 48.42000198364258, 59.18000030517578, 0.0, 67.25, 0.0, 34.970001220703125)
2024/05/03/13:16:18.563575;178058;1714767378;590226978;;['BL_Position', 'BL_Wheel', 'BR_Position', 'BR_Wheel', 'FL_Position', 'FL_Wheel', 'FR_Position', 'FR_Wheel'];(0.13499031960964203, 2244.801513671875, 0.1840776950120926, 2462.129638671875, -0.15033012628555298, 2242.9990234375, -0.21168935298919678, 2466.486328125);(0.7673863768577576, 3.261392116546631, 1.318945288658142, 2.350120782852173, -0.8872904777526855, 3.3333346843719482, -1.7266193628311157, 2.302159070968628);(0.0, 86.08000183105469, 32.279998779296875, 53.80000305175781, 0.0, 48.42000198364258, 0.0, 18.829999923706055)
2024/05/03/13:16:18.578328;178059;1714767378;606260515;;['BL_Position', 'BL_Wheel', 'BR_Position', 'BR_Wheel', 'FL_Position', 'FL_Wheel', 'FR_Position', 'FR_Wheel'];(0.13499031960964203, 2244.87353515625, 0.1840776950120926, 2462.18505859375, -0.15033012628555298, 2243.07421875, -0.21168935298919678, 2466.54296875);(0.31175071001052856, 3.7889702320098877, 0.5995206236839294, 2.781775712966919, -0.3836931884288788, 3.908874273300171, -0.8872904777526855, 2.733814001083374);(0.0, 75.31999969482422, 18.829999923706055, 48.42000198364258, 0.0, 34.970001220703125, 0.0, 8.069999694824219)
2024/05/03/13:16:18.596277;178060;1714767378;622175885;;['BL_Position', 'BL_Wheel', 'BR_Position', 'BR_Wheel', 'FL_Position', 'FL_Wheel', 'FR_Position', 'FR_Wheel'];(0.13499031960964203, 2244.953369140625, 0.1840776950120926, 2462.2431640625, -0.15033012628555298, 2243.156982421875, -0.21168935298919678, 2466.602783203125);(0.0959232971072197, 4.244606018066406, 0.21582742035388947, 3.117507219314575, -0.14388494193553925, 4.3645100593566895, -0.3597123622894287, 3.0935263633728027);(0.0, 64.55999755859375, 26.900001525878906, 37.65999984741211, 0.0, 26.900001525878906, 2.690000057220459, 0.0)
2024/05/03/13:16:18.617521;178061;1714767378;638206310;;['BL_Position', 'BL_Wheel', 'BR_Position', 'BR_Wheel', 'FL_Position', 'FL_Wheel', 'FR_Position', 'FR_Wheel'];(0.13499031960964203, 2245.025390625, 0.1840776950120926, 2462.300048828125, -0.15033012628555298, 2243.233642578125, -0.21168935298919678, 2466.656494140625);(0.023980824276804924, 4.508395195007324, 0.04796164855360985, 3.3573153018951416, -0.04796164855360985, 4.628299236297607, -0.11990412324666977, 3.309353828430176);(5.380000114440918, 56.4900016784668, 48.42000198364258, 37.65999984741211, 0.0, 24.21000099182129, 0.0, 0.0)
2024/05/03/13:16:18.626073;178062;1714767378;654183884;;['BL_Position', 'BL_Wheel', 'BR_Position', 'BR_Wheel', 'FL_Position', 'FL_Wheel', 'FR_Position', 'FR_Wheel'];(0.13499031960964203, 2245.105224609375, 0.18561168015003204, 2462.35986328125, -0.15033012628555298, 2243.31494140625, -0.21168935298919678, 2466.7177734375);(0.0, 4.652279853820801, 0.023980824276804924, 3.5012004375457764, 0.0, 4.820145606994629, -0.04796164855360985, 3.4532387256622314);(5.380000114440918, 53.80000305175781, 61.87000274658203, 37.65999984741211, -13.450000762939453, 24.21000099182129, 0.0, 0.0)
2024/05/03/13:16:18.642370;178063;1714767378;670096476;;['BL_Position', 'BL_Wheel', 'BR_Position', 'BR_Wheel', 'FL_Position', 'FL_Wheel', 'FR_Position', 'FR_Wheel'];(0.13499031960964203, 2245.183349609375, 0.18561168015003204, 2462.4150390625, -0.15033012628555298, 2243.393310546875, -0.21168935298919678, 2466.774658203125);(0.0, 4.748203277587891, 0.0, 3.5731427669525146, 0.0, 4.916069030761719, 0.0, 3.549161911010742);(10.760000228881836, 53.80000305175781, 112.9800033569336, 37.65999984741211, -26.900001525878906, 24.21000099182129, -5.380000114440918, 0.0)
2024/05/03/13:16:18.658245;178064;1714767378;686118735;;['BL_Position', 'BL_Wheel', 'BR_Position', 'BR_Wheel', 'FL_Position', 'FL_Wheel', 'FR_Position', 'FR_Wheel'];(0.1365242898464203, 2245.26318359375, 0.1871456652879715, 2462.474853515625, -0.15186409652233124, 2243.47314453125, -0.21475732326507568, 2466.8330078125);(0.0, 4.7961649894714355, 0.023980824276804924, 3.597123622894287, 0.0, 4.940049648284912, -0.023980824276804924, 3.5731427669525146);(5.380000114440918, 53.80000305175781, 118.36000061035156, 34.970001220703125, -34.970001220703125, 24.21000099182129, -2.690000057220459, 0.0)
2024/05/03/13:16:18.674286;178065;1714767378;702196475;;['BL_Position', 'BL_Wheel', 'BR_Position', 'BR_Wheel', 'FL_Position', 'FL_Wheel', 'FR_Position', 'FR_Wheel'];(0.14112623035907745, 2245.3369140625, 0.19481556117534637, 2462.530029296875, -0.1533980816602707, 2243.5498046875, -0.2208932340145111, 2466.8896484375);(0.023980824276804924, 4.820145606994629, 0.07194247096776962, 3.597123622894287, 0.0, 4.964030742645264, -0.04796164855360985, 3.5731427669525146);(13.450000762939453, 53.80000305175781, 110.29000091552734, 24.21000099182129, -40.35000228881836, 16.139999389648438, -10.760000228881836, 0.0)
2024/05/03/13:16:18.698764;178066;1714767378;718201512;;['BL_Position', 'BL_Wheel', 'BR_Position', 'BR_Wheel', 'FL_Position', 'FL_Wheel', 'FR_Position', 'FR_Wheel'];(0.1457281857728958, 2245.41357421875, 0.20555342733860016, 2462.5869140625, -0.1564660519361496, 2243.6279296875, -0.22856314480304718, 2466.946533203125);(0.0959232971072197, 4.820145606994629, 0.16786576807498932, 3.5731427669525146, -0.04796164855360985, 4.940049648284912, -0.14388494193553925, 3.5731427669525146);(2.690000057220459, 45.72999954223633, 72.6300048828125, 21.520000457763672, -21.520000457763672, 10.760000228881836, 2.690000057220459, 0.0)
2024/05/03/13:16:18.705976;178067;1714767378;734137808;;['BL_Position', 'BL_Wheel', 'BR_Position', 'BR_Wheel', 'FL_Position', 'FL_Wheel', 'FR_Position', 'FR_Wheel'];(0.15186409652233124, 2245.48876953125, 0.21629129350185394, 2462.638916015625, -0.1595340073108673, 2243.70458984375, -0.23623304069042206, 2466.99853515625);(0.14388494193553925, 4.7961649894714355, 0.2877698838710785, 3.5251810550689697, -0.0959232971072197, 4.916069030761719, -0.23980824649333954, 3.5012004375457764);(5.380000114440918, 34.970001220703125, 83.38999938964844, 13.450000762939453, -34.970001220703125, 0.0, -2.690000057220459, 0.0)
2024/05/03/13:16:18.726649;178068;1714767378;750192770;;['BL_Position', 'BL_Wheel', 'BR_Position', 'BR_Wheel', 'FL_Position', 'FL_Wheel', 'FR_Position', 'FR_Wheel'];(0.1564660519361496, 2245.560791015625, 0.22702915966510773, 2462.68798828125, -0.16260196268558502, 2243.77685546875, -0.24543693661689758, 2467.04931640625);(0.21582742035388947, 4.772183895111084, 0.43165484070777893, 3.4532387256622314, -0.11990412324666977, 4.868107318878174, -0.3597123622894287, 3.429257869720459);(5.380000114440918, 37.65999984741211, 78.01000213623047, 13.450000762939453, -29.59000015258789, 0.0, 2.690000057220459, 0.0)
2024/05/03/13:16:18.737917;178069;1714767378;766189103;;['BL_Position', 'BL_Wheel', 'BR_Position', 'BR_Wheel', 'FL_Position', 'FL_Wheel', 'FR_Position', 'FR_Wheel'];(0.16260196268558502, 2245.628173828125, 0.2377670258283615, 2462.7373046875, -0.16566993296146393, 2243.845703125, -0.25310683250427246, 2467.09521484375);(0.23980824649333954, 4.700241565704346, 0.5515589714050293, 3.3573153018951416, -0.14388494193553925, 4.772183895111084, -0.43165484070777893, 3.3333346843719482);(5.380000114440918, 32.279998779296875, 99.52999877929688, 8.069999694824219, -37.65999984741211, 0.0, 0.0, 0.0)
