time;.header.seq;.header.stamp.secs;.header.stamp.nsecs;.header.frame_id;.name;.position;.velocity;.effort
2024/05/03/12:47:01.999889;68268;1714765622;14280489;;['BL_Position', 'BL_Wheel', 'BR_Position', 'BR_Wheel', 'FL_Position', 'FL_Wheel', 'FR_Position', 'FR_Wheel'];(1.558524489402771, 792.8395385742188, 1.5600584745407104, 790.6735229492188, 1.5631264448165894, 790.9036254882812, 1.5677284002304077, 795.4396362304688);(0.0, 0.0, 0.0, 0.0, 0.0, 0.0, 0.0, 0.0);(158.7100067138672, 13.450000762939453, 139.8800048828125, 5.380000114440918, 91.45999908447266, 0.0, 40.35000228881836, -18.829999923706055)
2024/05/03/12:47:02.013526;68269;1714765622;30362153;;['BL_Position', 'BL_Wheel', 'BR_Position', 'BR_Wheel', 'FL_Position', 'FL_Wheel', 'FR_Position', 'FR_Wheel'];(1.558524489402771, 792.8395385742188, 1.5600584745407104, 790.6735229492188, 1.5631264448165894, 790.9036254882812, 1.5661944150924683, 795.441162109375);(0.0, 0.0, 0.0, 0.0, 0.0, 0.0, 0.0, 0.0);(158.7100067138672, 13.450000762939453, 134.5, 5.380000114440918, 88.77000427246094, 0.0, 40.35000228881836, -18.829999923706055)
2024/05/03/12:47:02.027426;68270;1714765622;46272261;;['BL_Position', 'BL_Wheel', 'BR_Position', 'BR_Wheel', 'FL_Position', 'FL_Wheel', 'FR_Position', 'FR_Wheel'];(1.558524489402771, 792.8380126953125, 1.5600584745407104, 790.6735229492188, 1.5631264448165894, 790.9036254882812, 1.5661944150924683, 795.441162109375);(0.0, 0.0, 0.0, 0.0, 0.0, 0.0, 0.0, 0.0);(158.7100067138672, 13.450000762939453, 137.19000244140625, 5.380000114440918, 94.1500015258789, 0.0, 40.35000228881836, -18.829999923706055)
2024/05/03/12:47:02.043126;68271;1714765622;62375499;;['BL_Position', 'BL_Wheel', 'BR_Position', 'BR_Wheel', 'FL_Position', 'FL_Wheel', 'FR_Position', 'FR_Wheel'];(1.558524489402771, 792.8380126953125, 1.5600584745407104, 790.6735229492188, 1.5631264448165894, 790.9036254882812, 1.5677284002304077, 795.441162109375);(0.0, 0.0, 0.0, 0.0, 0.0, 0.0, 0.0, 0.0);(158.7100067138672, 13.450000762939453, 139.8800048828125, 5.380000114440918, 96.84000396728516, 0.0, 43.040000915527344, -18.829999923706055)
2024/05/03/12:47:02.058934;68272;1714765622;78295922;;['BL_Position', 'BL_Wheel', 'BR_Position', 'BR_Wheel', 'FL_Position', 'FL_Wheel', 'FR_Position', 'FR_Wheel'];(1.558524489402771, 792.8380126953125, 1.5600584745407104, 790.6735229492188, 1.5646604299545288, 790.9036254882812, 1.5661944150924683, 795.4396362304688);(0.0, 0.0, 0.0, 0.0, 0.0, 0.0, 0.0, 0.0);(158.7100067138672, 13.450000762939453, 137.19000244140625, 5.380000114440918, 96.84000396728516, 0.0, 43.040000915527344, -18.829999923706055)
2024/05/03/12:47:02.075202;68273;1714765622;94301549;;['BL_Position', 'BL_Wheel', 'BR_Position', 'BR_Wheel', 'FL_Position', 'FL_Wheel', 'FR_Position', 'FR_Wheel'];(1.558524489402771, 792.8380126953125, 1.5600584745407104, 790.6735229492188, 1.5631264448165894, 790.9036254882812, 1.5661944150924683, 795.441162109375);(0.0, 0.0, 0.0, 0.0, 0.0, 0.0, 0.0, 0.0);(158.7100067138672, 13.450000762939453, 137.19000244140625, 5.380000114440918, 96.84000396728516, 0.0, 48.42000198364258, -18.829999923706055)
2024/05/03/12:47:02.092299;68274;1714765622;110316268;;['BL_Position', 'BL_Wheel', 'BR_Position', 'BR_Wheel', 'FL_Position', 'FL_Wheel', 'FR_Position', 'FR_Wheel'];(1.558524489402771, 792.8380126953125, 1.5600584745407104, 790.6735229492188, 1.5631264448165894, 790.9036254882812, 1.5661944150924683, 795.4396362304688);(0.0, 0.0, 0.0, 0.0, 0.0, 0.0, 0.0, 0.0);(158.7100067138672, 13.450000762939453, 137.19000244140625, 5.380000114440918, 96.84000396728516, 0.0, 48.42000198364258, -18.829999923706055)
2024/05/03/12:47:02.107128;68275;1714765622;126250376;;['BL_Position', 'BL_Wheel', 'BR_Position', 'BR_Wheel', 'FL_Position', 'FL_Wheel', 'FR_Position', 'FR_Wheel'];(1.558524489402771, 792.8380126953125, 1.56159245967865, 790.6735229492188, 1.5631264448165894, 790.9036254882812, 1.5677284002304077, 795.4396362304688);(0.0, 0.0, 0.0, 0.0, 0.0, 0.0, 0.0, 0.0);(158.7100067138672, 13.450000762939453, 139.8800048828125, 5.380000114440918, 91.45999908447266, 0.0, 45.72999954223633, -18.829999923706055)
2024/05/03/12:47:02.122488;68276;1714765622;142317966;;['BL_Position', 'BL_Wheel', 'BR_Position', 'BR_Wheel', 'FL_Position', 'FL_Wheel', 'FR_Position', 'FR_Wheel'];(1.558524489402771, 792.8380126953125, 1.5600584745407104, 790.6735229492188, 1.5631264448165894, 790.9036254882812, 1.5661944150924683, 795.4396362304688);(0.0, 0.0, 0.0, 0.0, 0.0, 0.0, 0.0, 0.0);(158.7100067138672, 13.450000762939453, 137.19000244140625, 5.380000114440918, 96.84000396728516, 0.0, 48.42000198364258, -21.520000457763672)
2024/05/03/12:47:02.139344;68277;1714765622;158385685;;['BL_Position', 'BL_Wheel', 'BR_Position', 'BR_Wheel', 'FL_Position', 'FL_Wheel', 'FR_Position', 'FR_Wheel'];(1.558524489402771, 792.8395385742188, 1.5600584745407104, 790.6735229492188, 1.5631264448165894, 790.9036254882812, 1.5661944150924683, 795.4396362304688);(0.0, 0.0, 0.0, 0.0, 0.0, 0.0, 0.0, 0.0);(158.7100067138672, 13.450000762939453, 139.8800048828125, 5.380000114440918, 94.1500015258789, 0.0, 45.72999954223633, -21.520000457763672)
2024/05/03/12:47:02.155178;68278;1714765622;174299608;;['BL_Position', 'BL_Wheel', 'BR_Position', 'BR_Wheel', 'FL_Position', 'FL_Wheel', 'FR_Position', 'FR_Wheel'];(1.558524489402771, 792.8380126953125, 1.5600584745407104, 790.6735229492188, 1.5631264448165894, 790.9036254882812, 1.5677284002304077, 795.4396362304688);(0.0, 0.0, 0.0, 0.0, 0.0, 0.0, 0.0, 0.0);(158.7100067138672, 13.450000762939453, 137.19000244140625, 5.380000114440918, 96.84000396728516, 0.0, 43.040000915527344, -21.520000457763672)
2024/05/03/12:47:02.171381;68279;1714765622;190298272;;['BL_Position', 'BL_Wheel', 'BR_Position', 'BR_Wheel', 'FL_Position', 'FL_Wheel', 'FR_Position', 'FR_Wheel'];(1.558524489402771, 792.8380126953125, 1.5600584745407104, 790.6735229492188, 1.5631264448165894, 790.9036254882812, 1.5661944150924683, 795.441162109375);(0.0, 0.0, 0.0, 0.0, 0.0, 0.0, 0.0, 0.0);(158.7100067138672, 13.450000762939453, 139.8800048828125, 5.380000114440918, 94.1500015258789, 0.0, 51.11000061035156, -21.520000457763672)
2024/05/03/12:47:02.188491;68280;1714765622;206290472;;['BL_Position', 'BL_Wheel', 'BR_Position', 'BR_Wheel', 'FL_Position', 'FL_Wheel', 'FR_Position', 'FR_Wheel'];(1.558524489402771, 792.8395385742188, 1.5600584745407104, 790.6735229492188, 1.5631264448165894, 790.9036254882812, 1.5661944150924683, 795.4396362304688);(0.0, 0.0, 0.0, 0.0, 0.0, 0.0, 0.0, 0.0);(158.7100067138672, 13.450000762939453, 129.1199951171875, 5.380000114440918, 94.1500015258789, 0.0, 37.65999984741211, -21.520000457763672)
2024/05/03/12:47:02.203120;68281;1714765622;222311210;;['BL_Position', 'BL_Wheel', 'BR_Position', 'BR_Wheel', 'FL_Position', 'FL_Wheel', 'FR_Position', 'FR_Wheel'];(1.558524489402771, 792.8380126953125, 1.5600584745407104, 790.6735229492188, 1.5631264448165894, 790.9036254882812, 1.5661944150924683, 795.4396362304688);(0.0, 0.0, 0.0, 0.0, 0.0, 0.0, 0.0, 0.0);(158.7100067138672, 13.450000762939453, 139.8800048828125, 5.380000114440918, 94.1500015258789, 0.0, 48.42000198364258, -21.520000457763672)
2024/05/03/12:47:02.219568;68282;1714765622;238319948;;['BL_Position', 'BL_Wheel', 'BR_Position', 'BR_Wheel', 'FL_Position', 'FL_Wheel', 'FR_Position', 'FR_Wheel'];(1.558524489402771, 792.8395385742188, 1.5600584745407104, 790.6735229492188, 1.5631264448165894, 790.9036254882812, 1.5661944150924683, 795.4396362304688);(0.0, 0.0, 0.0, 0.0, 0.0, 0.0, 0.0, 0.0);(156.02000427246094, 13.450000762939453, 134.5, 5.380000114440918, 96.84000396728516, 0.0, 43.040000915527344, -21.520000457763672)
2024/05/03/12:47:02.236445;68283;1714765622;254301649;;['BL_Position', 'BL_Wheel', 'BR_Position', 'BR_Wheel', 'FL_Position', 'FL_Wheel', 'FR_Position', 'FR_Wheel'];(1.558524489402771, 792.8380126953125, 1.5600584745407104, 790.6735229492188, 1.5646604299545288, 790.9036254882812, 1.5661944150924683, 795.4396362304688);(0.0, 0.0, 0.0, 0.0, 0.0, 0.0, 0.0, 0.0);(156.02000427246094, 13.450000762939453, 137.19000244140625, 5.380000114440918, 88.77000427246094, 0.0, 48.42000198364258, -21.520000457763672)
2024/05/03/12:47:02.251960;68284;1714765622;270309535;;['BL_Position', 'BL_Wheel', 'BR_Position', 'BR_Wheel', 'FL_Position', 'FL_Wheel', 'FR_Position', 'FR_Wheel'];(1.558524489402771, 792.8380126953125, 1.5600584745407104, 790.6735229492188, 1.5631264448165894, 790.9036254882812, 1.5661944150924683, 795.4396362304688);(0.0, 0.0, 0.0, 0.0, 0.0, 0.0, 0.0, 0.0);(156.02000427246094, 13.450000762939453, 137.19000244140625, 5.380000114440918, 86.08000183105469, 0.0, 37.65999984741211, -21.520000457763672)
2024/05/03/12:47:02.267567;68285;1714765622;286335717;;['BL_Position', 'BL_Wheel', 'BR_Position', 'BR_Wheel', 'FL_Position', 'FL_Wheel', 'FR_Position', 'FR_Wheel'];(1.558524489402771, 792.8380126953125, 1.5600584745407104, 790.6735229492188, 1.5631264448165894, 790.9036254882812, 1.5661944150924683, 795.441162109375);(0.0, 0.0, 0.0, 0.0, 0.0, 0.0, 0.0, 0.0);(156.02000427246094, 13.450000762939453, 134.5, 5.380000114440918, 96.84000396728516, 0.0, 45.72999954223633, -21.520000457763672)
2024/05/03/12:47:02.283180;68286;1714765622;302284251;;['BL_Position', 'BL_Wheel', 'BR_Position', 'BR_Wheel', 'FL_Position', 'FL_Wheel', 'FR_Position', 'FR_Wheel'];(1.558524489402771, 792.8380126953125, 1.5600584745407104, 790.6735229492188, 1.5631264448165894, 790.9036254882812, 1.5677284002304077, 795.441162109375);(0.0, 0.0, 0.0, 0.0, 0.0, 0.0, 0.0, 0.0);(156.02000427246094, 13.450000762939453, 137.19000244140625, 5.380000114440918, 96.84000396728516, 0.0, 37.65999984741211, -21.520000457763672)
2024/05/03/12:47:02.300037;68287;1714765622;318262785;;['BL_Position', 'BL_Wheel', 'BR_Position', 'BR_Wheel', 'FL_Position', 'FL_Wheel', 'FR_Position', 'FR_Wheel'];(1.558524489402771, 792.8380126953125, 1.5600584745407104, 790.6735229492188, 1.5631264448165894, 790.9036254882812, 1.5661944150924683, 795.441162109375);(0.0, 0.0, 0.0, 0.0, 0.0, 0.0, 0.0, 0.0);(158.7100067138672, 13.450000762939453, 139.8800048828125, 5.380000114440918, 96.84000396728516, 0.0, 40.35000228881836, -21.520000457763672)
2024/05/03/12:47:02.315684;68288;1714765622;334243319;;['BL_Position', 'BL_Wheel', 'BR_Position', 'BR_Wheel', 'FL_Position', 'FL_Wheel', 'FR_Position', 'FR_Wheel'];(1.558524489402771, 792.8380126953125, 1.5600584745407104, 790.6735229492188, 1.5631264448165894, 790.9036254882812, 1.5677284002304077, 795.441162109375);(0.0, 0.0, 0.0, 0.0, 0.0, 0.0, 0.0, 0.0);(158.7100067138672, 13.450000762939453, 137.19000244140625, 5.380000114440918, 94.1500015258789, 0.0, 48.42000198364258, -21.520000457763672)
2024/05/03/12:47:02.331458;68289;1714765622;350329983;;['BL_Position', 'BL_Wheel', 'BR_Position', 'BR_Wheel', 'FL_Position', 'FL_Wheel', 'FR_Position', 'FR_Wheel'];(1.558524489402771, 792.8395385742188, 1.5600584745407104, 790.6735229492188, 1.5631264448165894, 790.9036254882812, 1.5677284002304077, 795.441162109375);(0.0, 0.0, 0.0, 0.0, 0.0, 0.0, 0.0, 0.0);(158.7100067138672, 13.450000762939453, 139.8800048828125, 5.380000114440918, 94.1500015258789, 0.0, 40.35000228881836, -21.520000457763672)
2024/05/03/12:47:02.349579;68290;1714765622;366337554;;['BL_Position', 'BL_Wheel', 'BR_Position', 'BR_Wheel', 'FL_Position', 'FL_Wheel', 'FR_Position', 'FR_Wheel'];(1.558524489402771, 792.8380126953125, 1.56159245967865, 790.6735229492188, 1.5631264448165894, 790.9036254882812, 1.5661944150924683, 795.441162109375);(0.0, 0.0, 0.0, 0.0, 0.0, 0.0, 0.0, 0.0);(158.7100067138672, 13.450000762939453, 139.8800048828125, 5.380000114440918, 96.84000396728516, 0.0, 43.040000915527344, -21.520000457763672)
2024/05/03/12:47:02.363151;68291;1714765622;382293088;;['BL_Position', 'BL_Wheel', 'BR_Position', 'BR_Wheel', 'FL_Position', 'FL_Wheel', 'FR_Position', 'FR_Wheel'];(1.558524489402771, 792.8380126953125, 1.5600584745407104, 790.6735229492188, 1.5631264448165894, 790.9036254882812, 1.5677284002304077, 795.4396362304688);(0.0, 0.0, 0.0, 0.0, 0.0, 0.0, 0.0, 0.0);(158.7100067138672, 13.450000762939453, 137.19000244140625, 5.380000114440918, 91.45999908447266, 0.0, 43.040000915527344, -21.520000457763672)
2024/05/03/12:47:02.379050;68292;1714765622;398279918;;['BL_Position', 'BL_Wheel', 'BR_Position', 'BR_Wheel', 'FL_Position', 'FL_Wheel', 'FR_Position', 'FR_Wheel'];(1.558524489402771, 792.8380126953125, 1.5600584745407104, 790.6735229492188, 1.5631264448165894, 790.9036254882812, 1.5661944150924683, 795.4396362304688);(0.0, 0.0, 0.0, 0.0, 0.0, 0.0, 0.0, 0.0);(158.7100067138672, 13.450000762939453, 137.19000244140625, 5.380000114440918, 94.1500015258789, 0.0, 48.42000198364258, -21.520000457763672)
2024/05/03/12:47:02.396559;68293;1714765622;414300137;;['BL_Position', 'BL_Wheel', 'BR_Position', 'BR_Wheel', 'FL_Position', 'FL_Wheel', 'FR_Position', 'FR_Wheel'];(1.558524489402771, 792.8380126953125, 1.5600584745407104, 790.6735229492188, 1.5631264448165894, 790.902099609375, 1.5661944150924683, 795.441162109375);(0.0, 0.0, 0.0, 0.0, 0.0, 0.0, 0.0, 0.0);(158.7100067138672, 13.450000762939453, 137.19000244140625, 5.380000114440918, 96.84000396728516, 0.0, 43.040000915527344, -21.520000457763672)
2024/05/03/12:47:02.410965;68294;1714765622;430276875;;['BL_Position', 'BL_Wheel', 'BR_Position', 'BR_Wheel', 'FL_Position', 'FL_Wheel', 'FR_Position', 'FR_Wheel'];(1.558524489402771, 792.8380126953125, 1.5600584745407104, 790.6735229492188, 1.5631264448165894, 790.9036254882812, 1.5661944150924683, 795.441162109375);(0.0, 0.0, 0.0, 0.0, 0.0, 0.0, 0.0, 0.0);(158.7100067138672, 13.450000762939453, 137.19000244140625, 5.380000114440918, 91.45999908447266, 0.0, 37.65999984741211, -21.520000457763672)
2024/05/03/12:47:02.428494;68295;1714765622;446273946;;['BL_Position', 'BL_Wheel', 'BR_Position', 'BR_Wheel', 'FL_Position', 'FL_Wheel', 'FR_Position', 'FR_Wheel'];(1.558524489402771, 792.8380126953125, 1.5600584745407104, 790.675048828125, 1.5631264448165894, 790.9036254882812, 1.5661944150924683, 795.4396362304688);(0.0, 0.0, 0.0, 0.0, 0.0, 0.0, 0.0, 0.0);(158.7100067138672, 13.450000762939453, 139.8800048828125, 5.380000114440918, 96.84000396728516, 0.0, 45.72999954223633, -21.520000457763672)
2024/05/03/12:47:02.442220;68296;1714765622;462249647;;['BL_Position', 'BL_Wheel', 'BR_Position', 'BR_Wheel', 'FL_Position', 'FL_Wheel', 'FR_Position', 'FR_Wheel'];(1.558524489402771, 792.8380126953125, 1.5600584745407104, 790.6735229492188, 1.5631264448165894, 790.9036254882812, 1.5661944150924683, 795.441162109375);(0.0, 0.0, 0.0, 0.0, 0.0, 0.0, 0.0, 0.0);(158.7100067138672, 13.450000762939453, 139.8800048828125, 5.380000114440918, 94.1500015258789, 0.0, 48.42000198364258, -21.520000457763672)
2024/05/03/12:47:02.459060;68297;1714765622;478244422;;['BL_Position', 'BL_Wheel', 'BR_Position', 'BR_Wheel', 'FL_Position', 'FL_Wheel', 'FR_Position', 'FR_Wheel'];(1.558524489402771, 792.8380126953125, 1.5600584745407104, 790.6735229492188, 1.5631264448165894, 790.9036254882812, 1.5677284002304077, 795.4396362304688);(0.0, 0.0, 0.0, 0.0, 0.0, 0.0, 0.0, 0.0);(158.7100067138672, 13.450000762939453, 139.8800048828125, 5.380000114440918, 96.84000396728516, 0.0, 37.65999984741211, -21.520000457763672)
2024/05/03/12:47:02.475054;68298;1714765622;494260586;;['BL_Position', 'BL_Wheel', 'BR_Position', 'BR_Wheel', 'FL_Position', 'FL_Wheel', 'FR_Position', 'FR_Wheel'];(1.558524489402771, 792.8380126953125, 1.5600584745407104, 790.6735229492188, 1.5631264448165894, 790.9036254882812, 1.5661944150924683, 795.441162109375);(0.0, 0.0, 0.0, 0.0, 0.0, 0.0, 0.0, 0.0);(158.7100067138672, 13.450000762939453, 139.8800048828125, 5.380000114440918, 91.45999908447266, 0.0, 37.65999984741211, -21.520000457763672)
2024/05/03/12:47:02.491399;68299;1714765622;510255509;;['BL_Position', 'BL_Wheel', 'BR_Position', 'BR_Wheel', 'FL_Position', 'FL_Wheel', 'FR_Position', 'FR_Wheel'];(1.558524489402771, 792.8380126953125, 1.5600584745407104, 790.6735229492188, 1.5631264448165894, 790.9036254882812, 1.5661944150924683, 795.441162109375);(0.0, 0.0, 0.0, 0.0, 0.0, 0.0, 0.0, 0.0);(156.02000427246094, 13.450000762939453, 131.80999755859375, 5.380000114440918, 96.84000396728516, 0.0, 45.72999954223633, -21.520000457763672)
2024/05/03/12:47:02.507595;68300;1714765622;526233061;;['BL_Position', 'BL_Wheel', 'BR_Position', 'BR_Wheel', 'FL_Position', 'FL_Wheel', 'FR_Position', 'FR_Wheel'];(1.558524489402771, 792.8380126953125, 1.5600584745407104, 790.6735229492188, 1.5631264448165894, 790.9036254882812, 1.5661944150924683, 795.441162109375);(0.0, 0.0, 0.0, 0.0, 0.0, 0.0, 0.0, 0.0);(156.02000427246094, 13.450000762939453, 137.19000244140625, 5.380000114440918, 91.45999908447266, 0.0, 48.42000198364258, -21.520000457763672)
2024/05/03/12:47:02.524414;68301;1714765622;542324762;;['BL_Position', 'BL_Wheel', 'BR_Position', 'BR_Wheel', 'FL_Position', 'FL_Wheel', 'FR_Position', 'FR_Wheel'];(1.558524489402771, 792.8395385742188, 1.5600584745407104, 790.6735229492188, 1.5631264448165894, 790.9036254882812, 1.5661944150924683, 795.441162109375);(0.0, 0.0, 0.0, 0.0, 0.0, 0.0, 0.0, 0.0);(156.02000427246094, 13.450000762939453, 139.8800048828125, 5.380000114440918, 88.77000427246094, 0.0, 37.65999984741211, -21.520000457763672)
2024/05/03/12:47:02.540607;68302;1714765622;558472388;;['BL_Position', 'BL_Wheel', 'BR_Position', 'BR_Wheel', 'FL_Position', 'FL_Wheel', 'FR_Position', 'FR_Wheel'];(1.558524489402771, 792.8380126953125, 1.5600584745407104, 790.6735229492188, 1.5631264448165894, 790.9036254882812, 1.5661944150924683, 795.441162109375);(0.0, 0.0, 0.0, 0.0, 0.0, 0.0, 0.0, 0.0);(156.02000427246094, 13.450000762939453, 139.8800048828125, 5.380000114440918, 94.1500015258789, 0.0, 37.65999984741211, -21.520000457763672)
2024/05/03/12:47:02.555567;68303;1714765622;574321571;;['BL_Position', 'BL_Wheel', 'BR_Position', 'BR_Wheel', 'FL_Position', 'FL_Wheel', 'FR_Position', 'FR_Wheel'];(1.558524489402771, 792.8380126953125, 1.5600584745407104, 790.6735229492188, 1.5631264448165894, 790.9036254882812, 1.5661944150924683, 795.441162109375);(0.0, 0.0, 0.0, 0.0, 0.0, 0.0, 0.0, 0.0);(156.02000427246094, 13.450000762939453, 139.8800048828125, 5.380000114440918, 91.45999908447266, 0.0, 45.72999954223633, -21.520000457763672)
2024/05/03/12:47:02.571115;68304;1714765622;590285179;;['BL_Position', 'BL_Wheel', 'BR_Position', 'BR_Wheel', 'FL_Position', 'FL_Wheel', 'FR_Position', 'FR_Wheel'];(1.558524489402771, 792.8380126953125, 1.5600584745407104, 790.6735229492188, 1.5631264448165894, 790.9036254882812, 1.5661944150924683, 795.441162109375);(0.0, 0.0, 0.0, 0.0, 0.0, 0.0, 0.0, 0.0);(158.7100067138672, 13.450000762939453, 137.19000244140625, 5.380000114440918, 96.84000396728516, 0.0, 37.65999984741211, -21.520000457763672)
2024/05/03/12:47:02.587224;68305;1714765622;606292380;;['BL_Position', 'BL_Wheel', 'BR_Position', 'BR_Wheel', 'FL_Position', 'FL_Wheel', 'FR_Position', 'FR_Wheel'];(1.558524489402771, 792.8395385742188, 1.5600584745407104, 790.6735229492188, 1.5631264448165894, 790.9036254882812, 1.5661944150924683, 795.4396362304688);(0.0, 0.0, 0.0, 0.0, 0.0, 0.0, 0.0, 0.0);(156.02000427246094, 13.450000762939453, 131.80999755859375, 5.380000114440918, 88.77000427246094, 0.0, 40.35000228881836, -21.520000457763672)
2024/05/03/12:47:02.603847;68306;1714765622;622315173;;['BL_Position', 'BL_Wheel', 'BR_Position', 'BR_Wheel', 'FL_Position', 'FL_Wheel', 'FR_Position', 'FR_Wheel'];(1.558524489402771, 792.8380126953125, 1.5600584745407104, 790.6735229492188, 1.5631264448165894, 790.9036254882812, 1.5677284002304077, 795.441162109375);(0.0, 0.0, 0.0, 0.0, 0.0, 0.0, 0.0, 0.0);(156.02000427246094, 13.450000762939453, 139.8800048828125, 5.380000114440918, 99.52999877929688, 0.0, 37.65999984741211, -21.520000457763672)
2024/05/03/12:47:02.619035;68307;1714765622;638253763;;['BL_Position', 'BL_Wheel', 'BR_Position', 'BR_Wheel', 'FL_Position', 'FL_Wheel', 'FR_Position', 'FR_Wheel'];(1.558524489402771, 792.8380126953125, 1.5600584745407104, 790.6735229492188, 1.5631264448165894, 790.9036254882812, 1.5661944150924683, 795.441162109375);(0.0, 0.0, 0.0, 0.0, 0.0, 0.0, 0.0, 0.0);(158.7100067138672, 13.450000762939453, 139.8800048828125, 5.380000114440918, 91.45999908447266, 0.0, 40.35000228881836, -21.520000457763672)
2024/05/03/12:47:02.638272;68308;1714765622;654287760;;['BL_Position', 'BL_Wheel', 'BR_Position', 'BR_Wheel', 'FL_Position', 'FL_Wheel', 'FR_Position', 'FR_Wheel'];(1.558524489402771, 792.8395385742188, 1.5600584745407104, 790.6735229492188, 1.5631264448165894, 790.9036254882812, 1.5677284002304077, 795.4396362304688);(0.0, 0.0, 0.0, 0.0, 0.0, 0.0, 0.0, 0.0);(158.7100067138672, 13.450000762939453, 134.5, 5.380000114440918, 91.45999908447266, 0.0, 45.72999954223633, -21.520000457763672)
2024/05/03/12:47:02.651174;68309;1714765622;670265257;;['BL_Position', 'BL_Wheel', 'BR_Position', 'BR_Wheel', 'FL_Position', 'FL_Wheel', 'FR_Position', 'FR_Wheel'];(1.558524489402771, 792.8380126953125, 1.5600584745407104, 790.6735229492188, 1.5631264448165894, 790.9036254882812, 1.5677284002304077, 795.441162109375);(0.0, 0.0, 0.0, 0.0, 0.0, 0.0, 0.0, 0.0);(156.02000427246094, 13.450000762939453, 134.5, 5.380000114440918, 91.45999908447266, 0.0, 45.72999954223633, -21.520000457763672)
2024/05/03/12:47:02.667269;68310;1714765622;686272291;;['BL_Position', 'BL_Wheel', 'BR_Position', 'BR_Wheel', 'FL_Position', 'FL_Wheel', 'FR_Position', 'FR_Wheel'];(1.558524489402771, 792.8380126953125, 1.5600584745407104, 790.6735229492188, 1.5646604299545288, 790.9036254882812, 1.5677284002304077, 795.441162109375);(0.0, 0.0, 0.0, 0.0, 0.0, 0.0, 0.0, 0.0);(156.02000427246094, 13.450000762939453, 137.19000244140625, 5.380000114440918, 96.84000396728516, 0.0, 43.040000915527344, -18.829999923706055)
2024/05/03/12:47:02.683075;68311;1714765622;702294769;;['BL_Position', 'BL_Wheel', 'BR_Position', 'BR_Wheel', 'FL_Position', 'FL_Wheel', 'FR_Position', 'FR_Wheel'];(1.558524489402771, 792.8380126953125, 1.5600584745407104, 790.6735229492188, 1.5631264448165894, 790.9036254882812, 1.5677284002304077, 795.4396362304688);(0.0, 0.0, 0.0, 0.0, 0.0, 0.0, 0.0, 0.0);(156.02000427246094, 13.450000762939453, 131.80999755859375, 5.380000114440918, 91.45999908447266, 0.0, 37.65999984741211, -18.829999923706055)
2024/05/03/12:47:02.699715;68312;1714765622;718281988;;['BL_Position', 'BL_Wheel', 'BR_Position', 'BR_Wheel', 'FL_Position', 'FL_Wheel', 'FR_Position', 'FR_Wheel'];(1.558524489402771, 792.8395385742188, 1.5600584745407104, 790.6735229492188, 1.5631264448165894, 790.9036254882812, 1.5677284002304077, 795.4396362304688);(0.0, 0.0, 0.0, 0.0, 0.0, 0.0, 0.0, 0.0);(156.02000427246094, 13.450000762939453, 131.80999755859375, 5.380000114440918, 91.45999908447266, 0.0, 48.42000198364258, -18.829999923706055)
2024/05/03/12:47:02.715363;68313;1714765622;734407856;;['BL_Position', 'BL_Wheel', 'BR_Position', 'BR_Wheel', 'FL_Position', 'FL_Wheel', 'FR_Position', 'FR_Wheel'];(1.558524489402771, 792.8380126953125, 1.56159245967865, 790.6735229492188, 1.5631264448165894, 790.9036254882812, 1.5661944150924683, 795.4396362304688);(0.0, 0.0, 0.0, 0.0, 0.0, 0.0, 0.0, 0.0);(158.7100067138672, 13.450000762939453, 139.8800048828125, 5.380000114440918, 96.84000396728516, 0.0, 48.42000198364258, -18.829999923706055)
2024/05/03/12:47:02.739408;68314;1714765622;750332520;;['BL_Position', 'BL_Wheel', 'BR_Position', 'BR_Wheel', 'FL_Position', 'FL_Wheel', 'FR_Position', 'FR_Wheel'];(1.558524489402771, 792.8380126953125, 1.5600584745407104, 790.6735229492188, 1.5631264448165894, 790.9036254882812, 1.5677284002304077, 795.4396362304688);(0.0, 0.0, 0.0, 0.0, 0.0, 0.0, 0.0, 0.0);(158.7100067138672, 13.450000762939453, 137.19000244140625, 5.380000114440918, 94.1500015258789, 0.0, 37.65999984741211, -18.829999923706055)
2024/05/03/12:47:02.747087;68315;1714765622;766394183;;['BL_Position', 'BL_Wheel', 'BR_Position', 'BR_Wheel', 'FL_Position', 'FL_Wheel', 'FR_Position', 'FR_Wheel'];(1.558524489402771, 792.8395385742188, 1.5600584745407104, 790.6735229492188, 1.5646604299545288, 790.9036254882812, 1.5677284002304077, 795.441162109375);(0.0, 0.0, 0.0, 0.0, 0.0, 0.0, 0.0, 0.0);(158.7100067138672, 13.450000762939453, 139.8800048828125, 5.380000114440918, 86.08000183105469, 0.0, 40.35000228881836, -18.829999923706055)
2024/05/03/12:47:02.763696;68316;1714765622;782309310;;['BL_Position', 'BL_Wheel', 'BR_Position', 'BR_Wheel', 'FL_Position', 'FL_Wheel', 'FR_Position', 'FR_Wheel'];(1.558524489402771, 792.8380126953125, 1.5600584745407104, 790.6735229492188, 1.5631264448165894, 790.9036254882812, 1.5661944150924683, 795.4396362304688);(0.0, 0.0, 0.0, 0.0, 0.0, 0.0, 0.0, 0.0);(158.7100067138672, 13.450000762939453, 139.8800048828125, 5.380000114440918, 96.84000396728516, 0.0, 45.72999954223633, -18.829999923706055)
2024/05/03/12:47:02.779987;68317;1714765622;798278548;;['BL_Position', 'BL_Wheel', 'BR_Position', 'BR_Wheel', 'FL_Position', 'FL_Wheel', 'FR_Position', 'FR_Wheel'];(1.558524489402771, 792.8395385742188, 1.5600584745407104, 790.6735229492188, 1.5631264448165894, 790.9036254882812, 1.5677284002304077, 795.4396362304688);(0.0, 0.0, 0.0, 0.0, 0.0, 0.0, 0.0, 0.0);(158.7100067138672, 13.450000762939453, 137.19000244140625, 5.380000114440918, 91.45999908447266, 0.0, 40.35000228881836, -18.829999923706055)
2024/05/03/12:47:02.795321;68318;1714765622;814361637;;['BL_Position', 'BL_Wheel', 'BR_Position', 'BR_Wheel', 'FL_Position', 'FL_Wheel', 'FR_Position', 'FR_Wheel'];(1.558524489402771, 792.8380126953125, 1.5600584745407104, 790.6735229492188, 1.5631264448165894, 790.9036254882812, 1.5661944150924683, 795.4396362304688);(0.0, 0.0, 0.0, 0.0, 0.0, 0.0, 0.0, 0.0);(158.7100067138672, 13.450000762939453, 139.8800048828125, 5.380000114440918, 96.84000396728516, 0.0, 48.42000198364258, -18.829999923706055)
2024/05/03/12:47:02.811667;68319;1714765622;830227505;;['BL_Position', 'BL_Wheel', 'BR_Position', 'BR_Wheel', 'FL_Position', 'FL_Wheel', 'FR_Position', 'FR_Wheel'];(1.558524489402771, 792.8380126953125, 1.5600584745407104, 790.6735229492188, 1.5631264448165894, 790.9036254882812, 1.5677284002304077, 795.441162109375);(0.0, 0.0, 0.0, 0.0, 0.0, 0.0, 0.0, 0.0);(158.7100067138672, 13.450000762939453, 139.8800048828125, 5.380000114440918, 94.1500015258789, 0.0, 43.040000915527344, -18.829999923706055)
2024/05/03/12:47:02.841350;68320;1714765622;846331317;;['BL_Position', 'BL_Wheel', 'BR_Position', 'BR_Wheel', 'FL_Position', 'FL_Wheel', 'FR_Position', 'FR_Wheel'];(1.558524489402771, 792.8395385742188, 1.5600584745407104, 790.6735229492188, 1.5631264448165894, 790.9036254882812, 1.5661944150924683, 795.4396362304688);(0.0, 0.0, 0.0, 0.0, 0.0, 0.0, 0.0, 0.0);(158.7100067138672, 13.450000762939453, 131.80999755859375, 5.380000114440918, 96.84000396728516, 0.0, 45.72999954223633, -18.829999923706055)
2024/05/03/12:47:02.848036;68321;1714765622;862312869;;['BL_Position', 'BL_Wheel', 'BR_Position', 'BR_Wheel', 'FL_Position', 'FL_Wheel', 'FR_Position', 'FR_Wheel'];(1.558524489402771, 792.8380126953125, 1.5600584745407104, 790.6735229492188, 1.5631264448165894, 790.9036254882812, 1.5677284002304077, 795.441162109375);(0.0, 0.0, 0.0, 0.0, 0.0, 0.0, 0.0, 0.0);(158.7100067138672, 13.450000762939453, 139.8800048828125, 5.380000114440918, 94.1500015258789, 0.0, 48.42000198364258, -18.829999923706055)
2024/05/03/12:47:02.861562;68322;1714765622;878256162;;['BL_Position', 'BL_Wheel', 'BR_Position', 'BR_Wheel', 'FL_Position', 'FL_Wheel', 'FR_Position', 'FR_Wheel'];(1.558524489402771, 792.8380126953125, 1.5600584745407104, 790.6735229492188, 1.5631264448165894, 790.9036254882812, 1.5661944150924683, 795.4396362304688);(0.0, 0.0, 0.0, 0.0, 0.0, 0.0, 0.0, 0.0);(158.7100067138672, 13.450000762939453, 139.8800048828125, 5.380000114440918, 91.45999908447266, 0.0, 45.72999954223633, -18.829999923706055)
2024/05/03/12:47:02.875194;68323;1714765622;894246419;;['BL_Position', 'BL_Wheel', 'BR_Position', 'BR_Wheel', 'FL_Position', 'FL_Wheel', 'FR_Position', 'FR_Wheel'];(1.558524489402771, 792.8380126953125, 1.5600584745407104, 790.6735229492188, 1.5631264448165894, 790.9036254882812, 1.5661944150924683, 795.441162109375);(0.0, 0.0, 0.0, 0.0, 0.0, 0.0, 0.0, 0.0);(156.02000427246094, 13.450000762939453, 137.19000244140625, 5.380000114440918, 94.1500015258789, 0.0, 45.72999954223633, -18.829999923706055)
2024/05/03/12:47:02.891687;68324;1714765622;910274934;;['BL_Position', 'BL_Wheel', 'BR_Position', 'BR_Wheel', 'FL_Position', 'FL_Wheel', 'FR_Position', 'FR_Wheel'];(1.558524489402771, 792.8380126953125, 1.56159245967865, 790.6735229492188, 1.5631264448165894, 790.9036254882812, 1.5661944150924683, 795.441162109375);(0.0, 0.0, 0.0, 0.0, 0.0, 0.0, 0.0, 0.0);(156.02000427246094, 13.450000762939453, 137.19000244140625, 5.380000114440918, 94.1500015258789, 0.0, 40.35000228881836, -18.829999923706055)
2024/05/03/12:47:02.907698;68325;1714765622;926294080;;['BL_Position', 'BL_Wheel', 'BR_Position', 'BR_Wheel', 'FL_Position', 'FL_Wheel', 'FR_Position', 'FR_Wheel'];(1.558524489402771, 792.8380126953125, 1.5600584745407104, 790.6735229492188, 1.5631264448165894, 790.9036254882812, 1.5661944150924683, 795.441162109375);(0.0, 0.0, 0.0, 0.0, 0.0, 0.0, 0.0, 0.0);(158.7100067138672, 13.450000762939453, 137.19000244140625, 5.380000114440918, 94.1500015258789, 0.0, 45.72999954223633, -18.829999923706055)
2024/05/03/12:47:02.923344;68326;1714765622;942270336;;['BL_Position', 'BL_Wheel', 'BR_Position', 'BR_Wheel', 'FL_Position', 'FL_Wheel', 'FR_Position', 'FR_Wheel'];(1.558524489402771, 792.8380126953125, 1.5600584745407104, 790.6735229492188, 1.5631264448165894, 790.9036254882812, 1.5661944150924683, 795.441162109375);(0.0, 0.0, 0.0, 0.0, 0.0, 0.0, 0.0, 0.0);(156.02000427246094, 13.450000762939453, 139.8800048828125, 5.380000114440918, 94.1500015258789, 0.0, 48.42000198364258, -18.829999923706055)
2024/05/03/12:47:02.939971;68327;1714765622;958211611;;['BL_Position', 'BL_Wheel', 'BR_Position', 'BR_Wheel', 'FL_Position', 'FL_Wheel', 'FR_Position', 'FR_Wheel'];(1.558524489402771, 792.8395385742188, 1.5600584745407104, 790.6735229492188, 1.5631264448165894, 790.9036254882812, 1.5661944150924683, 795.4396362304688);(0.0, 0.0, 0.0, 0.0, 0.0, 0.0, 0.0, 0.0);(156.02000427246094, 13.450000762939453, 139.8800048828125, 5.380000114440918, 91.45999908447266, 0.0, 43.040000915527344, -18.829999923706055)
2024/05/03/12:47:02.954947;68328;1714765622;974216145;;['BL_Position', 'BL_Wheel', 'BR_Position', 'BR_Wheel', 'FL_Position', 'FL_Wheel', 'FR_Position', 'FR_Wheel'];(1.558524489402771, 792.8395385742188, 1.56159245967865, 790.6735229492188, 1.5631264448165894, 790.9036254882812, 1.5677284002304077, 795.4396362304688);(0.0, 0.0, 0.0, 0.0, 0.0, 0.0, 0.0, 0.0);(156.02000427246094, 13.450000762939453, 139.8800048828125, 5.380000114440918, 99.52999877929688, 0.0, 45.72999954223633, -18.829999923706055)
2024/05/03/12:47:02.972080;68329;1714765622;990280475;;['BL_Position', 'BL_Wheel', 'BR_Position', 'BR_Wheel', 'FL_Position', 'FL_Wheel', 'FR_Position', 'FR_Wheel'];(1.558524489402771, 792.8380126953125, 1.5600584745407104, 790.6735229492188, 1.5631264448165894, 790.9036254882812, 1.5661944150924683, 795.441162109375);(0.0, 0.0, 0.0, 0.0, 0.0, 0.0, 0.0, 0.0);(156.02000427246094, 13.450000762939453, 137.19000244140625, 5.380000114440918, 96.84000396728516, 0.0, 40.35000228881836, -18.829999923706055)
2024/05/03/12:47:02.986125;68330;1714765623;6307194;;['BL_Position', 'BL_Wheel', 'BR_Position', 'BR_Wheel', 'FL_Position', 'FL_Wheel', 'FR_Position', 'FR_Wheel'];(1.558524489402771, 792.8380126953125, 1.5600584745407104, 790.6735229492188, 1.5631264448165894, 790.9036254882812, 1.5661944150924683, 795.441162109375);(0.0, 0.0, 0.0, 0.0, 0.0, 0.0, 0.0, 0.0);(156.02000427246094, 13.450000762939453, 139.8800048828125, 5.380000114440918, 96.84000396728516, 0.0, 37.65999984741211, -18.829999923706055)
2024/05/03/12:47:03.002629;68331;1714765623;22262543;;['BL_Position', 'BL_Wheel', 'BR_Position', 'BR_Wheel', 'FL_Position', 'FL_Wheel', 'FR_Position', 'FR_Wheel'];(1.558524489402771, 792.8395385742188, 1.5600584745407104, 790.6735229492188, 1.5631264448165894, 790.9036254882812, 1.5677284002304077, 795.4396362304688);(0.0, 0.0, 0.0, 0.0, 0.0, 0.0, 0.0, 0.0);(156.02000427246094, 13.450000762939453, 139.8800048828125, 5.380000114440918, 96.84000396728516, 0.0, 45.72999954223633, -18.829999923706055)
2024/05/03/12:47:03.017451;68332;1714765623;38303985;;['BL_Position', 'BL_Wheel', 'BR_Position', 'BR_Wheel', 'FL_Position', 'FL_Wheel', 'FR_Position', 'FR_Wheel'];(1.558524489402771, 792.8380126953125, 1.5600584745407104, 790.6735229492188, 1.5631264448165894, 790.9036254882812, 1.5661944150924683, 795.4396362304688);(0.0, 0.0, 0.0, 0.0, 0.0, 0.0, 0.0, 0.0);(156.02000427246094, 13.450000762939453, 134.5, 5.380000114440918, 96.84000396728516, 0.0, 43.040000915527344, -21.520000457763672)
2024/05/03/12:47:03.046726;68333;1714765623;54241408;;['BL_Position', 'BL_Wheel', 'BR_Position', 'BR_Wheel', 'FL_Position', 'FL_Wheel', 'FR_Position', 'FR_Wheel'];(1.558524489402771, 792.8395385742188, 1.56159245967865, 790.6735229492188, 1.5631264448165894, 790.9036254882812, 1.5661944150924683, 795.441162109375);(0.0, 0.0, 0.0, 0.0, 0.0, 0.0, 0.0, 0.0);(156.02000427246094, 13.450000762939453, 139.8800048828125, 5.380000114440918, 94.1500015258789, 0.0, 43.040000915527344, -21.520000457763672)
2024/05/03/12:47:03.052215;68334;1714765623;70262794;;['BL_Position', 'BL_Wheel', 'BR_Position', 'BR_Wheel', 'FL_Position', 'FL_Wheel', 'FR_Position', 'FR_Wheel'];(1.558524489402771, 792.8380126953125, 1.5600584745407104, 790.675048828125, 1.5631264448165894, 790.9036254882812, 1.5677284002304077, 795.441162109375);(0.0, 0.0, 0.0, 0.0, 0.0, 0.0, 0.0, 0.0);(156.02000427246094, 13.450000762939453, 139.8800048828125, 5.380000114440918, 96.84000396728516, 0.0, 43.040000915527344, -21.520000457763672)
2024/05/03/12:47:03.067378;68335;1714765623;86290031;;['BL_Position', 'BL_Wheel', 'BR_Position', 'BR_Wheel', 'FL_Position', 'FL_Wheel', 'FR_Position', 'FR_Wheel'];(1.558524489402771, 792.8395385742188, 1.5600584745407104, 790.6735229492188, 1.5631264448165894, 790.9036254882812, 1.5661944150924683, 795.4396362304688);(0.0, 0.0, 0.0, 0.0, 0.0, 0.0, 0.0, 0.0);(158.7100067138672, 13.450000762939453, 137.19000244140625, 5.380000114440918, 96.84000396728516, 0.0, 43.040000915527344, -21.520000457763672)
2024/05/03/12:47:03.083896;68336;1714765623;102297602;;['BL_Position', 'BL_Wheel', 'BR_Position', 'BR_Wheel', 'FL_Position', 'FL_Wheel', 'FR_Position', 'FR_Wheel'];(1.558524489402771, 792.8380126953125, 1.5600584745407104, 790.6735229492188, 1.5646604299545288, 790.9036254882812, 1.5661944150924683, 795.441162109375);(0.0, 0.0, 0.0, 0.0, 0.0, 0.0, 0.0, 0.0);(158.7100067138672, 13.450000762939453, 134.5, 5.380000114440918, 91.45999908447266, 0.0, 37.65999984741211, -21.520000457763672)
2024/05/03/12:47:03.099438;68337;1714765623;118296155;;['BL_Position', 'BL_Wheel', 'BR_Position', 'BR_Wheel', 'FL_Position', 'FL_Wheel', 'FR_Position', 'FR_Wheel'];(1.558524489402771, 792.8380126953125, 1.56159245967865, 790.6735229492188, 1.5631264448165894, 790.9036254882812, 1.5677284002304077, 795.441162109375);(0.0, 0.0, 0.0, 0.0, 0.0, 0.0, 0.0, 0.0);(158.7100067138672, 13.450000762939453, 139.8800048828125, 5.380000114440918, 99.52999877929688, 0.0, 43.040000915527344, -18.829999923706055)
2024/05/03/12:47:03.115760;68338;1714765623;134279708;;['BL_Position', 'BL_Wheel', 'BR_Position', 'BR_Wheel', 'FL_Position', 'FL_Wheel', 'FR_Position', 'FR_Wheel'];(1.558524489402771, 792.8380126953125, 1.5600584745407104, 790.6735229492188, 1.5631264448165894, 790.9036254882812, 1.5661944150924683, 795.4396362304688);(0.0, 0.0, 0.0, 0.0, 0.0, 0.0, 0.0, 0.0);(158.7100067138672, 13.450000762939453, 139.8800048828125, 5.380000114440918, 96.84000396728516, 0.0, 45.72999954223633, -18.829999923706055)
2024/05/03/12:47:03.131736;68339;1714765623;150280057;;['BL_Position', 'BL_Wheel', 'BR_Position', 'BR_Wheel', 'FL_Position', 'FL_Wheel', 'FR_Position', 'FR_Wheel'];(1.558524489402771, 792.8395385742188, 1.5600584745407104, 790.6735229492188, 1.5631264448165894, 790.9036254882812, 1.5661944150924683, 795.4396362304688);(0.0, 0.0, 0.0, 0.0, 0.0, 0.0, 0.0, 0.0);(158.7100067138672, 13.450000762939453, 139.8800048828125, 5.380000114440918, 94.1500015258789, 0.0, 45.72999954223633, -18.829999923706055)
2024/05/03/12:47:03.154844;68340;1714765623;166234202;;['BL_Position', 'BL_Wheel', 'BR_Position', 'BR_Wheel', 'FL_Position', 'FL_Wheel', 'FR_Position', 'FR_Wheel'];(1.558524489402771, 792.8380126953125, 1.5600584745407104, 790.6735229492188, 1.5631264448165894, 790.9036254882812, 1.5661944150924683, 795.441162109375);(0.0, 0.0, 0.0, 0.0, 0.0, 0.0, 0.0, 0.0);(156.02000427246094, 13.450000762939453, 137.19000244140625, 5.380000114440918, 94.1500015258789, 0.0, 48.42000198364258, -18.829999923706055)
2024/05/03/12:47:03.161124;68341;1714765623;182225310;;['BL_Position', 'BL_Wheel', 'BR_Position', 'BR_Wheel', 'FL_Position', 'FL_Wheel', 'FR_Position', 'FR_Wheel'];(1.558524489402771, 792.8395385742188, 1.5600584745407104, 790.6735229492188, 1.5631264448165894, 790.9036254882812, 1.5661944150924683, 795.4396362304688);(0.0, 0.0, 0.0, 0.0, 0.0, 0.0, 0.0, 0.0);(158.7100067138672, 13.450000762939453, 139.8800048828125, 5.380000114440918, 94.1500015258789, 0.0, 45.72999954223633, -18.829999923706055)
2024/05/03/12:47:03.179301;68342;1714765623;198228048;;['BL_Position', 'BL_Wheel', 'BR_Position', 'BR_Wheel', 'FL_Position', 'FL_Wheel', 'FR_Position', 'FR_Wheel'];(1.558524489402771, 792.8380126953125, 1.5600584745407104, 790.6735229492188, 1.5631264448165894, 790.9036254882812, 1.5677284002304077, 795.441162109375);(0.0, 0.0, 0.0, 0.0, 0.0, 0.0, 0.0, 0.0);(158.7100067138672, 13.450000762939453, 137.19000244140625, 5.380000114440918, 94.1500015258789, 0.0, 45.72999954223633, -18.829999923706055)
2024/05/03/12:47:03.195095;68343;1714765623;214235878;;['BL_Position', 'BL_Wheel', 'BR_Position', 'BR_Wheel', 'FL_Position', 'FL_Wheel', 'FR_Position', 'FR_Wheel'];(1.558524489402771, 792.8380126953125, 1.5600584745407104, 790.6735229492188, 1.5631264448165894, 790.9036254882812, 1.5661944150924683, 795.4396362304688);(0.0, 0.0, 0.0, 0.0, 0.0, 0.0, 0.0, 0.0);(156.02000427246094, 13.450000762939453, 137.19000244140625, 5.380000114440918, 86.08000183105469, 0.0, 48.42000198364258, -18.829999923706055)
2024/05/03/12:47:03.213008;68344;1714765623;230365986;;['BL_Position', 'BL_Wheel', 'BR_Position', 'BR_Wheel', 'FL_Position', 'FL_Wheel', 'FR_Position', 'FR_Wheel'];(1.558524489402771, 792.8380126953125, 1.56159245967865, 790.6735229492188, 1.5631264448165894, 790.9036254882812, 1.5661944150924683, 795.441162109375);(0.0, 0.0, 0.0, 0.0, 0.0, 0.0, 0.0, 0.0);(156.02000427246094, 13.450000762939453, 139.8800048828125, 5.380000114440918, 96.84000396728516, 0.0, 45.72999954223633, -18.829999923706055)
2024/05/03/12:47:03.227112;68345;1714765623;246273502;;['BL_Position', 'BL_Wheel', 'BR_Position', 'BR_Wheel', 'FL_Position', 'FL_Wheel', 'FR_Position', 'FR_Wheel'];(1.558524489402771, 792.8380126953125, 1.5600584745407104, 790.6735229492188, 1.5646604299545288, 790.9036254882812, 1.5677284002304077, 795.4396362304688);(0.0, 0.0, 0.0, 0.0, 0.0, 0.0, 0.0, 0.0);(156.02000427246094, 13.450000762939453, 137.19000244140625, 5.380000114440918, 88.77000427246094, 0.0, 45.72999954223633, -18.829999923706055)
2024/05/03/12:47:03.243578;68346;1714765623;262297721;;['BL_Position', 'BL_Wheel', 'BR_Position', 'BR_Wheel', 'FL_Position', 'FL_Wheel', 'FR_Position', 'FR_Wheel'];(1.558524489402771, 792.8380126953125, 1.56159245967865, 790.6735229492188, 1.5631264448165894, 790.9036254882812, 1.5677284002304077, 795.4396362304688);(0.0, 0.0, 0.0, 0.0, 0.0, 0.0, 0.0, 0.0);(156.02000427246094, 13.450000762939453, 139.8800048828125, 5.380000114440918, 94.1500015258789, 0.0, 43.040000915527344, -18.829999923706055)
2024/05/03/12:47:03.259563;68347;1714765623;278255551;;['BL_Position', 'BL_Wheel', 'BR_Position', 'BR_Wheel', 'FL_Position', 'FL_Wheel', 'FR_Position', 'FR_Wheel'];(1.558524489402771, 792.8380126953125, 1.5600584745407104, 790.6735229492188, 1.5631264448165894, 790.9036254882812, 1.5661944150924683, 795.441162109375);(0.0, 0.0, 0.0, 0.0, 0.0, 0.0, 0.0, 0.0);(156.02000427246094, 13.450000762939453, 139.8800048828125, 5.380000114440918, 88.77000427246094, 0.0, 48.42000198364258, -18.829999923706055)
2024/05/03/12:47:03.275056;68348;1714765623;294321400;;['BL_Position', 'BL_Wheel', 'BR_Position', 'BR_Wheel', 'FL_Position', 'FL_Wheel', 'FR_Position', 'FR_Wheel'];(1.558524489402771, 792.8395385742188, 1.5600584745407104, 790.6735229492188, 1.5646604299545288, 790.9036254882812, 1.5661944150924683, 795.4396362304688);(0.0, 0.0, 0.0, 0.0, 0.0, 0.0, 0.0, 0.0);(156.02000427246094, 13.450000762939453, 139.8800048828125, 5.380000114440918, 94.1500015258789, 0.0, 43.040000915527344, -18.829999923706055)
2024/05/03/12:47:03.291575;68349;1714765623;310241397;;['BL_Position', 'BL_Wheel', 'BR_Position', 'BR_Wheel', 'FL_Position', 'FL_Wheel', 'FR_Position', 'FR_Wheel'];(1.558524489402771, 792.8380126953125, 1.5600584745407104, 790.6735229492188, 1.5631264448165894, 790.9036254882812, 1.5677284002304077, 795.4396362304688);(0.0, 0.0, 0.0, 0.0, 0.0, 0.0, 0.0, 0.0);(156.02000427246094, 13.450000762939453, 137.19000244140625, 5.380000114440918, 91.45999908447266, 0.0, 43.040000915527344, -18.829999923706055)
2024/05/03/12:47:03.307406;68350;1714765623;326238283;;['BL_Position', 'BL_Wheel', 'BR_Position', 'BR_Wheel', 'FL_Position', 'FL_Wheel', 'FR_Position', 'FR_Wheel'];(1.558524489402771, 792.8380126953125, 1.5600584745407104, 790.6735229492188, 1.5631264448165894, 790.9036254882812, 1.5661944150924683, 795.441162109375);(0.0, 0.0, 0.0, 0.0, 0.0, 0.0, 0.0, 0.0);(156.02000427246094, 13.450000762939453, 137.19000244140625, 5.380000114440918, 96.84000396728516, 0.0, 45.72999954223633, -18.829999923706055)
2024/05/03/12:47:03.324157;68351;1714765623;342196077;;['BL_Position', 'BL_Wheel', 'BR_Position', 'BR_Wheel', 'FL_Position', 'FL_Wheel', 'FR_Position', 'FR_Wheel'];(1.558524489402771, 792.8380126953125, 1.5600584745407104, 790.6735229492188, 1.5631264448165894, 790.9036254882812, 1.5661944150924683, 795.4396362304688);(0.0, 0.0, 0.0, 0.0, 0.0, 0.0, 0.0, 0.0);(156.02000427246094, 13.450000762939453, 134.5, 5.380000114440918, 96.84000396728516, 0.0, 45.72999954223633, -18.829999923706055)
2024/05/03/12:47:03.338971;68352;1714765623;358209037;;['BL_Position', 'BL_Wheel', 'BR_Position', 'BR_Wheel', 'FL_Position', 'FL_Wheel', 'FR_Position', 'FR_Wheel'];(1.558524489402771, 792.8395385742188, 1.5600584745407104, 790.6735229492188, 1.5646604299545288, 790.9036254882812, 1.5661944150924683, 795.4396362304688);(0.0, 0.0, 0.0, 0.0, 0.0, 0.0, 0.0, 0.0);(158.7100067138672, 13.450000762939453, 137.19000244140625, 5.380000114440918, 91.45999908447266, 0.0, 43.040000915527344, -18.829999923706055)
2024/05/03/12:47:03.355121;68353;1714765623;374193126;;['BL_Position', 'BL_Wheel', 'BR_Position', 'BR_Wheel', 'FL_Position', 'FL_Wheel', 'FR_Position', 'FR_Wheel'];(1.558524489402771, 792.8380126953125, 1.5600584745407104, 790.6735229492188, 1.5631264448165894, 790.9036254882812, 1.5677284002304077, 795.4396362304688);(0.0, 0.0, 0.0, 0.0, 0.0, 0.0, 0.0, 0.0);(158.7100067138672, 13.450000762939453, 134.5, 5.380000114440918, 94.1500015258789, 0.0, 40.35000228881836, -18.829999923706055)
2024/05/03/12:47:03.373383;68354;1714765623;390191512;;['BL_Position', 'BL_Wheel', 'BR_Position', 'BR_Wheel', 'FL_Position', 'FL_Wheel', 'FR_Position', 'FR_Wheel'];(1.558524489402771, 792.8395385742188, 1.56159245967865, 790.6735229492188, 1.5631264448165894, 790.9036254882812, 1.5661944150924683, 795.441162109375);(0.0, 0.0, 0.0, 0.0, 0.0, 0.0, 0.0, 0.0);(158.7100067138672, 13.450000762939453, 137.19000244140625, 5.380000114440918, 96.84000396728516, 0.0, 40.35000228881836, -18.829999923706055)
2024/05/03/12:47:03.387021;68355;1714765623;406224176;;['BL_Position', 'BL_Wheel', 'BR_Position', 'BR_Wheel', 'FL_Position', 'FL_Wheel', 'FR_Position', 'FR_Wheel'];(1.558524489402771, 792.8380126953125, 1.5600584745407104, 790.6735229492188, 1.5631264448165894, 790.9036254882812, 1.5677284002304077, 795.441162109375);(0.0, 0.0, 0.0, 0.0, 0.0, 0.0, 0.0, 0.0);(158.7100067138672, 13.450000762939453, 139.8800048828125, 5.380000114440918, 91.45999908447266, 0.0, 43.040000915527344, -18.829999923706055)
2024/05/03/12:47:03.403260;68356;1714765623;422223265;;['BL_Position', 'BL_Wheel', 'BR_Position', 'BR_Wheel', 'FL_Position', 'FL_Wheel', 'FR_Position', 'FR_Wheel'];(1.558524489402771, 792.8380126953125, 1.5600584745407104, 790.6735229492188, 1.5631264448165894, 790.9036254882812, 1.5661944150924683, 795.4396362304688);(0.0, 0.0, 0.0, 0.0, 0.0, 0.0, 0.0, 0.0);(158.7100067138672, 13.450000762939453, 137.19000244140625, 5.380000114440918, 91.45999908447266, 0.0, 45.72999954223633, -18.829999923706055)
2024/05/03/12:47:03.420472;68357;1714765623;438253244;;['BL_Position', 'BL_Wheel', 'BR_Position', 'BR_Wheel', 'FL_Position', 'FL_Wheel', 'FR_Position', 'FR_Wheel'];(1.558524489402771, 792.8380126953125, 1.5600584745407104, 790.6735229492188, 1.5631264448165894, 790.9036254882812, 1.5661944150924683, 795.441162109375);(0.0, 0.0, 0.0, 0.0, 0.0, 0.0, 0.0, 0.0);(158.7100067138672, 13.450000762939453, 137.19000244140625, 5.380000114440918, 91.45999908447266, 0.0, 45.72999954223633, -18.829999923706055)
2024/05/03/12:47:03.435050;68358;1714765623;454210315;;['BL_Position', 'BL_Wheel', 'BR_Position', 'BR_Wheel', 'FL_Position', 'FL_Wheel', 'FR_Position', 'FR_Wheel'];(1.558524489402771, 792.8395385742188, 1.5600584745407104, 790.6735229492188, 1.5631264448165894, 790.9036254882812, 1.5661944150924683, 795.4396362304688);(0.0, 0.0, 0.0, 0.0, 0.0, 0.0, 0.0, 0.0);(158.7100067138672, 13.450000762939453, 142.57000732421875, 5.380000114440918, 96.84000396728516, 0.0, 45.72999954223633, -18.829999923706055)
2024/05/03/12:47:03.452023;68359;1714765623;470243516;;['BL_Position', 'BL_Wheel', 'BR_Position', 'BR_Wheel', 'FL_Position', 'FL_Wheel', 'FR_Position', 'FR_Wheel'];(1.558524489402771, 792.8380126953125, 1.5600584745407104, 790.6735229492188, 1.5631264448165894, 790.9036254882812, 1.5661944150924683, 795.4396362304688);(0.0, 0.0, 0.0, 0.0, 0.0, 0.0, 0.0, 0.0);(158.7100067138672, 13.450000762939453, 139.8800048828125, 5.380000114440918, 94.1500015258789, 0.0, 51.11000061035156, -18.829999923706055)
2024/05/03/12:47:03.467534;68360;1714765623;486235976;;['BL_Position', 'BL_Wheel', 'BR_Position', 'BR_Wheel', 'FL_Position', 'FL_Wheel', 'FR_Position', 'FR_Wheel'];(1.558524489402771, 792.8380126953125, 1.56159245967865, 790.6735229492188, 1.5631264448165894, 790.9036254882812, 1.5677284002304077, 795.4396362304688);(0.0, 0.0, 0.0, 0.0, 0.0, 0.0, 0.0, 0.0);(156.02000427246094, 13.450000762939453, 139.8800048828125, 5.380000114440918, 96.84000396728516, 0.0, 45.72999954223633, -18.829999923706055)
2024/05/03/12:47:03.483832;68361;1714765623;502264639;;['BL_Position', 'BL_Wheel', 'BR_Position', 'BR_Wheel', 'FL_Position', 'FL_Wheel', 'FR_Position', 'FR_Wheel'];(1.558524489402771, 792.8380126953125, 1.56159245967865, 790.6735229492188, 1.5631264448165894, 790.9036254882812, 1.5661944150924683, 795.4396362304688);(0.0, 0.0, 0.0, 0.0, 0.0, 0.0, 0.0, 0.0);(156.02000427246094, 13.450000762939453, 137.19000244140625, 5.380000114440918, 96.84000396728516, 0.0, 43.040000915527344, -18.829999923706055)
2024/05/03/12:47:03.499068;68362;1714765623;518268433;;['BL_Position', 'BL_Wheel', 'BR_Position', 'BR_Wheel', 'FL_Position', 'FL_Wheel', 'FR_Position', 'FR_Wheel'];(1.558524489402771, 792.8380126953125, 1.56159245967865, 790.6735229492188, 1.5631264448165894, 790.9036254882812, 1.5661944150924683, 795.441162109375);(0.0, 0.0, 0.0, 0.0, 0.0, 0.0, 0.0, 0.0);(156.02000427246094, 13.450000762939453, 139.8800048828125, 5.380000114440918, 96.84000396728516, 0.0, 43.040000915527344, -18.829999923706055)
2024/05/03/12:47:03.515960;68363;1714765623;534281078;;['BL_Position', 'BL_Wheel', 'BR_Position', 'BR_Wheel', 'FL_Position', 'FL_Wheel', 'FR_Position', 'FR_Wheel'];(1.558524489402771, 792.8395385742188, 1.5600584745407104, 790.6735229492188, 1.5631264448165894, 790.9036254882812, 1.5677284002304077, 795.4396362304688);(0.0, 0.0, 0.0, 0.0, 0.0, 0.0, 0.0, 0.0);(156.02000427246094, 13.450000762939453, 139.8800048828125, 5.380000114440918, 96.84000396728516, 0.0, 45.72999954223633, -18.829999923706055)
2024/05/03/12:47:03.531590;68364;1714765623;550289464;;['BL_Position', 'BL_Wheel', 'BR_Position', 'BR_Wheel', 'FL_Position', 'FL_Wheel', 'FR_Position', 'FR_Wheel'];(1.558524489402771, 792.8380126953125, 1.5600584745407104, 790.6735229492188, 1.5631264448165894, 790.9036254882812, 1.5661944150924683, 795.4396362304688);(0.0, 0.0, 0.0, 0.0, 0.0, 0.0, 0.0, 0.0);(156.02000427246094, 13.450000762939453, 137.19000244140625, 5.380000114440918, 91.45999908447266, 0.0, 45.72999954223633, -18.829999923706055)
2024/05/03/12:47:03.559225;68365;1714765623;566273220;;['BL_Position', 'BL_Wheel', 'BR_Position', 'BR_Wheel', 'FL_Position', 'FL_Wheel', 'FR_Position', 'FR_Wheel'];(1.558524489402771, 792.8380126953125, 1.5600584745407104, 790.6735229492188, 1.5631264448165894, 790.9036254882812, 1.5661944150924683, 795.4396362304688);(0.0, 0.0, 0.0, 0.0, 0.0, 0.0, 0.0, 0.0);(156.02000427246094, 13.450000762939453, 139.8800048828125, 5.380000114440918, 88.77000427246094, 0.0, 40.35000228881836, -18.829999923706055)
2024/05/03/12:47:03.564893;68366;1714765623;582240717;;['BL_Position', 'BL_Wheel', 'BR_Position', 'BR_Wheel', 'FL_Position', 'FL_Wheel', 'FR_Position', 'FR_Wheel'];(1.558524489402771, 792.8395385742188, 1.5600584745407104, 790.6735229492188, 1.5631264448165894, 790.9036254882812, 1.5661944150924683, 795.441162109375);(0.0, 0.0, 0.0, 0.0, 0.0, 0.0, 0.0, 0.0);(156.02000427246094, 13.450000762939453, 139.8800048828125, 5.380000114440918, 94.1500015258789, 0.0, 43.040000915527344, -18.829999923706055)
2024/05/03/12:47:03.579623;68367;1714765623;598259622;;['BL_Position', 'BL_Wheel', 'BR_Position', 'BR_Wheel', 'FL_Position', 'FL_Wheel', 'FR_Position', 'FR_Wheel'];(1.558524489402771, 792.8380126953125, 1.56159245967865, 790.6735229492188, 1.5631264448165894, 790.9036254882812, 1.5677284002304077, 795.4396362304688);(0.0, 0.0, 0.0, 0.0, 0.0, 0.0, 0.0, 0.0);(158.7100067138672, 13.450000762939453, 137.19000244140625, 5.380000114440918, 91.45999908447266, 0.0, 43.040000915527344, -18.829999923706055)
2024/05/03/12:47:03.595227;68368;1714765623;614258100;;['BL_Position', 'BL_Wheel', 'BR_Position', 'BR_Wheel', 'FL_Position', 'FL_Wheel', 'FR_Position', 'FR_Wheel'];(1.558524489402771, 792.8395385742188, 1.5600584745407104, 790.6735229492188, 1.5646604299545288, 790.9036254882812, 1.5661944150924683, 795.4396362304688);(0.0, 0.0, 0.0, 0.0, 0.0, 0.0, 0.0, 0.0);(156.02000427246094, 13.450000762939453, 139.8800048828125, 5.380000114440918, 96.84000396728516, 0.0, 45.72999954223633, -18.829999923706055)
2024/05/03/12:47:03.610612;68369;1714765623;630268745;;['BL_Position', 'BL_Wheel', 'BR_Position', 'BR_Wheel', 'FL_Position', 'FL_Wheel', 'FR_Position', 'FR_Wheel'];(1.558524489402771, 792.8380126953125, 1.5600584745407104, 790.6735229492188, 1.5631264448165894, 790.9036254882812, 1.5661944150924683, 795.4396362304688);(0.0, 0.0, 0.0, 0.0, 0.0, 0.0, 0.0, 0.0);(156.02000427246094, 13.450000762939453, 137.19000244140625, 5.380000114440918, 91.45999908447266, 0.0, 40.35000228881836, -18.829999923706055)
2024/05/03/12:47:03.628566;68370;1714765623;646234946;;['BL_Position', 'BL_Wheel', 'BR_Position', 'BR_Wheel', 'FL_Position', 'FL_Wheel', 'FR_Position', 'FR_Wheel'];(1.558524489402771, 792.8380126953125, 1.5600584745407104, 790.6735229492188, 1.5631264448165894, 790.9036254882812, 1.5661944150924683, 795.441162109375);(0.0, 0.0, 0.0, 0.0, 0.0, 0.0, 0.0, 0.0);(156.02000427246094, 13.450000762939453, 139.8800048828125, 5.380000114440918, 94.1500015258789, 0.0, 48.42000198364258, -18.829999923706055)
2024/05/03/12:47:03.642715;68371;1714765623;662238351;;['BL_Position', 'BL_Wheel', 'BR_Position', 'BR_Wheel', 'FL_Position', 'FL_Wheel', 'FR_Position', 'FR_Wheel'];(1.558524489402771, 792.8395385742188, 1.5600584745407104, 790.6735229492188, 1.5631264448165894, 790.9036254882812, 1.5661944150924683, 795.441162109375);(0.0, 0.0, 0.0, 0.0, 0.0, 0.0, 0.0, 0.0);(156.02000427246094, 13.450000762939453, 137.19000244140625, 5.380000114440918, 96.84000396728516, 0.0, 48.42000198364258, -18.829999923706055)
2024/05/03/12:47:03.666973;68372;1714765623;678234811;;['BL_Position', 'BL_Wheel', 'BR_Position', 'BR_Wheel', 'FL_Position', 'FL_Wheel', 'FR_Position', 'FR_Wheel'];(1.558524489402771, 792.8380126953125, 1.5600584745407104, 790.6735229492188, 1.5631264448165894, 790.9036254882812, 1.5661944150924683, 795.441162109375);(0.0, 0.0, 0.0, 0.0, 0.0, 0.0, 0.0, 0.0);(156.02000427246094, 13.450000762939453, 139.8800048828125, 5.380000114440918, 94.1500015258789, 0.0, 43.040000915527344, -18.829999923706055)
2024/05/03/12:47:03.674443;68373;1714765623;694222622;;['BL_Position', 'BL_Wheel', 'BR_Position', 'BR_Wheel', 'FL_Position', 'FL_Wheel', 'FR_Position', 'FR_Wheel'];(1.558524489402771, 792.8395385742188, 1.5600584745407104, 790.6735229492188, 1.5631264448165894, 790.9036254882812, 1.5661944150924683, 795.441162109375);(0.0, 0.0, 0.0, 0.0, 0.0, 0.0, 0.0, 0.0);(156.02000427246094, 13.450000762939453, 134.5, 5.380000114440918, 94.1500015258789, 0.0, 43.040000915527344, -18.829999923706055)
2024/05/03/12:47:03.691050;68374;1714765623;710325305;;['BL_Position', 'BL_Wheel', 'BR_Position', 'BR_Wheel', 'FL_Position', 'FL_Wheel', 'FR_Position', 'FR_Wheel'];(1.558524489402771, 792.8395385742188, 1.5600584745407104, 790.6735229492188, 1.5646604299545288, 790.9036254882812, 1.5677284002304077, 795.4396362304688);(0.0, 0.0, 0.0, 0.0, 0.0, 0.0, 0.0, 0.0);(158.7100067138672, 13.450000762939453, 139.8800048828125, 5.380000114440918, 96.84000396728516, 0.0, 48.42000198364258, -18.829999923706055)
2024/05/03/12:47:03.707106;68375;1714765623;726294524;;['BL_Position', 'BL_Wheel', 'BR_Position', 'BR_Wheel', 'FL_Position', 'FL_Wheel', 'FR_Position', 'FR_Wheel'];(1.558524489402771, 792.8380126953125, 1.5600584745407104, 790.6735229492188, 1.5631264448165894, 790.9036254882812, 1.5661944150924683, 795.4396362304688);(0.0, 0.0, 0.0, 0.0, 0.0, 0.0, 0.0, 0.0);(158.7100067138672, 13.450000762939453, 139.8800048828125, 5.380000114440918, 91.45999908447266, 0.0, 48.42000198364258, -18.829999923706055)
2024/05/03/12:47:03.724159;68376;1714765623;742227743;;['BL_Position', 'BL_Wheel', 'BR_Position', 'BR_Wheel', 'FL_Position', 'FL_Wheel', 'FR_Position', 'FR_Wheel'];(1.558524489402771, 792.8380126953125, 1.5600584745407104, 790.6735229492188, 1.5631264448165894, 790.9036254882812, 1.5661944150924683, 795.441162109375);(0.0, 0.0, 0.0, 0.0, 0.0, 0.0, 0.0, 0.0);(158.7100067138672, 13.450000762939453, 137.19000244140625, 5.380000114440918, 96.84000396728516, 0.0, 43.040000915527344, -18.829999923706055)
2024/05/03/12:47:03.739149;68377;1714765623;758265703;;['BL_Position', 'BL_Wheel', 'BR_Position', 'BR_Wheel', 'FL_Position', 'FL_Wheel', 'FR_Position', 'FR_Wheel'];(1.558524489402771, 792.8380126953125, 1.5600584745407104, 790.6735229492188, 1.5631264448165894, 790.9036254882812, 1.5661944150924683, 795.4396362304688);(0.0, 0.0, 0.0, 0.0, 0.0, 0.0, 0.0, 0.0);(158.7100067138672, 13.450000762939453, 137.19000244140625, 5.380000114440918, 96.84000396728516, 0.0, 45.72999954223633, -18.829999923706055)
2024/05/03/12:47:03.754314;68378;1714765623;774302626;;['BL_Position', 'BL_Wheel', 'BR_Position', 'BR_Wheel', 'FL_Position', 'FL_Wheel', 'FR_Position', 'FR_Wheel'];(1.558524489402771, 792.8380126953125, 1.5600584745407104, 790.6735229492188, 1.5631264448165894, 790.9036254882812, 1.5661944150924683, 795.441162109375);(0.0, 0.0, 0.0, 0.0, 0.0, 0.0, 0.0, 0.0);(158.7100067138672, 13.450000762939453, 139.8800048828125, 5.380000114440918, 94.1500015258789, 0.0, 43.040000915527344, -18.829999923706055)
2024/05/03/12:47:03.773411;68379;1714765623;790200994;;['BL_Position', 'BL_Wheel', 'BR_Position', 'BR_Wheel', 'FL_Position', 'FL_Wheel', 'FR_Position', 'FR_Wheel'];(1.558524489402771, 792.8395385742188, 1.56159245967865, 790.6735229492188, 1.5631264448165894, 790.9036254882812, 1.5677284002304077, 795.4396362304688);(0.0, 0.0, 0.0, 0.0, 0.0, 0.0, 0.0, 0.0);(158.7100067138672, 13.450000762939453, 137.19000244140625, 5.380000114440918, 94.1500015258789, 0.0, 43.040000915527344, -18.829999923706055)
2024/05/03/12:47:03.787717;68380;1714765623;806247361;;['BL_Position', 'BL_Wheel', 'BR_Position', 'BR_Wheel', 'FL_Position', 'FL_Wheel', 'FR_Position', 'FR_Wheel'];(1.558524489402771, 792.8395385742188, 1.5600584745407104, 790.6735229492188, 1.5631264448165894, 790.9036254882812, 1.5661944150924683, 795.441162109375);(0.0, 0.0, 0.0, 0.0, 0.0, 0.0, 0.0, 0.0);(158.7100067138672, 13.450000762939453, 137.19000244140625, 5.380000114440918, 96.84000396728516, 0.0, 43.040000915527344, -18.829999923706055)
2024/05/03/12:47:03.803315;68381;1714765623;822274580;;['BL_Position', 'BL_Wheel', 'BR_Position', 'BR_Wheel', 'FL_Position', 'FL_Wheel', 'FR_Position', 'FR_Wheel'];(1.558524489402771, 792.8380126953125, 1.5600584745407104, 790.6735229492188, 1.5631264448165894, 790.9036254882812, 1.5661944150924683, 795.4396362304688);(0.0, 0.0, 0.0, 0.0, 0.0, 0.0, 0.0, 0.0);(156.02000427246094, 13.450000762939453, 134.5, 5.380000114440918, 99.52999877929688, 0.0, 37.65999984741211, -18.829999923706055)
2024/05/03/12:47:03.819447;68382;1714765623;838205429;;['BL_Position', 'BL_Wheel', 'BR_Position', 'BR_Wheel', 'FL_Position', 'FL_Wheel', 'FR_Position', 'FR_Wheel'];(1.5600584745407104, 792.8380126953125, 1.56159245967865, 790.6735229492188, 1.5631264448165894, 790.9036254882812, 1.5661944150924683, 795.441162109375);(0.0, 0.0, 0.0, 0.0, 0.0, 0.0, 0.0, 0.0);(156.02000427246094, 13.450000762939453, 139.8800048828125, 5.380000114440918, 96.84000396728516, 0.0, 43.040000915527344, -18.829999923706055)
2024/05/03/12:47:03.835633;68383;1714765623;854231315;;['BL_Position', 'BL_Wheel', 'BR_Position', 'BR_Wheel', 'FL_Position', 'FL_Wheel', 'FR_Position', 'FR_Wheel'];(1.558524489402771, 792.8380126953125, 1.5600584745407104, 790.6735229492188, 1.5631264448165894, 790.9036254882812, 1.5661944150924683, 795.4396362304688);(0.0, 0.0, 0.0, 0.0, 0.0, 0.0, 0.0, 0.0);(158.7100067138672, 13.450000762939453, 137.19000244140625, 5.380000114440918, 96.84000396728516, 0.0, 40.35000228881836, -18.829999923706055)
2024/05/03/12:47:03.851895;68384;1714765623;870317516;;['BL_Position', 'BL_Wheel', 'BR_Position', 'BR_Wheel', 'FL_Position', 'FL_Wheel', 'FR_Position', 'FR_Wheel'];(1.558524489402771, 792.8380126953125, 1.5600584745407104, 790.6735229492188, 1.5631264448165894, 790.9036254882812, 1.5661944150924683, 795.4396362304688);(0.0, 0.0, 0.0, 0.0, 0.0, 0.0, 0.0, 0.0);(158.7100067138672, 13.450000762939453, 137.19000244140625, 5.380000114440918, 94.1500015258789, 0.0, 45.72999954223633, -18.829999923706055)
2024/05/03/12:47:03.871783;68385;1714765623;886234513;;['BL_Position', 'BL_Wheel', 'BR_Position', 'BR_Wheel', 'FL_Position', 'FL_Wheel', 'FR_Position', 'FR_Wheel'];(1.558524489402771, 792.8380126953125, 1.5600584745407104, 790.6735229492188, 1.5631264448165894, 790.9036254882812, 1.5661944150924683, 795.4396362304688);(0.0, 0.0, 0.0, 0.0, 0.0, 0.0, 0.0, 0.0);(158.7100067138672, 13.450000762939453, 137.19000244140625, 5.380000114440918, 96.84000396728516, 0.0, 48.42000198364258, -16.139999389648438)
2024/05/03/12:47:03.885671;68386;1714765623;902297306;;['BL_Position', 'BL_Wheel', 'BR_Position', 'BR_Wheel', 'FL_Position', 'FL_Wheel', 'FR_Position', 'FR_Wheel'];(1.558524489402771, 792.8380126953125, 1.5600584745407104, 790.6735229492188, 1.5631264448165894, 790.9036254882812, 1.5661944150924683, 795.4396362304688);(0.0, 0.0, 0.0, 0.0, 0.0, 0.0, 0.0, 0.0);(156.02000427246094, 13.450000762939453, 139.8800048828125, 5.380000114440918, 91.45999908447266, 0.0, 45.72999954223633, -16.139999389648438)
