time;.header.seq;.header.stamp.secs;.header.stamp.nsecs;.header.frame_id;.name;.position;.velocity;.effort
2024/05/03/14:04:47.386842;9881;1714770287;206045607;;['BL_Position', 'BL_Wheel', 'BR_Position', 'BR_Wheel', 'FL_Position', 'FL_Wheel', 'FR_Position', 'FR_Wheel'];(0.0015339808305725455, 2906.15283203125, -0.003067961661145091, 2824.74755859375, -0.0015339808305725455, 2904.2998046875, 0.0, 2829.283447265625);(0.0, 0.0, 0.0, 0.0, 0.0, 0.0, 0.0, 0.0);(0.0, 0.0, 34.970001220703125, 5.380000114440918, 2.690000057220459, -2.690000057220459, 5.380000114440918, 0.0)
2024/05/03/14:04:47.386852;9882;1714770287;222000641;;['BL_Position', 'BL_Wheel', 'BR_Position', 'BR_Wheel', 'FL_Position', 'FL_Wheel', 'FR_Position', 'FR_Wheel'];(0.0, 2906.15283203125, -0.003067961661145091, 2824.74755859375, -0.0015339808305725455, 2904.2998046875, 0.0, 2829.283447265625);(0.0, 0.0, 0.0, 0.0, 0.0, 0.0, 0.0, 0.0);(0.0, 0.0, 34.970001220703125, 5.380000114440918, 34.970001220703125, -2.690000057220459, 5.380000114440918, 0.0)
2024/05/03/14:04:47.386857;9883;1714770287;237996600;;['BL_Position', 'BL_Wheel', 'BR_Position', 'BR_Wheel', 'FL_Position', 'FL_Wheel', 'FR_Position', 'FR_Wheel'];(0.0, 2906.15283203125, -0.003067961661145091, 2824.745849609375, -0.0015339808305725455, 2904.2998046875, 0.0, 2829.283447265625);(0.0, 0.0, 0.0, 0.0, 0.0, 0.0, 0.0, 0.0);(0.0, 0.0, 34.970001220703125, 5.380000114440918, 26.900001525878906, -2.690000057220459, 5.380000114440918, 0.0)
2024/05/03/14:04:47.386862;9884;1714770287;253995688;;['BL_Position', 'BL_Wheel', 'BR_Position', 'BR_Wheel', 'FL_Position', 'FL_Wheel', 'FR_Position', 'FR_Wheel'];(0.0, 2906.15283203125, -0.003067961661145091, 2824.74755859375, -0.0015339808305725455, 2904.2998046875, -0.0015339808305725455, 2829.283447265625);(0.0, 0.0, 0.0, 0.0, 0.0, 0.0, 0.0, 0.0);(0.0, 0.0, 34.970001220703125, 5.380000114440918, 51.11000061035156, -2.690000057220459, 8.069999694824219, 0.0)
2024/05/03/14:04:47.386864;9885;1714770287;270051088;;['BL_Position', 'BL_Wheel', 'BR_Position', 'BR_Wheel', 'FL_Position', 'FL_Wheel', 'FR_Position', 'FR_Wheel'];(0.0, 2906.15283203125, -0.003067961661145091, 2824.745849609375, -0.0015339808305725455, 2904.2998046875, 0.0, 2829.283447265625);(0.0, 0.0, 0.0, 0.0, 0.0, 0.0, 0.0, 0.0);(0.0, 0.0, 32.279998779296875, 5.380000114440918, -5.380000114440918, -2.690000057220459, 5.380000114440918, 0.0)
2024/05/03/14:04:47.386877;9886;1714770287;286174281;;['BL_Position', 'BL_Wheel', 'BR_Position', 'BR_Wheel', 'FL_Position', 'FL_Wheel', 'FR_Position', 'FR_Wheel'];(0.0015339808305725455, 2906.15283203125, -0.003067961661145091, 2824.74755859375, -0.0015339808305725455, 2904.2998046875, 0.0, 2829.283447265625);(0.0, 0.0, 0.0, 0.0, 0.0, 0.0, 0.0, 0.0);(0.0, 0.0, 34.970001220703125, 5.380000114440918, 5.380000114440918, -2.690000057220459, 8.069999694824219, 0.0)
2024/05/03/14:04:47.386884;9887;1714770287;303361332;;['BL_Position', 'BL_Wheel', 'BR_Position', 'BR_Wheel', 'FL_Position', 'FL_Wheel', 'FR_Position', 'FR_Wheel'];(0.0, 2906.15283203125, -0.003067961661145091, 2824.74755859375, -0.0015339808305725455, 2904.2998046875, 0.0, 2829.283447265625);(0.0, 0.0, 0.0, 0.0, 0.0, 0.0, 0.0, 0.0);(0.0, 0.0, 34.970001220703125, 5.380000114440918, 48.42000198364258, -2.690000057220459, 5.380000114440918, 0.0)
2024/05/03/14:04:47.386892;9888;1714770287;318310728;;['BL_Position', 'BL_Wheel', 'BR_Position', 'BR_Wheel', 'FL_Position', 'FL_Wheel', 'FR_Position', 'FR_Wheel'];(0.0, 2906.15283203125, -0.003067961661145091, 2824.745849609375, -0.0015339808305725455, 2904.2998046875, 0.0, 2829.283447265625);(0.0, 0.0, 0.0, 0.0, 0.0, 0.0, 0.0, 0.0);(0.0, 0.0, 34.970001220703125, 5.380000114440918, 21.520000457763672, -2.690000057220459, 5.380000114440918, 0.0)
2024/05/03/14:04:47.386903;9889;1714770287;334316797;;['BL_Position', 'BL_Wheel', 'BR_Position', 'BR_Wheel', 'FL_Position', 'FL_Wheel', 'FR_Position', 'FR_Wheel'];(0.0015339808305725455, 2906.15283203125, -0.003067961661145091, 2824.74755859375, -0.0015339808305725455, 2904.2998046875, 0.0, 2829.283447265625);(0.0, 0.0, 0.0, 0.0, 0.0, 0.0, 0.0, 0.0);(0.0, 0.0, 32.279998779296875, 5.380000114440918, 5.380000114440918, -2.690000057220459, 5.380000114440918, 0.0)
2024/05/03/14:04:47.403117;9890;1714770287;349988678;;['BL_Position', 'BL_Wheel', 'BR_Position', 'BR_Wheel', 'FL_Position', 'FL_Wheel', 'FR_Position', 'FR_Wheel'];(0.0, 2906.15283203125, -0.003067961661145091, 2824.74755859375, -0.0015339808305725455, 2904.2998046875, -0.0015339808305725455, 2829.283447265625);(0.0, 0.0, 0.0, 0.0, 0.0, 0.0, 0.0, 0.0);(0.0, 0.0, 34.970001220703125, 5.380000114440918, 2.690000057220459, -2.690000057220459, 5.380000114440918, 0.0)
2024/05/03/14:04:47.525335;9891;1714770287;366045967;;['BL_Position', 'BL_Wheel', 'BR_Position', 'BR_Wheel', 'FL_Position', 'FL_Wheel', 'FR_Position', 'FR_Wheel'];(0.0015339808305725455, 2906.15283203125, -0.003067961661145091, 2824.74755859375, -0.0015339808305725455, 2904.2998046875, 0.0, 2829.281982421875);(0.0, 0.0, 0.0, 0.0, 0.0, 0.0, 0.0, 0.0);(0.0, 0.0, 32.279998779296875, 5.380000114440918, 16.139999389648438, -2.690000057220459, 2.690000057220459, 0.0)
2024/05/03/14:04:47.525363;9892;1714770287;382056906;;['BL_Position', 'BL_Wheel', 'BR_Position', 'BR_Wheel', 'FL_Position', 'FL_Wheel', 'FR_Position', 'FR_Wheel'];(0.0, 2906.15283203125, -0.003067961661145091, 2824.745849609375, -0.0015339808305725455, 2904.2998046875, -0.0015339808305725455, 2829.283447265625);(0.0, 0.0, 0.0, 0.0, 0.0, 0.0, 0.0, 0.0);(0.0, 0.0, 34.970001220703125, 5.380000114440918, 34.970001220703125, -2.690000057220459, 5.380000114440918, 0.0)
2024/05/03/14:04:47.525367;9893;1714770287;398045587;;['BL_Position', 'BL_Wheel', 'BR_Position', 'BR_Wheel', 'FL_Position', 'FL_Wheel', 'FR_Position', 'FR_Wheel'];(0.0, 2906.15283203125, -0.003067961661145091, 2824.745849609375, -0.0015339808305725455, 2904.2998046875, -0.0015339808305725455, 2829.281982421875);(0.0, 0.0, 0.0, 0.0, 0.0, 0.0, 0.0, 0.0);(0.0, 0.0, 34.970001220703125, 5.380000114440918, 8.069999694824219, -2.690000057220459, 5.380000114440918, 0.0)
2024/05/03/14:04:47.525380;9894;1714770287;414247295;;['BL_Position', 'BL_Wheel', 'BR_Position', 'BR_Wheel', 'FL_Position', 'FL_Wheel', 'FR_Position', 'FR_Wheel'];(0.0, 2906.15283203125, -0.003067961661145091, 2824.74755859375, -0.0015339808305725455, 2904.2998046875, -0.0015339808305725455, 2829.283447265625);(0.0, 0.0, 0.0, 0.0, 0.0, 0.0, 0.0, 0.0);(0.0, 0.0, 32.279998779296875, 5.380000114440918, 2.690000057220459, -2.690000057220459, 5.380000114440918, 0.0)
2024/05/03/14:04:47.533875;9895;1714770287;430036818;;['BL_Position', 'BL_Wheel', 'BR_Position', 'BR_Wheel', 'FL_Position', 'FL_Wheel', 'FR_Position', 'FR_Wheel'];(0.0, 2906.15283203125, -0.003067961661145091, 2824.745849609375, -0.0015339808305725455, 2904.2998046875, -0.0015339808305725455, 2829.283447265625);(0.0, 0.0, 0.0, 0.0, 0.0, 0.0, 0.0, 0.0);(0.0, 0.0, 34.970001220703125, 5.380000114440918, 29.59000015258789, -2.690000057220459, 5.380000114440918, 0.0)
2024/05/03/14:04:47.533901;9896;1714770287;446111810;;['BL_Position', 'BL_Wheel', 'BR_Position', 'BR_Wheel', 'FL_Position', 'FL_Wheel', 'FR_Position', 'FR_Wheel'];(0.0015339808305725455, 2906.15283203125, -0.003067961661145091, 2824.74755859375, -0.0015339808305725455, 2904.2998046875, -0.0015339808305725455, 2829.283447265625);(0.0, 0.0, 0.0, 0.0, 0.0, 0.0, 0.0, 0.0);(0.0, 0.0, 32.279998779296875, 5.380000114440918, 34.970001220703125, -2.690000057220459, 5.380000114440918, 0.0)
2024/05/03/14:04:47.533933;9897;1714770287;463345618;;['BL_Position', 'BL_Wheel', 'BR_Position', 'BR_Wheel', 'FL_Position', 'FL_Wheel', 'FR_Position', 'FR_Wheel'];(0.0, 2906.15283203125, -0.003067961661145091, 2824.74755859375, -0.0015339808305725455, 2904.2998046875, 0.0, 2829.283447265625);(0.0, 0.0, 0.0, 0.0, 0.0, 0.0, 0.0, 0.0);(0.0, 0.0, 29.59000015258789, 5.380000114440918, 8.069999694824219, -2.690000057220459, 5.380000114440918, 0.0)
2024/05/03/14:04:47.533957;9898;1714770287;477987140;;['BL_Position', 'BL_Wheel', 'BR_Position', 'BR_Wheel', 'FL_Position', 'FL_Wheel', 'FR_Position', 'FR_Wheel'];(0.0, 2906.15283203125, -0.003067961661145091, 2824.74755859375, -0.003067961661145091, 2904.2998046875, 0.0, 2829.283447265625);(0.0, 0.0, 0.0, 0.0, 0.0, 0.0, 0.0, 0.0);(0.0, 0.0, 34.970001220703125, 5.380000114440918, 18.829999923706055, -2.690000057220459, 5.380000114440918, 0.0)
2024/05/03/14:04:47.667273;9899;1714770287;494473186;;['BL_Position', 'BL_Wheel', 'BR_Position', 'BR_Wheel', 'FL_Position', 'FL_Wheel', 'FR_Position', 'FR_Wheel'];(0.0015339808305725455, 2906.15283203125, -0.0015339808305725455, 2824.74755859375, -0.0015339808305725455, 2904.2998046875, 0.0, 2829.283447265625);(0.0, 0.0, 0.0, 0.0, 0.0, 0.0, 0.0, 0.0);(0.0, 0.0, 34.970001220703125, 5.380000114440918, 29.59000015258789, -2.690000057220459, 5.380000114440918, 0.0)
2024/05/03/14:04:47.667325;9900;1714770287;510143141;;['BL_Position', 'BL_Wheel', 'BR_Position', 'BR_Wheel', 'FL_Position', 'FL_Wheel', 'FR_Position', 'FR_Wheel'];(0.0, 2906.15283203125, -0.003067961661145091, 2824.74755859375, -0.0015339808305725455, 2904.2998046875, -0.0015339808305725455, 2829.283447265625);(0.0, 0.0, 0.0, 0.0, 0.0, 0.0, 0.0, 0.0);(2.690000057220459, 0.0, 32.279998779296875, 5.380000114440918, 29.59000015258789, -2.690000057220459, 5.380000114440918, 0.0)
2024/05/03/14:04:47.667336;9901;1714770287;525988385;;['BL_Position', 'BL_Wheel', 'BR_Position', 'BR_Wheel', 'FL_Position', 'FL_Wheel', 'FR_Position', 'FR_Wheel'];(0.0, 2906.15283203125, -0.003067961661145091, 2824.74755859375, -0.0015339808305725455, 2904.2998046875, 0.0, 2829.283447265625);(0.0, 0.0, 0.0, 0.0, 0.0, 0.0, 0.0, 0.0);(0.0, 0.0, 34.970001220703125, 5.380000114440918, -2.690000057220459, -2.690000057220459, 5.380000114440918, 0.0)
2024/05/03/14:04:47.667360;9902;1714770287;542578056;;['BL_Position', 'BL_Wheel', 'BR_Position', 'BR_Wheel', 'FL_Position', 'FL_Wheel', 'FR_Position', 'FR_Wheel'];(0.0, 2906.15283203125, -0.003067961661145091, 2824.74755859375, -0.0015339808305725455, 2904.2998046875, -0.0015339808305725455, 2829.283447265625);(0.0, 0.0, 0.0, 0.0, 0.0, 0.0, 0.0, 0.0);(0.0, 0.0, 32.279998779296875, 5.380000114440918, 51.11000061035156, -2.690000057220459, 5.380000114440918, 0.0)
2024/05/03/14:04:47.667380;9903;1714770287;557971839;;['BL_Position', 'BL_Wheel', 'BR_Position', 'BR_Wheel', 'FL_Position', 'FL_Wheel', 'FR_Position', 'FR_Wheel'];(0.0015339808305725455, 2906.154296875, -0.003067961661145091, 2824.745849609375, -0.0015339808305725455, 2904.2998046875, 0.0, 2829.283447265625);(0.0, 0.0, 0.0, 0.0, 0.0, 0.0, 0.0, 0.0);(0.0, 0.0, 32.279998779296875, 5.380000114440918, 29.59000015258789, -2.690000057220459, 5.380000114440918, 0.0)
2024/05/03/14:04:47.672916;9904;1714770287;574161622;;['BL_Position', 'BL_Wheel', 'BR_Position', 'BR_Wheel', 'FL_Position', 'FL_Wheel', 'FR_Position', 'FR_Wheel'];(0.0, 2906.15283203125, -0.003067961661145091, 2824.74755859375, -0.0015339808305725455, 2904.2998046875, 0.0, 2829.283447265625);(0.0, 0.0, 0.0, 0.0, 0.0, 0.0, 0.0, 0.0);(0.0, 0.0, 34.970001220703125, 5.380000114440918, 8.069999694824219, -2.690000057220459, 5.380000114440918, 0.0)
2024/05/03/14:04:47.672948;9905;1714770287;590005735;;['BL_Position', 'BL_Wheel', 'BR_Position', 'BR_Wheel', 'FL_Position', 'FL_Wheel', 'FR_Position', 'FR_Wheel'];(0.0, 2906.15283203125, -0.003067961661145091, 2824.74755859375, -0.0015339808305725455, 2904.2998046875, 0.0, 2829.283447265625);(0.0, 0.0, 0.0, 0.0, 0.0, 0.0, 0.0, 0.0);(0.0, 0.0, 32.279998779296875, 5.380000114440918, 5.380000114440918, -2.690000057220459, 5.380000114440918, 0.0)
2024/05/03/14:04:47.672953;9906;1714770287;606013360;;['BL_Position', 'BL_Wheel', 'BR_Position', 'BR_Wheel', 'FL_Position', 'FL_Wheel', 'FR_Position', 'FR_Wheel'];(0.0, 2906.15283203125, -0.003067961661145091, 2824.74755859375, -0.0015339808305725455, 2904.2998046875, -0.0015339808305725455, 2829.283447265625);(0.0, 0.0, 0.0, 0.0, 0.0, 0.0, 0.0, 0.0);(0.0, 0.0, 34.970001220703125, 5.380000114440918, 16.139999389648438, -2.690000057220459, 5.380000114440918, 0.0)
2024/05/03/14:04:47.673013;9907;1714770287;621990115;;['BL_Position', 'BL_Wheel', 'BR_Position', 'BR_Wheel', 'FL_Position', 'FL_Wheel', 'FR_Position', 'FR_Wheel'];(0.0, 2906.15283203125, -0.003067961661145091, 2824.74755859375, -0.0015339808305725455, 2904.2998046875, -0.0015339808305725455, 2829.283447265625);(0.0, 0.0, 0.0, 0.0, 0.0, 0.0, 0.0, 0.0);(0.0, 0.0, 34.970001220703125, 5.380000114440918, 80.70000457763672, -2.690000057220459, 5.380000114440918, 0.0)
2024/05/03/14:04:47.765918;9908;1714770287;637974704;;['BL_Position', 'BL_Wheel', 'BR_Position', 'BR_Wheel', 'FL_Position', 'FL_Wheel', 'FR_Position', 'FR_Wheel'];(0.0, 2906.15283203125, -0.003067961661145091, 2824.74755859375, -0.0015339808305725455, 2904.2998046875, 0.0, 2829.283447265625);(0.0, 0.0, 0.0, 0.0, 0.0, 0.0, 0.0, 0.0);(0.0, 0.0, 34.970001220703125, 5.380000114440918, 10.760000228881836, -2.690000057220459, 5.380000114440918, 0.0)
2024/05/03/14:04:47.766053;9909;1714770287;654091934;;['BL_Position', 'BL_Wheel', 'BR_Position', 'BR_Wheel', 'FL_Position', 'FL_Wheel', 'FR_Position', 'FR_Wheel'];(0.0, 2906.15283203125, -0.003067961661145091, 2824.74755859375, -0.0015339808305725455, 2904.2998046875, 0.0, 2829.283447265625);(0.0, 0.0, 0.0, 0.0, 0.0, 0.0, 0.0, 0.0);(0.0, 0.0, 34.970001220703125, 5.380000114440918, 5.380000114440918, -2.690000057220459, 5.380000114440918, 0.0)
2024/05/03/14:04:47.766112;9910;1714770287;670099262;;['BL_Position', 'BL_Wheel', 'BR_Position', 'BR_Wheel', 'FL_Position', 'FL_Wheel', 'FR_Position', 'FR_Wheel'];(0.0, 2906.15283203125, -0.0015339808305725455, 2824.74755859375, -0.0015339808305725455, 2904.2998046875, 0.0, 2829.283447265625);(0.0, 0.0, 0.0, 0.0, 0.0, 0.0, 0.0, 0.0);(0.0, 0.0, 34.970001220703125, 5.380000114440918, 8.069999694824219, -2.690000057220459, 5.380000114440918, 0.0)
2024/05/03/14:04:47.766137;9911;1714770287;686017021;;['BL_Position', 'BL_Wheel', 'BR_Position', 'BR_Wheel', 'FL_Position', 'FL_Wheel', 'FR_Position', 'FR_Wheel'];(0.0, 2906.15283203125, -0.003067961661145091, 2824.745849609375, -0.0015339808305725455, 2904.2998046875, -0.0015339808305725455, 2829.283447265625);(0.0, 0.0, 0.0, 0.0, 0.0, 0.0, 0.0, 0.0);(0.0, 0.0, 34.970001220703125, 5.380000114440918, 29.59000015258789, -2.690000057220459, 5.380000114440918, 0.0)
2024/05/03/14:04:47.766159;9912;1714770287;701999313;;['BL_Position', 'BL_Wheel', 'BR_Position', 'BR_Wheel', 'FL_Position', 'FL_Wheel', 'FR_Position', 'FR_Wheel'];(0.0, 2906.15283203125, -0.003067961661145091, 2824.745849609375, -0.0015339808305725455, 2904.2998046875, 0.0, 2829.283447265625);(0.0, 0.0, 0.0, 0.0, 0.0, 0.0, 0.0, 0.0);(0.0, 0.0, 34.970001220703125, 5.380000114440918, 29.59000015258789, -2.690000057220459, 5.380000114440918, 0.0)
2024/05/03/14:04:47.770965;9913;1714770287;718029992;;['BL_Position', 'BL_Wheel', 'BR_Position', 'BR_Wheel', 'FL_Position', 'FL_Wheel', 'FR_Position', 'FR_Wheel'];(0.0, 2906.154296875, -0.003067961661145091, 2824.745849609375, -0.0015339808305725455, 2904.2998046875, -0.0015339808305725455, 2829.281982421875);(0.0, 0.0, 0.0, 0.0, 0.0, 0.0, 0.0, 0.0);(0.0, 0.0, 32.279998779296875, 5.380000114440918, 29.59000015258789, -2.690000057220459, 5.380000114440918, 0.0)
2024/05/03/14:04:47.779360;9914;1714770287;734024784;;['BL_Position', 'BL_Wheel', 'BR_Position', 'BR_Wheel', 'FL_Position', 'FL_Wheel', 'FR_Position', 'FR_Wheel'];(0.0, 2906.15283203125, -0.003067961661145091, 2824.74755859375, -0.0015339808305725455, 2904.2998046875, -0.0015339808305725455, 2829.283447265625);(0.0, 0.0, 0.0, 0.0, 0.0, 0.0, 0.0, 0.0);(0.0, 0.0, 34.970001220703125, 5.380000114440918, -13.450000762939453, -2.690000057220459, 5.380000114440918, 0.0)
2024/05/03/14:04:47.862317;9915;1714770287;750024390;;['BL_Position', 'BL_Wheel', 'BR_Position', 'BR_Wheel', 'FL_Position', 'FL_Wheel', 'FR_Position', 'FR_Wheel'];(0.0015339808305725455, 2906.15283203125, -0.003067961661145091, 2824.745849609375, -0.003067961661145091, 2904.2998046875, -0.0015339808305725455, 2829.283447265625);(0.0, 0.0, 0.0, 0.0, 0.0, 0.0, 0.0, 0.0);(0.0, 0.0, 34.970001220703125, 5.380000114440918, 8.069999694824219, -2.690000057220459, 5.380000114440918, 0.0)
2024/05/03/14:04:47.862507;9916;1714770287;765947056;;['BL_Position', 'BL_Wheel', 'BR_Position', 'BR_Wheel', 'FL_Position', 'FL_Wheel', 'FR_Position', 'FR_Wheel'];(0.0, 2906.15283203125, -0.003067961661145091, 2824.745849609375, -0.003067961661145091, 2904.2998046875, 0.0, 2829.283447265625);(0.0, 0.0, 0.0, 0.0, 0.0, 0.0, 0.0, 0.0);(0.0, 0.0, 34.970001220703125, 5.380000114440918, 29.59000015258789, -2.690000057220459, 5.380000114440918, 0.0)
2024/05/03/14:04:47.862521;9917;1714770287;781971383;;['BL_Position', 'BL_Wheel', 'BR_Position', 'BR_Wheel', 'FL_Position', 'FL_Wheel', 'FR_Position', 'FR_Wheel'];(0.0, 2906.15283203125, -0.003067961661145091, 2824.74755859375, -0.0015339808305725455, 2904.2998046875, 0.0, 2829.281982421875);(0.0, 0.0, 0.0, 0.0, 0.0, 0.0, 0.0, 0.0);(0.0, 0.0, 34.970001220703125, 5.380000114440918, 37.65999984741211, -2.690000057220459, 5.380000114440918, 0.0)
2024/05/03/14:04:47.862590;9918;1714770287;798556018;;['BL_Position', 'BL_Wheel', 'BR_Position', 'BR_Wheel', 'FL_Position', 'FL_Wheel', 'FR_Position', 'FR_Wheel'];(0.0, 2906.15283203125, -0.003067961661145091, 2824.74755859375, -0.0015339808305725455, 2904.2998046875, 0.0, 2829.283447265625);(0.0, 0.0, 0.0, 0.0, 0.0, 0.0, 0.0, 0.0);(0.0, 0.0, 32.279998779296875, 5.380000114440918, 8.069999694824219, -2.690000057220459, 5.380000114440918, 0.0)
2024/05/03/14:04:47.864702;9919;1714770287;814108404;;['BL_Position', 'BL_Wheel', 'BR_Position', 'BR_Wheel', 'FL_Position', 'FL_Wheel', 'FR_Position', 'FR_Wheel'];(0.0015339808305725455, 2906.15283203125, -0.003067961661145091, 2824.74755859375, -0.0015339808305725455, 2904.2998046875, -0.0015339808305725455, 2829.283447265625);(0.0, 0.0, 0.0, 0.0, 0.0, 0.0, 0.0, 0.0);(0.0, 0.0, 34.970001220703125, 5.380000114440918, 5.380000114440918, -2.690000057220459, 5.380000114440918, 0.0)
2024/05/03/14:04:47.872883;9920;1714770287;830449013;;['BL_Position', 'BL_Wheel', 'BR_Position', 'BR_Wheel', 'FL_Position', 'FL_Wheel', 'FR_Position', 'FR_Wheel'];(0.0015339808305725455, 2906.15283203125, -0.003067961661145091, 2824.74755859375, -0.0015339808305725455, 2904.2998046875, -0.0015339808305725455, 2829.283447265625);(0.0, 0.0, 0.0, 0.0, 0.0, 0.0, 0.0, 0.0);(0.0, 0.0, 34.970001220703125, 5.380000114440918, 18.829999923706055, -2.690000057220459, 5.380000114440918, 0.0)
2024/05/03/14:04:47.963289;9921;1714770287;845978438;;['BL_Position', 'BL_Wheel', 'BR_Position', 'BR_Wheel', 'FL_Position', 'FL_Wheel', 'FR_Position', 'FR_Wheel'];(0.0, 2906.15283203125, -0.003067961661145091, 2824.74755859375, -0.0015339808305725455, 2904.2998046875, 0.0, 2829.283447265625);(0.0, 0.0, 0.0, 0.0, 0.0, 0.0, 0.0, 0.0);(0.0, 0.0, 32.279998779296875, 5.380000114440918, 32.279998779296875, -2.690000057220459, 5.380000114440918, 0.0)
2024/05/03/14:04:47.969135;9922;1714770287;862051133;;['BL_Position', 'BL_Wheel', 'BR_Position', 'BR_Wheel', 'FL_Position', 'FL_Wheel', 'FR_Position', 'FR_Wheel'];(0.0015339808305725455, 2906.15283203125, -0.003067961661145091, 2824.745849609375, -0.0015339808305725455, 2904.2998046875, 0.0, 2829.283447265625);(0.0, 0.0, 0.0, 0.0, 0.0, 0.0, 0.0, 0.0);(0.0, 0.0, 34.970001220703125, 5.380000114440918, 16.139999389648438, -2.690000057220459, 5.380000114440918, 0.0)
2024/05/03/14:04:47.969145;9923;1714770287;878137273;;['BL_Position', 'BL_Wheel', 'BR_Position', 'BR_Wheel', 'FL_Position', 'FL_Wheel', 'FR_Position', 'FR_Wheel'];(0.0, 2906.15283203125, -0.0015339808305725455, 2824.74755859375, -0.0015339808305725455, 2904.2998046875, 0.0, 2829.283447265625);(0.0, 0.0, 0.0, 0.0, 0.0, 0.0, 0.0, 0.0);(2.690000057220459, 0.0, 34.970001220703125, 5.380000114440918, 0.0, -2.690000057220459, 5.380000114440918, 0.0)
2024/05/03/14:04:47.969155;9924;1714770287;893964128;;['BL_Position', 'BL_Wheel', 'BR_Position', 'BR_Wheel', 'FL_Position', 'FL_Wheel', 'FR_Position', 'FR_Wheel'];(0.0, 2906.15283203125, -0.003067961661145091, 2824.74755859375, -0.0015339808305725455, 2904.2998046875, 0.0, 2829.283447265625);(0.0, 0.0, 0.0, 0.0, 0.0, 0.0, 0.0, 0.0);(0.0, 0.0, 34.970001220703125, 5.380000114440918, 37.65999984741211, -2.690000057220459, 5.380000114440918, 0.0)
2024/05/03/14:04:47.969209;9925;1714770287;909973882;;['BL_Position', 'BL_Wheel', 'BR_Position', 'BR_Wheel', 'FL_Position', 'FL_Wheel', 'FR_Position', 'FR_Wheel'];(0.0, 2906.15283203125, -0.003067961661145091, 2824.74755859375, -0.0015339808305725455, 2904.2998046875, 0.0, 2829.283447265625);(0.0, 0.0, 0.0, 0.0, 0.0, 0.0, 0.0, 0.0);(0.0, 0.0, 32.279998779296875, 5.380000114440918, 13.450000762939453, -2.690000057220459, 5.380000114440918, 0.0)
2024/05/03/14:04:47.974581;9926;1714770287;926118630;;['BL_Position', 'BL_Wheel', 'BR_Position', 'BR_Wheel', 'FL_Position', 'FL_Wheel', 'FR_Position', 'FR_Wheel'];(0.0015339808305725455, 2906.15283203125, -0.003067961661145091, 2824.74755859375, -0.0015339808305725455, 2904.2998046875, -0.0015339808305725455, 2829.283447265625);(0.0, 0.0, 0.0, 0.0, 0.0, 0.0, 0.0, 0.0);(0.0, 0.0, 34.970001220703125, 5.380000114440918, 5.380000114440918, -2.690000057220459, 2.690000057220459, 0.0)
2024/05/03/14:04:48.058979;9927;1714770287;941974983;;['BL_Position', 'BL_Wheel', 'BR_Position', 'BR_Wheel', 'FL_Position', 'FL_Wheel', 'FR_Position', 'FR_Wheel'];(0.0, 2906.15283203125, -0.003067961661145091, 2824.74755859375, -0.0015339808305725455, 2904.2998046875, 0.0, 2829.283447265625);(0.0, 0.0, 0.0, 0.0, 0.0, 0.0, 0.0, 0.0);(0.0, 0.0, 34.970001220703125, 5.380000114440918, 16.139999389648438, -2.690000057220459, 5.380000114440918, 0.0)
2024/05/03/14:04:48.065001;9928;1714770287;958048568;;['BL_Position', 'BL_Wheel', 'BR_Position', 'BR_Wheel', 'FL_Position', 'FL_Wheel', 'FR_Position', 'FR_Wheel'];(0.0, 2906.15283203125, -0.003067961661145091, 2824.74755859375, -0.0015339808305725455, 2904.2998046875, 0.0, 2829.283447265625);(0.0, 0.0, 0.0, 0.0, 0.0, 0.0, 0.0, 0.0);(0.0, 0.0, 34.970001220703125, 5.380000114440918, 29.59000015258789, -2.690000057220459, 5.380000114440918, 0.0)
2024/05/03/14:04:48.065030;9929;1714770287;974001417;;['BL_Position', 'BL_Wheel', 'BR_Position', 'BR_Wheel', 'FL_Position', 'FL_Wheel', 'FR_Position', 'FR_Wheel'];(0.0, 2906.15283203125, -0.003067961661145091, 2824.745849609375, -0.0015339808305725455, 2904.2998046875, -0.0015339808305725455, 2829.283447265625);(0.0, 0.0, 0.0, 0.0, 0.0, 0.0, 0.0, 0.0);(2.690000057220459, 0.0, 32.279998779296875, 5.380000114440918, 34.970001220703125, -2.690000057220459, 5.380000114440918, 0.0)
2024/05/03/14:04:48.065037;9930;1714770287;989947322;;['BL_Position', 'BL_Wheel', 'BR_Position', 'BR_Wheel', 'FL_Position', 'FL_Wheel', 'FR_Position', 'FR_Wheel'];(0.0, 2906.15283203125, -0.003067961661145091, 2824.74755859375, -0.0015339808305725455, 2904.2998046875, 0.0, 2829.283447265625);(0.0, 0.0, 0.0, 0.0, 0.0, 0.0, 0.0, 0.0);(0.0, 0.0, 34.970001220703125, 5.380000114440918, 5.380000114440918, -2.690000057220459, 5.380000114440918, 0.0)
2024/05/03/14:04:48.065152;9931;1714770288;5960613;;['BL_Position', 'BL_Wheel', 'BR_Position', 'BR_Wheel', 'FL_Position', 'FL_Wheel', 'FR_Position', 'FR_Wheel'];(0.0, 2906.15283203125, -0.003067961661145091, 2824.74755859375, -0.0015339808305725455, 2904.2998046875, -0.0015339808305725455, 2829.283447265625);(0.0, 0.0, 0.0, 0.0, 0.0, 0.0, 0.0, 0.0);(0.0, 0.0, 34.970001220703125, 5.380000114440918, 0.0, -2.690000057220459, 5.380000114440918, 0.0)
2024/05/03/14:04:48.070320;9932;1714770288;22085066;;['BL_Position', 'BL_Wheel', 'BR_Position', 'BR_Wheel', 'FL_Position', 'FL_Wheel', 'FR_Position', 'FR_Wheel'];(0.0, 2906.15283203125, -0.003067961661145091, 2824.74755859375, -0.0015339808305725455, 2904.2998046875, 0.0, 2829.283447265625);(0.0, 0.0, 0.0, 0.0, 0.0, 0.0, 0.0, 0.0);(0.0, 0.0, 32.279998779296875, 5.380000114440918, 53.80000305175781, -2.690000057220459, 8.069999694824219, 0.0)
2024/05/03/14:04:48.157732;9933;1714770288;37987418;;['BL_Position', 'BL_Wheel', 'BR_Position', 'BR_Wheel', 'FL_Position', 'FL_Wheel', 'FR_Position', 'FR_Wheel'];(0.0, 2906.15283203125, -0.003067961661145091, 2824.745849609375, -0.0015339808305725455, 2904.2998046875, 0.0, 2829.283447265625);(0.0, 0.0, 0.0, 0.0, 0.0, 0.0, 0.0, 0.0);(0.0, 0.0, 29.59000015258789, 5.380000114440918, 34.970001220703125, -2.690000057220459, 5.380000114440918, 0.0)
2024/05/03/14:04:48.162330;9934;1714770288;53935268;;['BL_Position', 'BL_Wheel', 'BR_Position', 'BR_Wheel', 'FL_Position', 'FL_Wheel', 'FR_Position', 'FR_Wheel'];(0.0, 2906.15283203125, -0.003067961661145091, 2824.74755859375, -0.0015339808305725455, 2904.2998046875, -0.0015339808305725455, 2829.283447265625);(0.0, 0.0, 0.0, 0.0, 0.0, 0.0, 0.0, 0.0);(0.0, 0.0, 32.279998779296875, 5.380000114440918, 8.069999694824219, -2.690000057220459, 2.690000057220459, 0.0)
2024/05/03/14:04:48.162368;9935;1714770288;69922504;;['BL_Position', 'BL_Wheel', 'BR_Position', 'BR_Wheel', 'FL_Position', 'FL_Wheel', 'FR_Position', 'FR_Wheel'];(0.0, 2906.15283203125, -0.003067961661145091, 2824.74755859375, -0.0015339808305725455, 2904.2998046875, -0.0015339808305725455, 2829.283447265625);(0.0, 0.0, 0.0, 0.0, 0.0, 0.0, 0.0, 0.0);(0.0, 0.0, 34.970001220703125, 5.380000114440918, 34.970001220703125, -2.690000057220459, 5.380000114440918, 0.0)
2024/05/03/14:04:48.162374;9936;1714770288;85912111;;['BL_Position', 'BL_Wheel', 'BR_Position', 'BR_Wheel', 'FL_Position', 'FL_Wheel', 'FR_Position', 'FR_Wheel'];(0.0, 2906.15283203125, -0.003067961661145091, 2824.745849609375, -0.0015339808305725455, 2904.2998046875, 0.0, 2829.283447265625);(0.0, 0.0, 0.0, 0.0, 0.0, 0.0, 0.0, 0.0);(0.0, 0.0, 34.970001220703125, 5.380000114440918, 43.040000915527344, -2.690000057220459, 8.069999694824219, 0.0)
2024/05/03/14:04:48.162381;9937;1714770288;102012121;;['BL_Position', 'BL_Wheel', 'BR_Position', 'BR_Wheel', 'FL_Position', 'FL_Wheel', 'FR_Position', 'FR_Wheel'];(0.0, 2906.15283203125, -0.003067961661145091, 2824.74755859375, -0.0015339808305725455, 2904.2998046875, 0.0, 2829.283447265625);(0.0, 0.0, 0.0, 0.0, 0.0, 0.0, 0.0, 0.0);(0.0, 0.0, 34.970001220703125, 5.380000114440918, 5.380000114440918, -2.690000057220459, 5.380000114440918, 0.0)
2024/05/03/14:04:48.162444;9938;1714770288;117944749;;['BL_Position', 'BL_Wheel', 'BR_Position', 'BR_Wheel', 'FL_Position', 'FL_Wheel', 'FR_Position', 'FR_Wheel'];(0.0, 2906.15283203125, -0.003067961661145091, 2824.74755859375, -0.0015339808305725455, 2904.2998046875, 0.0, 2829.283447265625);(0.0, 0.0, 0.0, 0.0, 0.0, 0.0, 0.0, 0.0);(0.0, 0.0, 34.970001220703125, 5.380000114440918, 0.0, -2.690000057220459, 5.380000114440918, 0.0)
2024/05/03/14:04:48.282853;9939;1714770288;133916190;;['BL_Position', 'BL_Wheel', 'BR_Position', 'BR_Wheel', 'FL_Position', 'FL_Wheel', 'FR_Position', 'FR_Wheel'];(0.0, 2906.15283203125, -0.003067961661145091, 2824.745849609375, -0.0015339808305725455, 2904.2998046875, 0.0, 2829.283447265625);(0.0, 0.0, 0.0, 0.0, 0.0, 0.0, 0.0, 0.0);(0.0, 0.0, 29.59000015258789, 5.380000114440918, 34.970001220703125, -2.690000057220459, 5.380000114440918, 0.0)
2024/05/03/14:04:48.282865;9940;1714770288;149913927;;['BL_Position', 'BL_Wheel', 'BR_Position', 'BR_Wheel', 'FL_Position', 'FL_Wheel', 'FR_Position', 'FR_Wheel'];(0.0, 2906.15283203125, -0.003067961661145091, 2824.74755859375, -0.003067961661145091, 2904.2998046875, -0.0015339808305725455, 2829.283447265625);(0.0, 0.0, 0.0, 0.0, 0.0, 0.0, 0.0, 0.0);(0.0, 0.0, 34.970001220703125, 5.380000114440918, 8.069999694824219, -2.690000057220459, 5.380000114440918, 0.0)
2024/05/03/14:04:48.282879;9941;1714770288;165962327;;['BL_Position', 'BL_Wheel', 'BR_Position', 'BR_Wheel', 'FL_Position', 'FL_Wheel', 'FR_Position', 'FR_Wheel'];(0.0015339808305725455, 2906.15283203125, -0.003067961661145091, 2824.74755859375, -0.0015339808305725455, 2904.2998046875, 0.0, 2829.283447265625);(0.0, 0.0, 0.0, 0.0, 0.0, 0.0, 0.0, 0.0);(0.0, 0.0, 32.279998779296875, 5.380000114440918, 0.0, -2.690000057220459, 5.380000114440918, 0.0)
2024/05/03/14:04:48.282885;9942;1714770288;182033560;;['BL_Position', 'BL_Wheel', 'BR_Position', 'BR_Wheel', 'FL_Position', 'FL_Wheel', 'FR_Position', 'FR_Wheel'];(0.0, 2906.15283203125, -0.003067961661145091, 2824.745849609375, -0.0015339808305725455, 2904.2998046875, 0.0, 2829.283447265625);(0.0, 0.0, 0.0, 0.0, 0.0, 0.0, 0.0, 0.0);(0.0, 0.0, 34.970001220703125, 5.380000114440918, 26.900001525878906, -2.690000057220459, 5.380000114440918, 0.0)
2024/05/03/14:04:48.283038;9943;1714770288;198000835;;['BL_Position', 'BL_Wheel', 'BR_Position', 'BR_Wheel', 'FL_Position', 'FL_Wheel', 'FR_Position', 'FR_Wheel'];(0.0, 2906.15283203125, -0.003067961661145091, 2824.74755859375, -0.0015339808305725455, 2904.2998046875, -0.0015339808305725455, 2829.283447265625);(0.0, 0.0, 0.0, 0.0, 0.0, 0.0, 0.0, 0.0);(0.0, 0.0, 34.970001220703125, 5.380000114440918, 34.970001220703125, -2.690000057220459, 5.380000114440918, 0.0)
2024/05/03/14:04:48.288027;9944;1714770288;214317464;;['BL_Position', 'BL_Wheel', 'BR_Position', 'BR_Wheel', 'FL_Position', 'FL_Wheel', 'FR_Position', 'FR_Wheel'];(0.0, 2906.15283203125, -0.003067961661145091, 2824.74755859375, -0.0015339808305725455, 2904.2998046875, -0.0015339808305725455, 2829.283447265625);(0.0, 0.0, 0.0, 0.0, 0.0, 0.0, 0.0, 0.0);(0.0, 0.0, 32.279998779296875, 5.380000114440918, 13.450000762939453, -2.690000057220459, 5.380000114440918, 0.0)
2024/05/03/14:04:48.288164;9945;1714770288;230554485;;['BL_Position', 'BL_Wheel', 'BR_Position', 'BR_Wheel', 'FL_Position', 'FL_Wheel', 'FR_Position', 'FR_Wheel'];(0.0, 2906.15283203125, -0.003067961661145091, 2824.74755859375, -0.0015339808305725455, 2904.2998046875, -0.0015339808305725455, 2829.283447265625);(0.0, 0.0, 0.0, 0.0, 0.0, 0.0, 0.0, 0.0);(0.0, 0.0, 32.279998779296875, 5.380000114440918, 2.690000057220459, -2.690000057220459, 8.069999694824219, 0.0)
2024/05/03/14:04:48.291498;9946;1714770288;245956434;;['BL_Position', 'BL_Wheel', 'BR_Position', 'BR_Wheel', 'FL_Position', 'FL_Wheel', 'FR_Position', 'FR_Wheel'];(0.0, 2906.15283203125, -0.003067961661145091, 2824.74755859375, -0.0015339808305725455, 2904.2998046875, 0.0, 2829.283447265625);(0.0, 0.0, 0.0, 0.0, 0.0, 0.0, 0.0, 0.0);(0.0, 0.0, 34.970001220703125, 5.380000114440918, 29.59000015258789, -2.690000057220459, 5.380000114440918, 0.0)
2024/05/03/14:04:48.410734;9947;1714770288;261952745;;['BL_Position', 'BL_Wheel', 'BR_Position', 'BR_Wheel', 'FL_Position', 'FL_Wheel', 'FR_Position', 'FR_Wheel'];(0.0, 2906.15283203125, -0.003067961661145091, 2824.74755859375, -0.0015339808305725455, 2904.2998046875, 0.0, 2829.283447265625);(0.0, 0.0, 0.0, 0.0, 0.0, 0.0, 0.0, 0.0);(0.0, 0.0, 29.59000015258789, 5.380000114440918, 8.069999694824219, -2.690000057220459, 5.380000114440918, 0.0)
2024/05/03/14:04:48.410746;9948;1714770288;278014386;;['BL_Position', 'BL_Wheel', 'BR_Position', 'BR_Wheel', 'FL_Position', 'FL_Wheel', 'FR_Position', 'FR_Wheel'];(0.0, 2906.15283203125, -0.003067961661145091, 2824.74755859375, -0.0015339808305725455, 2904.2998046875, 0.0, 2829.283447265625);(0.0, 0.0, 0.0, 0.0, 0.0, 0.0, 0.0, 0.0);(0.0, 0.0, 32.279998779296875, 5.380000114440918, 34.970001220703125, -2.690000057220459, 5.380000114440918, 0.0)
2024/05/03/14:04:48.410752;9949;1714770288;293922293;;['BL_Position', 'BL_Wheel', 'BR_Position', 'BR_Wheel', 'FL_Position', 'FL_Wheel', 'FR_Position', 'FR_Wheel'];(0.0, 2906.15283203125, -0.003067961661145091, 2824.74755859375, -0.0015339808305725455, 2904.2998046875, -0.0015339808305725455, 2829.283447265625);(0.0, 0.0, 0.0, 0.0, 0.0, 0.0, 0.0, 0.0);(0.0, 0.0, 34.970001220703125, 5.380000114440918, 21.520000457763672, -2.690000057220459, 5.380000114440918, 0.0)
2024/05/03/14:04:48.410772;9950;1714770288;309973082;;['BL_Position', 'BL_Wheel', 'BR_Position', 'BR_Wheel', 'FL_Position', 'FL_Wheel', 'FR_Position', 'FR_Wheel'];(0.0015339808305725455, 2906.15283203125, -0.003067961661145091, 2824.74755859375, -0.0015339808305725455, 2904.2998046875, 0.0, 2829.283447265625);(0.0, 0.0, 0.0, 0.0, 0.0, 0.0, 0.0, 0.0);(2.690000057220459, 0.0, 34.970001220703125, 5.380000114440918, 29.59000015258789, -2.690000057220459, 5.380000114440918, 0.0)
2024/05/03/14:04:48.410783;9951;1714770288;325975652;;['BL_Position', 'BL_Wheel', 'BR_Position', 'BR_Wheel', 'FL_Position', 'FL_Wheel', 'FR_Position', 'FR_Wheel'];(0.0015339808305725455, 2906.15283203125, -0.003067961661145091, 2824.74755859375, -0.0015339808305725455, 2904.2998046875, -0.0015339808305725455, 2829.283447265625);(0.0, 0.0, 0.0, 0.0, 0.0, 0.0, 0.0, 0.0);(0.0, 0.0, 34.970001220703125, 5.380000114440918, 24.21000099182129, -2.690000057220459, 5.380000114440918, 0.0)
2024/05/03/14:04:48.410787;9952;1714770288;341990591;;['BL_Position', 'BL_Wheel', 'BR_Position', 'BR_Wheel', 'FL_Position', 'FL_Wheel', 'FR_Position', 'FR_Wheel'];(0.0, 2906.15283203125, -0.003067961661145091, 2824.745849609375, -0.0015339808305725455, 2904.2998046875, -0.0015339808305725455, 2829.283447265625);(0.0, 0.0, 0.0, 0.0, 0.0, 0.0, 0.0, 0.0);(0.0, 0.0, 29.59000015258789, 5.380000114440918, 8.069999694824219, -2.690000057220459, 5.380000114440918, 0.0)
2024/05/03/14:04:48.410798;9953;1714770288;357920738;;['BL_Position', 'BL_Wheel', 'BR_Position', 'BR_Wheel', 'FL_Position', 'FL_Wheel', 'FR_Position', 'FR_Wheel'];(0.0, 2906.15283203125, -0.003067961661145091, 2824.74755859375, -0.0015339808305725455, 2904.2998046875, 0.0, 2829.283447265625);(0.0, 0.0, 0.0, 0.0, 0.0, 0.0, 0.0, 0.0);(0.0, 0.0, 34.970001220703125, 5.380000114440918, 26.900001525878906, -2.690000057220459, 2.690000057220459, 0.0)
2024/05/03/14:04:48.426535;9954;1714770288;373916456;;['BL_Position', 'BL_Wheel', 'BR_Position', 'BR_Wheel', 'FL_Position', 'FL_Wheel', 'FR_Position', 'FR_Wheel'];(0.0, 2906.15283203125, -0.003067961661145091, 2824.74755859375, -0.0015339808305725455, 2904.30126953125, 0.0, 2829.283447265625);(0.0, 0.0, 0.0, 0.0, 0.0, 0.0, 0.0, 0.0);(0.0, 0.0, 32.279998779296875, 5.380000114440918, 8.069999694824219, -2.690000057220459, 5.380000114440918, 0.0)
2024/05/03/14:04:48.535167;9955;1714770288;389904804;;['BL_Position', 'BL_Wheel', 'BR_Position', 'BR_Wheel', 'FL_Position', 'FL_Wheel', 'FR_Position', 'FR_Wheel'];(0.0, 2906.15283203125, -0.0015339808305725455, 2824.745849609375, -0.0015339808305725455, 2904.2998046875, 0.0, 2829.283447265625);(0.0, 0.0, 0.0, 0.0, 0.0, 0.0, 0.0, 0.0);(0.0, 0.0, 34.970001220703125, 5.380000114440918, 2.690000057220459, -2.690000057220459, 5.380000114440918, 0.0)
2024/05/03/14:04:48.535191;9956;1714770288;405912132;;['BL_Position', 'BL_Wheel', 'BR_Position', 'BR_Wheel', 'FL_Position', 'FL_Wheel', 'FR_Position', 'FR_Wheel'];(0.0015339808305725455, 2906.15283203125, -0.003067961661145091, 2824.74755859375, -0.0015339808305725455, 2904.2998046875, -0.0015339808305725455, 2829.283447265625);(0.0, 0.0, 0.0, 0.0, 0.0, 0.0, 0.0, 0.0);(0.0, 0.0, 34.970001220703125, 5.380000114440918, 13.450000762939453, -2.690000057220459, 5.380000114440918, 0.0)
2024/05/03/14:04:48.535194;9957;1714770288;421887184;;['BL_Position', 'BL_Wheel', 'BR_Position', 'BR_Wheel', 'FL_Position', 'FL_Wheel', 'FR_Position', 'FR_Wheel'];(0.0015339808305725455, 2906.15283203125, -0.003067961661145091, 2824.74755859375, -0.0015339808305725455, 2904.2998046875, 0.0, 2829.283447265625);(0.0, 0.0, 0.0, 0.0, 0.0, 0.0, 0.0, 0.0);(0.0, 0.0, 32.279998779296875, 5.380000114440918, 37.65999984741211, -2.690000057220459, 2.690000057220459, 0.0)
2024/05/03/14:04:48.535209;9958;1714770288;438099874;;['BL_Position', 'BL_Wheel', 'BR_Position', 'BR_Wheel', 'FL_Position', 'FL_Wheel', 'FR_Position', 'FR_Wheel'];(0.0, 2906.15283203125, -0.003067961661145091, 2824.745849609375, -0.0015339808305725455, 2904.2998046875, -0.0015339808305725455, 2829.283447265625);(0.0, 0.0, 0.0, 0.0, 0.0, 0.0, 0.0, 0.0);(0.0, 0.0, 32.279998779296875, 5.380000114440918, -2.690000057220459, -2.690000057220459, 5.380000114440918, 0.0)
2024/05/03/14:04:48.538881;9959;1714770288;459041972;;['BL_Position', 'BL_Wheel', 'BR_Position', 'BR_Wheel', 'FL_Position', 'FL_Wheel', 'FR_Position', 'FR_Wheel'];(0.0015339808305725455, 2906.15283203125, -0.003067961661145091, 2824.74755859375, -0.0015339808305725455, 2904.2998046875, 0.0, 2829.283447265625);(0.0, 0.0, 0.0, 0.0, 0.0, 0.0, 0.0, 0.0);(0.0, 0.0, 34.970001220703125, 5.380000114440918, 0.0, -2.690000057220459, 5.380000114440918, 0.0)
2024/05/03/14:04:48.538890;9960;1714770288;470159380;;['BL_Position', 'BL_Wheel', 'BR_Position', 'BR_Wheel', 'FL_Position', 'FL_Wheel', 'FR_Position', 'FR_Wheel'];(0.0, 2906.15283203125, -0.003067961661145091, 2824.745849609375, -0.0015339808305725455, 2904.2998046875, 0.0, 2829.283447265625);(0.0, 0.0, 0.0, 0.0, 0.0, 0.0, 0.0, 0.0);(0.0, 0.0, 34.970001220703125, 5.380000114440918, 16.139999389648438, -2.690000057220459, 8.069999694824219, 0.0)
2024/05/03/14:04:48.538897;9961;1714770288;485942738;;['BL_Position', 'BL_Wheel', 'BR_Position', 'BR_Wheel', 'FL_Position', 'FL_Wheel', 'FR_Position', 'FR_Wheel'];(0.0, 2906.15283203125, -0.003067961661145091, 2824.74755859375, -0.0015339808305725455, 2904.2998046875, 0.0, 2829.283447265625);(0.0, 0.0, 0.0, 0.0, 0.0, 0.0, 0.0, 0.0);(0.0, 0.0, 34.970001220703125, 5.380000114440918, 26.900001525878906, -2.690000057220459, 8.069999694824219, 0.0)
2024/05/03/14:04:48.544832;9962;1714770288;501992990;;['BL_Position', 'BL_Wheel', 'BR_Position', 'BR_Wheel', 'FL_Position', 'FL_Wheel', 'FR_Position', 'FR_Wheel'];(0.0, 2906.15283203125, -0.003067961661145091, 2824.74755859375, -0.0015339808305725455, 2904.2998046875, 0.0, 2829.283447265625);(0.0, 0.0, 0.0, 0.0, 0.0, 0.0, 0.0, 0.0);(0.0, 0.0, 32.279998779296875, 5.380000114440918, 0.0, -2.690000057220459, 5.380000114440918, 0.0)
2024/05/03/14:04:48.662214;9963;1714770288;518370172;;['BL_Position', 'BL_Wheel', 'BR_Position', 'BR_Wheel', 'FL_Position', 'FL_Wheel', 'FR_Position', 'FR_Wheel'];(0.0, 2906.15283203125, -0.003067961661145091, 2824.74755859375, -0.0015339808305725455, 2904.2998046875, 0.0, 2829.283447265625);(0.0, 0.0, 0.0, 0.0, 0.0, 0.0, 0.0, 0.0);(0.0, 0.0, 32.279998779296875, 5.380000114440918, 21.520000457763672, -2.690000057220459, 5.380000114440918, 0.0)
2024/05/03/14:04:48.662233;9964;1714770288;533911485;;['BL_Position', 'BL_Wheel', 'BR_Position', 'BR_Wheel', 'FL_Position', 'FL_Wheel', 'FR_Position', 'FR_Wheel'];(0.0, 2906.15283203125, -0.003067961661145091, 2824.74755859375, -0.0015339808305725455, 2904.2998046875, -0.0015339808305725455, 2829.283447265625);(0.0, 0.0, 0.0, 0.0, 0.0, 0.0, 0.0, 0.0);(0.0, 0.0, 34.970001220703125, 5.380000114440918, 37.65999984741211, -2.690000057220459, 5.380000114440918, 0.0)
2024/05/03/14:04:48.662237;9965;1714770288;549995087;;['BL_Position', 'BL_Wheel', 'BR_Position', 'BR_Wheel', 'FL_Position', 'FL_Wheel', 'FR_Position', 'FR_Wheel'];(0.0015339808305725455, 2906.15283203125, -0.003067961661145091, 2824.74755859375, -0.0015339808305725455, 2904.2998046875, 0.0, 2829.283447265625);(0.0, 0.0, 0.0, 0.0, 0.0, 0.0, 0.0, 0.0);(0.0, 0.0, 32.279998779296875, 5.380000114440918, 5.380000114440918, -2.690000057220459, 5.380000114440918, 0.0)
2024/05/03/14:04:48.662241;9966;1714770288;565919216;;['BL_Position', 'BL_Wheel', 'BR_Position', 'BR_Wheel', 'FL_Position', 'FL_Wheel', 'FR_Position', 'FR_Wheel'];(0.0015339808305725455, 2906.15283203125, -0.003067961661145091, 2824.74755859375, -0.0015339808305725455, 2904.2998046875, 0.0, 2829.283447265625);(0.0, 0.0, 0.0, 0.0, 0.0, 0.0, 0.0, 0.0);(0.0, 0.0, 34.970001220703125, 5.380000114440918, 0.0, -2.690000057220459, 5.380000114440918, 0.0)
2024/05/03/14:04:48.662284;9967;1714770288;581888454;;['BL_Position', 'BL_Wheel', 'BR_Position', 'BR_Wheel', 'FL_Position', 'FL_Wheel', 'FR_Position', 'FR_Wheel'];(0.0, 2906.15283203125, -0.003067961661145091, 2824.745849609375, -0.0015339808305725455, 2904.2998046875, -0.0015339808305725455, 2829.283447265625);(0.0, 0.0, 0.0, 0.0, 0.0, 0.0, 0.0, 0.0);(0.0, 0.0, 34.970001220703125, 5.380000114440918, 53.80000305175781, -2.690000057220459, 5.380000114440918, 0.0)
2024/05/03/14:04:48.666246;9968;1714770288;597914837;;['BL_Position', 'BL_Wheel', 'BR_Position', 'BR_Wheel', 'FL_Position', 'FL_Wheel', 'FR_Position', 'FR_Wheel'];(0.0015339808305725455, 2906.154296875, -0.003067961661145091, 2824.745849609375, -0.0015339808305725455, 2904.2998046875, 0.0, 2829.283447265625);(0.0, 0.0, 0.0, 0.0, 0.0, 0.0, 0.0, 0.0);(0.0, 0.0, 29.59000015258789, 5.380000114440918, 5.380000114440918, -2.690000057220459, 5.380000114440918, 0.0)
2024/05/03/14:04:48.666438;9969;1714770288;613905203;;['BL_Position', 'BL_Wheel', 'BR_Position', 'BR_Wheel', 'FL_Position', 'FL_Wheel', 'FR_Position', 'FR_Wheel'];(0.0, 2906.15283203125, -0.003067961661145091, 2824.745849609375, -0.0015339808305725455, 2904.2998046875, 0.0, 2829.283447265625);(0.0, 0.0, 0.0, 0.0, 0.0, 0.0, 0.0, 0.0);(0.0, 0.0, 34.970001220703125, 5.380000114440918, 13.450000762939453, -2.690000057220459, 8.069999694824219, 0.0)
2024/05/03/14:04:48.672774;9970;1714770288;629928049;;['BL_Position', 'BL_Wheel', 'BR_Position', 'BR_Wheel', 'FL_Position', 'FL_Wheel', 'FR_Position', 'FR_Wheel'];(0.0, 2906.154296875, -0.003067961661145091, 2824.745849609375, -0.0015339808305725455, 2904.2998046875, 0.0, 2829.283447265625);(0.0, 0.0, 0.0, 0.0, 0.0, 0.0, 0.0, 0.0);(0.0, 0.0, 32.279998779296875, 5.380000114440918, 61.87000274658203, -2.690000057220459, 5.380000114440918, 0.0)
2024/05/03/14:04:48.786911;9971;1714770288;645898787;;['BL_Position', 'BL_Wheel', 'BR_Position', 'BR_Wheel', 'FL_Position', 'FL_Wheel', 'FR_Position', 'FR_Wheel'];(0.0, 2906.15283203125, -0.003067961661145091, 2824.74755859375, -0.0015339808305725455, 2904.2998046875, 0.0, 2829.283447265625);(0.0, 0.0, 0.0, 0.0, 0.0, 0.0, 0.0, 0.0);(0.0, 0.0, 34.970001220703125, 5.380000114440918, 10.760000228881836, -2.690000057220459, 5.380000114440918, 0.0)
2024/05/03/14:04:48.786932;9972;1714770288;662252451;;['BL_Position', 'BL_Wheel', 'BR_Position', 'BR_Wheel', 'FL_Position', 'FL_Wheel', 'FR_Position', 'FR_Wheel'];(0.0015339808305725455, 2906.15283203125, -0.003067961661145091, 2824.74755859375, -0.0015339808305725455, 2904.2998046875, 0.0, 2829.283447265625);(0.0, 0.0, 0.0, 0.0, 0.0, 0.0, 0.0, 0.0);(0.0, 0.0, 34.970001220703125, 5.380000114440918, 13.450000762939453, -2.690000057220459, 5.380000114440918, 0.0)
2024/05/03/14:04:48.786937;9973;1714770288;677934684;;['BL_Position', 'BL_Wheel', 'BR_Position', 'BR_Wheel', 'FL_Position', 'FL_Wheel', 'FR_Position', 'FR_Wheel'];(0.0, 2906.15283203125, -0.003067961661145091, 2824.74755859375, -0.0015339808305725455, 2904.2998046875, -0.0015339808305725455, 2829.283447265625);(0.0, 0.0, 0.0, 0.0, 0.0, 0.0, 0.0, 0.0);(0.0, 0.0, 34.970001220703125, 5.380000114440918, 32.279998779296875, -2.690000057220459, 5.380000114440918, 0.0)
2024/05/03/14:04:48.786940;9974;1714770288;693936105;;['BL_Position', 'BL_Wheel', 'BR_Position', 'BR_Wheel', 'FL_Position', 'FL_Wheel', 'FR_Position', 'FR_Wheel'];(0.0, 2906.15283203125, -0.003067961661145091, 2824.74755859375, -0.0015339808305725455, 2904.2998046875, 0.0, 2829.283447265625);(0.0, 0.0, 0.0, 0.0, 0.0, 0.0, 0.0, 0.0);(0.0, 0.0, 34.970001220703125, 5.380000114440918, -16.139999389648438, -2.690000057220459, 5.380000114440918, 0.0)
2024/05/03/14:04:48.786943;9975;1714770288;710066798;;['BL_Position', 'BL_Wheel', 'BR_Position', 'BR_Wheel', 'FL_Position', 'FL_Wheel', 'FR_Position', 'FR_Wheel'];(0.0, 2906.15283203125, -0.003067961661145091, 2824.745849609375, -0.0015339808305725455, 2904.2998046875, 0.0, 2829.283447265625);(0.0, 0.0, 0.0, 0.0, 0.0, 0.0, 0.0, 0.0);(0.0, 0.0, 34.970001220703125, 5.380000114440918, 13.450000762939453, -2.690000057220459, 5.380000114440918, 0.0)
2024/05/03/14:04:48.791748;9976;1714770288;725888061;;['BL_Position', 'BL_Wheel', 'BR_Position', 'BR_Wheel', 'FL_Position', 'FL_Wheel', 'FR_Position', 'FR_Wheel'];(0.0, 2906.15283203125, -0.003067961661145091, 2824.74755859375, -0.0015339808305725455, 2904.2998046875, -0.0015339808305725455, 2829.283447265625);(0.0, 0.0, 0.0, 0.0, 0.0, 0.0, 0.0, 0.0);(0.0, 0.0, 34.970001220703125, 5.380000114440918, 29.59000015258789, -2.690000057220459, 5.380000114440918, 0.0)
2024/05/03/14:04:48.791893;9977;1714770288;741979941;;['BL_Position', 'BL_Wheel', 'BR_Position', 'BR_Wheel', 'FL_Position', 'FL_Wheel', 'FR_Position', 'FR_Wheel'];(0.0015339808305725455, 2906.15283203125, -0.003067961661145091, 2824.74755859375, -0.0015339808305725455, 2904.2998046875, 0.0, 2829.283447265625);(0.0, 0.0, 0.0, 0.0, 0.0, 0.0, 0.0, 0.0);(0.0, 0.0, 34.970001220703125, 5.380000114440918, 8.069999694824219, -2.690000057220459, 5.380000114440918, 0.0)
2024/05/03/14:04:48.800488;9978;1714770288;757967215;;['BL_Position', 'BL_Wheel', 'BR_Position', 'BR_Wheel', 'FL_Position', 'FL_Wheel', 'FR_Position', 'FR_Wheel'];(0.0, 2906.15283203125, -0.003067961661145091, 2824.745849609375, -0.0015339808305725455, 2904.2998046875, -0.0015339808305725455, 2829.283447265625);(0.0, 0.0, 0.0, 0.0, 0.0, 0.0, 0.0, 0.0);(0.0, 0.0, 34.970001220703125, 5.380000114440918, 10.760000228881836, -2.690000057220459, 5.380000114440918, 0.0)
2024/05/03/14:04:48.979378;9979;1714770288;773889288;;['BL_Position', 'BL_Wheel', 'BR_Position', 'BR_Wheel', 'FL_Position', 'FL_Wheel', 'FR_Position', 'FR_Wheel'];(0.0015339808305725455, 2906.15283203125, -0.003067961661145091, 2824.745849609375, -0.0015339808305725455, 2904.2998046875, -0.0015339808305725455, 2829.283447265625);(0.0, 0.0, 0.0, 0.0, 0.0, 0.0, 0.0, 0.0);(0.0, 0.0, 34.970001220703125, 5.380000114440918, 29.59000015258789, -2.690000057220459, 5.380000114440918, 0.0)
2024/05/03/14:04:48.979412;9980;1714770288;789857970;;['BL_Position', 'BL_Wheel', 'BR_Position', 'BR_Wheel', 'FL_Position', 'FL_Wheel', 'FR_Position', 'FR_Wheel'];(0.0015339808305725455, 2906.15283203125, -0.003067961661145091, 2824.74755859375, -0.0015339808305725455, 2904.2998046875, 0.0, 2829.283447265625);(0.0, 0.0, 0.0, 0.0, 0.0, 0.0, 0.0, 0.0);(0.0, 0.0, 34.970001220703125, 5.380000114440918, 26.900001525878906, -2.690000057220459, 5.380000114440918, 0.0)
2024/05/03/14:04:48.979417;9981;1714770288;805891575;;['BL_Position', 'BL_Wheel', 'BR_Position', 'BR_Wheel', 'FL_Position', 'FL_Wheel', 'FR_Position', 'FR_Wheel'];(0.0, 2906.15283203125, -0.003067961661145091, 2824.74755859375, -0.0015339808305725455, 2904.2998046875, 0.0, 2829.283447265625);(0.0, 0.0, 0.0, 0.0, 0.0, 0.0, 0.0, 0.0);(0.0, 0.0, 34.970001220703125, 5.380000114440918, 8.069999694824219, -2.690000057220459, 2.690000057220459, 0.0)
2024/05/03/14:04:48.979441;9982;1714770288;821928847;;['BL_Position', 'BL_Wheel', 'BR_Position', 'BR_Wheel', 'FL_Position', 'FL_Wheel', 'FR_Position', 'FR_Wheel'];(0.0, 2906.15283203125, -0.003067961661145091, 2824.74755859375, -0.0015339808305725455, 2904.2998046875, 0.0, 2829.283447265625);(0.0, 0.0, 0.0, 0.0, 0.0, 0.0, 0.0, 0.0);(0.0, 0.0, 26.900001525878906, 5.380000114440918, 43.040000915527344, -2.690000057220459, 5.380000114440918, 0.0)
2024/05/03/14:04:48.979452;9983;1714770288;837913177;;['BL_Position', 'BL_Wheel', 'BR_Position', 'BR_Wheel', 'FL_Position', 'FL_Wheel', 'FR_Position', 'FR_Wheel'];(0.0, 2906.15283203125, -0.0015339808305725455, 2824.745849609375, -0.0015339808305725455, 2904.2998046875, 0.0, 2829.283447265625);(0.0, 0.0, 0.0, 0.0, 0.0, 0.0, 0.0, 0.0);(0.0, 0.0, 29.59000015258789, 5.380000114440918, 34.970001220703125, -2.690000057220459, 5.380000114440918, 0.0)
2024/05/03/14:04:48.979463;9984;1714770288;853931819;;['BL_Position', 'BL_Wheel', 'BR_Position', 'BR_Wheel', 'FL_Position', 'FL_Wheel', 'FR_Position', 'FR_Wheel'];(0.0, 2906.15283203125, -0.003067961661145091, 2824.74755859375, -0.0015339808305725455, 2904.2998046875, 0.0, 2829.283447265625);(0.0, 0.0, 0.0, 0.0, 0.0, 0.0, 0.0, 0.0);(0.0, 0.0, 29.59000015258789, 5.380000114440918, -5.380000114440918, -2.690000057220459, 5.380000114440918, 0.0)
2024/05/03/14:04:48.979567;9985;1714770288;869917112;;['BL_Position', 'BL_Wheel', 'BR_Position', 'BR_Wheel', 'FL_Position', 'FL_Wheel', 'FR_Position', 'FR_Wheel'];(0.0, 2906.15283203125, -0.003067961661145091, 2824.74755859375, -0.0015339808305725455, 2904.2998046875, 0.0, 2829.283447265625);(0.0, 0.0, 0.0, 0.0, 0.0, 0.0, 0.0, 0.0);(0.0, 0.0, 34.970001220703125, 5.380000114440918, 32.279998779296875, -2.690000057220459, 5.380000114440918, 0.0)
2024/05/03/14:04:48.979570;9986;1714770288;885949087;;['BL_Position', 'BL_Wheel', 'BR_Position', 'BR_Wheel', 'FL_Position', 'FL_Wheel', 'FR_Position', 'FR_Wheel'];(0.0015339808305725455, 2906.15283203125, -0.003067961661145091, 2824.74755859375, -0.0015339808305725455, 2904.2998046875, 0.0, 2829.283447265625);(0.0, 0.0, 0.0, 0.0, 0.0, 0.0, 0.0, 0.0);(0.0, 0.0, 34.970001220703125, 5.380000114440918, 37.65999984741211, -2.690000057220459, 5.380000114440918, 0.0)
2024/05/03/14:04:48.980408;9987;1714770288;901999617;;['BL_Position', 'BL_Wheel', 'BR_Position', 'BR_Wheel', 'FL_Position', 'FL_Wheel', 'FR_Position', 'FR_Wheel'];(0.0, 2906.15283203125, -0.003067961661145091, 2824.74755859375, -0.0015339808305725455, 2904.2998046875, 0.0, 2829.283447265625);(0.0, 0.0, 0.0, 0.0, 0.0, 0.0, 0.0, 0.0);(0.0, 0.0, 34.970001220703125, 5.380000114440918, 2.690000057220459, -2.690000057220459, 5.380000114440918, 0.0)
2024/05/03/14:04:48.984743;9988;1714770288;917943375;;['BL_Position', 'BL_Wheel', 'BR_Position', 'BR_Wheel', 'FL_Position', 'FL_Wheel', 'FR_Position', 'FR_Wheel'];(0.0, 2906.15283203125, -0.003067961661145091, 2824.745849609375, -0.0015339808305725455, 2904.2998046875, 0.0, 2829.283447265625);(0.0, 0.0, 0.0, 0.0, 0.0, 0.0, 0.0, 0.0);(0.0, 0.0, 34.970001220703125, 5.380000114440918, 29.59000015258789, -2.690000057220459, 5.380000114440918, 0.0)
2024/05/03/14:04:48.984932;9989;1714770288;933846467;;['BL_Position', 'BL_Wheel', 'BR_Position', 'BR_Wheel', 'FL_Position', 'FL_Wheel', 'FR_Position', 'FR_Wheel'];(0.0, 2906.15283203125, -0.003067961661145091, 2824.74755859375, -0.0015339808305725455, 2904.2998046875, 0.0, 2829.283447265625);(0.0, 0.0, 0.0, 0.0, 0.0, 0.0, 0.0, 0.0);(0.0, 0.0, 34.970001220703125, 5.380000114440918, 8.069999694824219, -2.690000057220459, 5.380000114440918, 0.0)
2024/05/03/14:04:48.992673;9990;1714770288;949852092;;['BL_Position', 'BL_Wheel', 'BR_Position', 'BR_Wheel', 'FL_Position', 'FL_Wheel', 'FR_Position', 'FR_Wheel'];(0.0, 2906.15283203125, -0.003067961661145091, 2824.74755859375, -0.0015339808305725455, 2904.2998046875, 0.0, 2829.283447265625);(0.0, 0.0, 0.0, 0.0, 0.0, 0.0, 0.0, 0.0);(0.0, 0.0, 34.970001220703125, 5.380000114440918, 24.21000099182129, -2.690000057220459, 5.380000114440918, 0.0)
2024/05/03/14:04:49.008863;9991;1714770288;965865254;;['BL_Position', 'BL_Wheel', 'BR_Position', 'BR_Wheel', 'FL_Position', 'FL_Wheel', 'FR_Position', 'FR_Wheel'];(0.0, 2906.15283203125, -0.003067961661145091, 2824.74755859375, -0.0015339808305725455, 2904.2998046875, 0.0, 2829.283447265625);(0.0, 0.0, 0.0, 0.0, 0.0, 0.0, 0.0, 0.0);(0.0, 0.0, 34.970001220703125, 5.380000114440918, 34.970001220703125, -2.690000057220459, 5.380000114440918, 0.0)
2024/05/03/14:04:49.024903;9992;1714770288;982145088;;['BL_Position', 'BL_Wheel', 'BR_Position', 'BR_Wheel', 'FL_Position', 'FL_Wheel', 'FR_Position', 'FR_Wheel'];(0.0, 2906.15283203125, -0.003067961661145091, 2824.74755859375, -0.0015339808305725455, 2904.2998046875, 0.0, 2829.283447265625);(0.0, 0.0, 0.0, 0.0, 0.0, 0.0, 0.0, 0.0);(0.0, 0.0, 29.59000015258789, 5.380000114440918, 0.0, -2.690000057220459, 5.380000114440918, 0.0)
2024/05/03/14:04:49.042213;9993;1714770288;997835061;;['BL_Position', 'BL_Wheel', 'BR_Position', 'BR_Wheel', 'FL_Position', 'FL_Wheel', 'FR_Position', 'FR_Wheel'];(0.0, 2906.15283203125, -0.003067961661145091, 2824.745849609375, -0.0015339808305725455, 2904.2998046875, -0.0015339808305725455, 2829.283447265625);(0.0, 0.0, 0.0, 0.0, 0.0, 0.0, 0.0, 0.0);(0.0, 0.0, 34.970001220703125, 5.380000114440918, 5.380000114440918, -2.690000057220459, 5.380000114440918, 0.0)
2024/05/03/14:04:49.055992;9994;1714770289;13846260;;['BL_Position', 'BL_Wheel', 'BR_Position', 'BR_Wheel', 'FL_Position', 'FL_Wheel', 'FR_Position', 'FR_Wheel'];(0.0, 2906.15283203125, -0.003067961661145091, 2824.74755859375, -0.0015339808305725455, 2904.2998046875, -0.0015339808305725455, 2829.283447265625);(0.0, 0.0, 0.0, 0.0, 0.0, 0.0, 0.0, 0.0);(0.0, 0.0, 32.279998779296875, 5.380000114440918, 32.279998779296875, -2.690000057220459, 5.380000114440918, 0.0)
2024/05/03/14:04:49.072832;9995;1714770289;29858570;;['BL_Position', 'BL_Wheel', 'BR_Position', 'BR_Wheel', 'FL_Position', 'FL_Wheel', 'FR_Position', 'FR_Wheel'];(0.0, 2906.15283203125, -0.003067961661145091, 2824.74755859375, -0.0015339808305725455, 2904.2998046875, -0.0015339808305725455, 2829.283447265625);(0.0, 0.0, 0.0, 0.0, 0.0, 0.0, 0.0, 0.0);(0.0, 0.0, 34.970001220703125, 5.380000114440918, 10.760000228881836, -2.690000057220459, 5.380000114440918, 0.0)
2024/05/03/14:04:49.089416;9996;1714770289;45952283;;['BL_Position', 'BL_Wheel', 'BR_Position', 'BR_Wheel', 'FL_Position', 'FL_Wheel', 'FR_Position', 'FR_Wheel'];(0.0, 2906.15283203125, -0.003067961661145091, 2824.745849609375, -0.0015339808305725455, 2904.2998046875, 0.0, 2829.283447265625);(0.0, 0.0, 0.0, 0.0, 0.0, 0.0, 0.0, 0.0);(0.0, 0.0, 32.279998779296875, 5.380000114440918, 32.279998779296875, -2.690000057220459, 5.380000114440918, 0.0)
2024/05/03/14:04:49.103934;9997;1714770289;62687060;;['BL_Position', 'BL_Wheel', 'BR_Position', 'BR_Wheel', 'FL_Position', 'FL_Wheel', 'FR_Position', 'FR_Wheel'];(0.0, 2906.15283203125, -0.003067961661145091, 2824.74755859375, -0.0015339808305725455, 2904.2998046875, -0.0015339808305725455, 2829.283447265625);(0.0, 0.0, 0.0, 0.0, 0.0, 0.0, 0.0, 0.0);(0.0, 0.0, 34.970001220703125, 5.380000114440918, 13.450000762939453, -2.690000057220459, 5.380000114440918, 0.0)
2024/05/03/14:04:49.125134;9998;1714770289;77885556;;['BL_Position', 'BL_Wheel', 'BR_Position', 'BR_Wheel', 'FL_Position', 'FL_Wheel', 'FR_Position', 'FR_Wheel'];(0.0015339808305725455, 2906.15283203125, -0.003067961661145091, 2824.74755859375, -0.0015339808305725455, 2904.30126953125, 0.0, 2829.283447265625);(0.0, 0.0, 0.0, 0.0, 0.0, 0.0, 0.0, 0.0);(0.0, 0.0, 34.970001220703125, 5.380000114440918, 13.450000762939453, -2.690000057220459, 5.380000114440918, 0.0)
2024/05/03/14:04:49.144466;9999;1714770289;93847905;;['BL_Position', 'BL_Wheel', 'BR_Position', 'BR_Wheel', 'FL_Position', 'FL_Wheel', 'FR_Position', 'FR_Wheel'];(0.0, 2906.15283203125, -0.003067961661145091, 2824.74755859375, -0.0015339808305725455, 2904.2998046875, 0.0, 2829.283447265625);(0.0, 0.0, 0.0, 0.0, 0.0, 0.0, 0.0, 0.0);(0.0, 0.0, 32.279998779296875, 5.380000114440918, 29.59000015258789, -2.690000057220459, 5.380000114440918, 0.0)
2024/05/03/14:04:49.155227;10000;1714770289;109882954;;['BL_Position', 'BL_Wheel', 'BR_Position', 'BR_Wheel', 'FL_Position', 'FL_Wheel', 'FR_Position', 'FR_Wheel'];(0.0, 2906.154296875, -0.003067961661145091, 2824.745849609375, -0.0015339808305725455, 2904.2998046875, 0.0, 2829.283447265625);(0.0, 0.0, 0.0, 0.0, 0.0, 0.0, 0.0, 0.0);(0.0, 0.0, 32.279998779296875, 5.380000114440918, 59.18000030517578, -2.690000057220459, 5.380000114440918, 0.0)
2024/05/03/14:04:49.168627;10001;1714770289;126015685;;['BL_Position', 'BL_Wheel', 'BR_Position', 'BR_Wheel', 'FL_Position', 'FL_Wheel', 'FR_Position', 'FR_Wheel'];(0.0, 2906.15283203125, -0.003067961661145091, 2824.745849609375, -0.0015339808305725455, 2904.2998046875, 0.0, 2829.283447265625);(0.0, 0.0, 0.0, 0.0, 0.0, 0.0, 0.0, 0.0);(0.0, 0.0, 34.970001220703125, 5.380000114440918, 8.069999694824219, -2.690000057220459, 5.380000114440918, 0.0)
2024/05/03/14:04:49.184944;10002;1714770289;142047272;;['BL_Position', 'BL_Wheel', 'BR_Position', 'BR_Wheel', 'FL_Position', 'FL_Wheel', 'FR_Position', 'FR_Wheel'];(0.0015339808305725455, 2906.15283203125, -0.003067961661145091, 2824.74755859375, -0.003067961661145091, 2904.2998046875, 0.0, 2829.283447265625);(0.0, 0.0, 0.0, 0.0, 0.0, 0.0, 0.0, 0.0);(0.0, 0.0, 32.279998779296875, 5.380000114440918, 13.450000762939453, -2.690000057220459, 2.690000057220459, 0.0)
2024/05/03/14:04:49.200885;10003;1714770289;157877757;;['BL_Position', 'BL_Wheel', 'BR_Position', 'BR_Wheel', 'FL_Position', 'FL_Wheel', 'FR_Position', 'FR_Wheel'];(0.0, 2906.15283203125, -0.003067961661145091, 2824.745849609375, -0.0015339808305725455, 2904.2998046875, -0.0015339808305725455, 2829.283447265625);(0.0, 0.0, 0.0, 0.0, 0.0, 0.0, 0.0, 0.0);(0.0, 0.0, 29.59000015258789, 5.380000114440918, 29.59000015258789, -2.690000057220459, 5.380000114440918, 0.0)
2024/05/03/14:04:49.229335;10004;1714770289;173865475;;['BL_Position', 'BL_Wheel', 'BR_Position', 'BR_Wheel', 'FL_Position', 'FL_Wheel', 'FR_Position', 'FR_Wheel'];(0.0, 2906.15283203125, -0.003067961661145091, 2824.745849609375, -0.0015339808305725455, 2904.2998046875, 0.0, 2829.283447265625);(0.0, 0.0, 0.0, 0.0, 0.0, 0.0, 0.0, 0.0);(0.0, 0.0, 34.970001220703125, 5.380000114440918, 0.0, -2.690000057220459, 5.380000114440918, 0.0)
2024/05/03/14:04:49.259049;10005;1714770289;189877285;;['BL_Position', 'BL_Wheel', 'BR_Position', 'BR_Wheel', 'FL_Position', 'FL_Wheel', 'FR_Position', 'FR_Wheel'];(0.0, 2906.15283203125, -0.003067961661145091, 2824.74755859375, -0.0015339808305725455, 2904.2998046875, 0.0, 2829.283447265625);(0.0, 0.0, 0.0, 0.0, 0.0, 0.0, 0.0, 0.0);(0.0, 0.0, 34.970001220703125, 5.380000114440918, 32.279998779296875, -2.690000057220459, 5.380000114440918, 0.0)
2024/05/03/14:04:49.259376;10006;1714770289;205866356;;['BL_Position', 'BL_Wheel', 'BR_Position', 'BR_Wheel', 'FL_Position', 'FL_Wheel', 'FR_Position', 'FR_Wheel'];(0.0, 2906.15283203125, -0.003067961661145091, 2824.74755859375, -0.003067961661145091, 2904.2998046875, 0.0, 2829.283447265625);(0.0, 0.0, 0.0, 0.0, 0.0, 0.0, 0.0, 0.0);(0.0, 0.0, 29.59000015258789, 5.380000114440918, 2.690000057220459, -2.690000057220459, 8.069999694824219, 0.0)
2024/05/03/14:04:49.266751;10007;1714770289;222115562;;['BL_Position', 'BL_Wheel', 'BR_Position', 'BR_Wheel', 'FL_Position', 'FL_Wheel', 'FR_Position', 'FR_Wheel'];(0.0015339808305725455, 2906.15283203125, -0.003067961661145091, 2824.74755859375, -0.0015339808305725455, 2904.2998046875, 0.0, 2829.283447265625);(0.0, 0.0, 0.0, 0.0, 0.0, 0.0, 0.0, 0.0);(0.0, 0.0, 34.970001220703125, 5.380000114440918, 16.139999389648438, -2.690000057220459, 5.380000114440918, 0.0)
2024/05/03/14:04:49.280771;10008;1714770289;237874921;;['BL_Position', 'BL_Wheel', 'BR_Position', 'BR_Wheel', 'FL_Position', 'FL_Wheel', 'FR_Position', 'FR_Wheel'];(0.0, 2906.15283203125, -0.003067961661145091, 2824.74755859375, -0.0015339808305725455, 2904.2998046875, 0.0, 2829.283447265625);(0.0, 0.0, 0.0, 0.0, 0.0, 0.0, 0.0, 0.0);(0.0, 0.0, 34.970001220703125, 5.380000114440918, 29.59000015258789, -2.690000057220459, 5.380000114440918, 0.0)
2024/05/03/14:04:49.296814;10009;1714770289;253868824;;['BL_Position', 'BL_Wheel', 'BR_Position', 'BR_Wheel', 'FL_Position', 'FL_Wheel', 'FR_Position', 'FR_Wheel'];(0.0, 2906.154296875, -0.003067961661145091, 2824.745849609375, -0.003067961661145091, 2904.2998046875, 0.0, 2829.283447265625);(0.0, 0.0, 0.0, 0.0, 0.0, 0.0, 0.0, 0.0);(0.0, 0.0, 32.279998779296875, 5.380000114440918, 18.829999923706055, -2.690000057220459, 5.380000114440918, 0.0)
2024/05/03/14:04:49.325125;10010;1714770289;270027035;;['BL_Position', 'BL_Wheel', 'BR_Position', 'BR_Wheel', 'FL_Position', 'FL_Wheel', 'FR_Position', 'FR_Wheel'];(0.0, 2906.15283203125, -0.003067961661145091, 2824.745849609375, -0.0015339808305725455, 2904.2998046875, 0.0, 2829.283447265625);(0.0, 0.0, 0.0, 0.0, 0.0, 0.0, 0.0, 0.0);(0.0, 0.0, 34.970001220703125, 5.380000114440918, 8.069999694824219, -2.690000057220459, 5.380000114440918, 0.0)
2024/05/03/14:04:49.331316;10011;1714770289;285899870;;['BL_Position', 'BL_Wheel', 'BR_Position', 'BR_Wheel', 'FL_Position', 'FL_Wheel', 'FR_Position', 'FR_Wheel'];(0.0, 2906.15283203125, -0.003067961661145091, 2824.74755859375, -0.0015339808305725455, 2904.30126953125, 0.0, 2829.283447265625);(0.0, 0.0, 0.0, 0.0, 0.0, 0.0, 0.0, 0.0);(0.0, 0.0, 34.970001220703125, 5.380000114440918, 5.380000114440918, -2.690000057220459, 5.380000114440918, 0.0)
