time;.header.seq;.header.stamp.secs;.header.stamp.nsecs;.header.frame_id;.name;.position;.velocity;.effort
2024/05/03/12:55:34.773076;100318;1714766134;795459698;;['BL_Position', 'BL_Wheel', 'BR_Position', 'BR_Wheel', 'FL_Position', 'FL_Wheel', 'FR_Position', 'FR_Wheel'];(1.5707963705062866, 1427.6146240234375, 1.572330355644226, 1425.5728759765625, 1.5707963705062866, 1425.3243408203125, 1.5707963705062866, 1429.844970703125);(0.0, 0.0, 0.0, 0.0, 0.0, 0.0, 0.0, 0.0);(0.0, 0.0, 0.0, 24.21000099182129, 0.0, -2.690000057220459, 5.380000114440918, -16.139999389648438)
2024/05/03/12:55:34.789048;100319;1714766134;811459142;;['BL_Position', 'BL_Wheel', 'BR_Position', 'BR_Wheel', 'FL_Position', 'FL_Wheel', 'FR_Position', 'FR_Wheel'];(1.5707963705062866, 1427.6160888671875, 1.572330355644226, 1425.5712890625, 1.5707963705062866, 1425.3243408203125, 1.5707963705062866, 1429.844970703125);(0.0, 0.0, 0.0, 0.0, 0.0, 0.0, 0.0, 0.0);(0.0, 0.0, 0.0, 24.21000099182129, 0.0, -2.690000057220459, 5.380000114440918, -16.139999389648438)
2024/05/03/12:55:34.805067;100320;1714766134;827427603;;['BL_Position', 'BL_Wheel', 'BR_Position', 'BR_Wheel', 'FL_Position', 'FL_Wheel', 'FR_Position', 'FR_Wheel'];(1.5707963705062866, 1427.6160888671875, 1.572330355644226, 1425.5712890625, 1.5707963705062866, 1425.3243408203125, 1.5707963705062866, 1429.844970703125);(0.0, 0.0, 0.0, 0.0, 0.0, 0.0, 0.0, 0.0);(0.0, 0.0, 0.0, 24.21000099182129, 0.0, -2.690000057220459, 5.380000114440918, -16.139999389648438)
2024/05/03/12:55:34.821035;100321;1714766134;843487658;;['BL_Position', 'BL_Wheel', 'BR_Position', 'BR_Wheel', 'FL_Position', 'FL_Wheel', 'FR_Position', 'FR_Wheel'];(1.5707963705062866, 1427.6146240234375, 1.5707963705062866, 1425.5712890625, 1.5707963705062866, 1425.3243408203125, 1.5707963705062866, 1429.844970703125);(0.0, 0.0, 0.0, 0.0, 0.0, 0.0, 0.0, 0.0);(0.0, 0.0, 0.0, 24.21000099182129, 0.0, -2.690000057220459, 5.380000114440918, -16.139999389648438)
2024/05/03/12:55:34.848116;100322;1714766134;859430860;;['BL_Position', 'BL_Wheel', 'BR_Position', 'BR_Wheel', 'FL_Position', 'FL_Wheel', 'FR_Position', 'FR_Wheel'];(1.5707963705062866, 1427.6160888671875, 1.572330355644226, 1425.5728759765625, 1.5707963705062866, 1425.3243408203125, 1.5692623853683472, 1429.844970703125);(0.0, 0.0, 0.0, 0.0, 0.0, 0.0, 0.0, 0.0);(0.0, 0.0, 0.0, 24.21000099182129, 0.0, -2.690000057220459, 5.380000114440918, -16.139999389648438)
2024/05/03/12:55:34.853191;100323;1714766134;875486248;;['BL_Position', 'BL_Wheel', 'BR_Position', 'BR_Wheel', 'FL_Position', 'FL_Wheel', 'FR_Position', 'FR_Wheel'];(1.5707963705062866, 1427.6146240234375, 1.572330355644226, 1425.5728759765625, 1.5707963705062866, 1425.3243408203125, 1.5707963705062866, 1429.844970703125);(0.0, 0.0, 0.0, 0.0, 0.0, 0.0, 0.0, 0.0);(0.0, 0.0, 0.0, 24.21000099182129, 0.0, -2.690000057220459, 5.380000114440918, -16.139999389648438)
2024/05/03/12:55:34.871088;100324;1714766134;891488894;;['BL_Position', 'BL_Wheel', 'BR_Position', 'BR_Wheel', 'FL_Position', 'FL_Wheel', 'FR_Position', 'FR_Wheel'];(1.5707963705062866, 1427.6146240234375, 1.572330355644226, 1425.5712890625, 1.5707963705062866, 1425.3243408203125, 1.5692623853683472, 1429.844970703125);(0.0, 0.0, 0.0, 0.0, 0.0, 0.0, 0.0, 0.0);(0.0, 0.0, 0.0, 24.21000099182129, 0.0, -2.690000057220459, 2.690000057220459, -16.139999389648438)
2024/05/03/12:55:34.884882;100325;1714766134;907447763;;['BL_Position', 'BL_Wheel', 'BR_Position', 'BR_Wheel', 'FL_Position', 'FL_Wheel', 'FR_Position', 'FR_Wheel'];(1.5707963705062866, 1427.6146240234375, 1.5707963705062866, 1425.5712890625, 1.5707963705062866, 1425.3243408203125, 1.5707963705062866, 1429.844970703125);(0.0, 0.0, 0.0, 0.0, 0.0, 0.0, 0.0, 0.0);(0.0, 0.0, 0.0, 24.21000099182129, 0.0, -2.690000057220459, 5.380000114440918, -16.139999389648438)
2024/05/03/12:55:34.901221;100326;1714766134;923439688;;['BL_Position', 'BL_Wheel', 'BR_Position', 'BR_Wheel', 'FL_Position', 'FL_Wheel', 'FR_Position', 'FR_Wheel'];(1.572330355644226, 1427.6146240234375, 1.572330355644226, 1425.5712890625, 1.572330355644226, 1425.3243408203125, 1.5707963705062866, 1429.844970703125);(0.0, 0.0, 0.0, 0.0, 0.0, 0.0, 0.0, 0.0);(0.0, 0.0, 0.0, 24.21000099182129, 0.0, -2.690000057220459, 5.380000114440918, -16.139999389648438)
2024/05/03/12:55:34.923764;100327;1714766134;939527316;;['BL_Position', 'BL_Wheel', 'BR_Position', 'BR_Wheel', 'FL_Position', 'FL_Wheel', 'FR_Position', 'FR_Wheel'];(1.5707963705062866, 1427.6160888671875, 1.572330355644226, 1425.5712890625, 1.5707963705062866, 1425.3243408203125, 1.5692623853683472, 1429.844970703125);(0.0, 0.0, 0.0, 0.0, 0.0, 0.0, 0.0, 0.0);(0.0, 0.0, 0.0, 24.21000099182129, 0.0, -2.690000057220459, 5.380000114440918, -16.139999389648438)
2024/05/03/12:55:34.933541;100328;1714766134;955877815;;['BL_Position', 'BL_Wheel', 'BR_Position', 'BR_Wheel', 'FL_Position', 'FL_Wheel', 'FR_Position', 'FR_Wheel'];(1.5707963705062866, 1427.6160888671875, 1.572330355644226, 1425.5712890625, 1.5707963705062866, 1425.3243408203125, 1.5707963705062866, 1429.844970703125);(0.0, 0.0, 0.0, 0.0, 0.0, 0.0, 0.0, 0.0);(0.0, 0.0, 0.0, 24.21000099182129, 0.0, -2.690000057220459, 5.380000114440918, -16.139999389648438)
2024/05/03/12:55:34.949891;100329;1714766134;971475295;;['BL_Position', 'BL_Wheel', 'BR_Position', 'BR_Wheel', 'FL_Position', 'FL_Wheel', 'FR_Position', 'FR_Wheel'];(1.5707963705062866, 1427.6160888671875, 1.572330355644226, 1425.5728759765625, 1.5707963705062866, 1425.3243408203125, 1.5692623853683472, 1429.844970703125);(0.0, 0.0, 0.0, 0.0, 0.0, 0.0, 0.0, 0.0);(0.0, 0.0, 0.0, 24.21000099182129, 0.0, -2.690000057220459, 5.380000114440918, -16.139999389648438)
2024/05/03/12:55:34.965258;100330;1714766134;987448164;;['BL_Position', 'BL_Wheel', 'BR_Position', 'BR_Wheel', 'FL_Position', 'FL_Wheel', 'FR_Position', 'FR_Wheel'];(1.5707963705062866, 1427.6160888671875, 1.5707963705062866, 1425.5712890625, 1.5707963705062866, 1425.3243408203125, 1.5707963705062866, 1429.844970703125);(0.0, 0.0, 0.0, 0.0, 0.0, 0.0, 0.0, 0.0);(0.0, 0.0, 0.0, 24.21000099182129, 0.0, -2.690000057220459, 5.380000114440918, -16.139999389648438)
2024/05/03/12:55:34.980853;100331;1714766135;3413941;;['BL_Position', 'BL_Wheel', 'BR_Position', 'BR_Wheel', 'FL_Position', 'FL_Wheel', 'FR_Position', 'FR_Wheel'];(1.572330355644226, 1427.6146240234375, 1.572330355644226, 1425.5712890625, 1.572330355644226, 1425.3243408203125, 1.5707963705062866, 1429.844970703125);(0.0, 0.0, 0.0, 0.0, 0.0, 0.0, 0.0, 0.0);(0.0, 0.0, 0.0, 24.21000099182129, 0.0, -2.690000057220459, 5.380000114440918, -16.139999389648438)
2024/05/03/12:55:34.997405;100332;1714766135;19510421;;['BL_Position', 'BL_Wheel', 'BR_Position', 'BR_Wheel', 'FL_Position', 'FL_Wheel', 'FR_Position', 'FR_Wheel'];(1.5707963705062866, 1427.6160888671875, 1.572330355644226, 1425.5712890625, 1.5707963705062866, 1425.3243408203125, 1.5707963705062866, 1429.844970703125);(0.0, 0.0, 0.0, 0.0, 0.0, 0.0, 0.0, 0.0);(0.0, 0.0, 0.0, 24.21000099182129, 0.0, -2.690000057220459, 5.380000114440918, -16.139999389648438)
2024/05/03/12:55:35.013200;100333;1714766135;35453123;;['BL_Position', 'BL_Wheel', 'BR_Position', 'BR_Wheel', 'FL_Position', 'FL_Wheel', 'FR_Position', 'FR_Wheel'];(1.5707963705062866, 1427.6160888671875, 1.572330355644226, 1425.5712890625, 1.5707963705062866, 1425.3243408203125, 1.5707963705062866, 1429.844970703125);(0.0, 0.0, 0.0, 0.0, 0.0, 0.0, 0.0, 0.0);(0.0, 0.0, 0.0, 24.21000099182129, 0.0, -2.690000057220459, 2.690000057220459, -16.139999389648438)
2024/05/03/12:55:35.028955;100334;1714766135;51497474;;['BL_Position', 'BL_Wheel', 'BR_Position', 'BR_Wheel', 'FL_Position', 'FL_Wheel', 'FR_Position', 'FR_Wheel'];(1.5707963705062866, 1427.6146240234375, 1.572330355644226, 1425.5712890625, 1.5707963705062866, 1425.3243408203125, 1.5707963705062866, 1429.844970703125);(0.0, 0.0, 0.0, 0.0, 0.0, 0.0, 0.0, 0.0);(0.0, 0.0, 0.0, 24.21000099182129, 0.0, -2.690000057220459, 5.380000114440918, -16.139999389648438)
2024/05/03/12:55:35.054285;100335;1714766135;67497176;;['BL_Position', 'BL_Wheel', 'BR_Position', 'BR_Wheel', 'FL_Position', 'FL_Wheel', 'FR_Position', 'FR_Wheel'];(1.5707963705062866, 1427.6160888671875, 1.572330355644226, 1425.5712890625, 1.5707963705062866, 1425.3243408203125, 1.5707963705062866, 1429.844970703125);(0.0, 0.0, 0.0, 0.0, 0.0, 0.0, 0.0, 0.0);(0.0, 0.0, 0.0, 24.21000099182129, 0.0, -2.690000057220459, 5.380000114440918, -16.139999389648438)
2024/05/03/12:55:35.061179;100336;1714766135;83468601;;['BL_Position', 'BL_Wheel', 'BR_Position', 'BR_Wheel', 'FL_Position', 'FL_Wheel', 'FR_Position', 'FR_Wheel'];(1.5707963705062866, 1427.6146240234375, 1.5707963705062866, 1425.5712890625, 1.5707963705062866, 1425.3243408203125, 1.5692623853683472, 1429.844970703125);(0.0, 0.0, 0.0, 0.0, 0.0, 0.0, 0.0, 0.0);(0.0, 0.0, 0.0, 24.21000099182129, 0.0, -2.690000057220459, 5.380000114440918, -16.139999389648438)
2024/05/03/12:55:35.077155;100337;1714766135;99465396;;['BL_Position', 'BL_Wheel', 'BR_Position', 'BR_Wheel', 'FL_Position', 'FL_Wheel', 'FR_Position', 'FR_Wheel'];(1.5707963705062866, 1427.6146240234375, 1.572330355644226, 1425.5728759765625, 1.572330355644226, 1425.3243408203125, 1.5707963705062866, 1429.844970703125);(0.0, 0.0, 0.0, 0.0, 0.0, 0.0, 0.0, 0.0);(0.0, 0.0, 0.0, 24.21000099182129, 0.0, -2.690000057220459, 5.380000114440918, -16.139999389648438)
2024/05/03/12:55:35.092982;100338;1714766135;115455247;;['BL_Position', 'BL_Wheel', 'BR_Position', 'BR_Wheel', 'FL_Position', 'FL_Wheel', 'FR_Position', 'FR_Wheel'];(1.5707963705062866, 1427.6146240234375, 1.5707963705062866, 1425.5712890625, 1.5707963705062866, 1425.3243408203125, 1.5707963705062866, 1429.844970703125);(0.0, 0.0, 0.0, 0.0, 0.0, 0.0, 0.0, 0.0);(0.0, 0.0, 0.0, 24.21000099182129, 0.0, -2.690000057220459, 2.690000057220459, -16.139999389648438)
2024/05/03/12:55:35.108924;100339;1714766135;131406949;;['BL_Position', 'BL_Wheel', 'BR_Position', 'BR_Wheel', 'FL_Position', 'FL_Wheel', 'FR_Position', 'FR_Wheel'];(1.5707963705062866, 1427.6146240234375, 1.572330355644226, 1425.5712890625, 1.5707963705062866, 1425.3243408203125, 1.5692623853683472, 1429.844970703125);(0.0, 0.0, 0.0, 0.0, 0.0, 0.0, 0.0, 0.0);(0.0, 0.0, 0.0, 24.21000099182129, 0.0, -2.690000057220459, 5.380000114440918, -16.139999389648438)
2024/05/03/12:55:35.128027;100340;1714766135;147393411;;['BL_Position', 'BL_Wheel', 'BR_Position', 'BR_Wheel', 'FL_Position', 'FL_Wheel', 'FR_Position', 'FR_Wheel'];(1.5707963705062866, 1427.6160888671875, 1.572330355644226, 1425.5712890625, 1.5707963705062866, 1425.3243408203125, 1.5692623853683472, 1429.844970703125);(0.0, 0.0, 0.0, 0.0, 0.0, 0.0, 0.0, 0.0);(0.0, 0.0, 0.0, 24.21000099182129, 0.0, -2.690000057220459, 5.380000114440918, -16.139999389648438)
2024/05/03/12:55:35.141198;100341;1714766135;163422706;;['BL_Position', 'BL_Wheel', 'BR_Position', 'BR_Wheel', 'FL_Position', 'FL_Wheel', 'FR_Position', 'FR_Wheel'];(1.5707963705062866, 1427.6160888671875, 1.572330355644226, 1425.5712890625, 1.572330355644226, 1425.3243408203125, 1.5707963705062866, 1429.844970703125);(0.0, 0.0, 0.0, 0.0, 0.0, 0.0, 0.0, 0.0);(2.690000057220459, 0.0, 0.0, 24.21000099182129, 0.0, -2.690000057220459, 5.380000114440918, -16.139999389648438)
2024/05/03/12:55:35.159832;100342;1714766135;179387704;;['BL_Position', 'BL_Wheel', 'BR_Position', 'BR_Wheel', 'FL_Position', 'FL_Wheel', 'FR_Position', 'FR_Wheel'];(1.5707963705062866, 1427.6160888671875, 1.572330355644226, 1425.5712890625, 1.5707963705062866, 1425.3243408203125, 1.5707963705062866, 1429.844970703125);(0.0, 0.0, 0.0, 0.0, 0.0, 0.0, 0.0, 0.0);(2.690000057220459, 0.0, 0.0, 24.21000099182129, 0.0, -2.690000057220459, 5.380000114440918, -16.139999389648438)
2024/05/03/12:55:35.173709;100343;1714766135;195397203;;['BL_Position', 'BL_Wheel', 'BR_Position', 'BR_Wheel', 'FL_Position', 'FL_Wheel', 'FR_Position', 'FR_Wheel'];(1.572330355644226, 1427.6146240234375, 1.572330355644226, 1425.5712890625, 1.572330355644226, 1425.3243408203125, 1.5707963705062866, 1429.844970703125);(0.0, 0.0, 0.0, 0.0, 0.0, 0.0, 0.0, 0.0);(2.690000057220459, 0.0, 0.0, 24.21000099182129, 0.0, -2.690000057220459, 5.380000114440918, -16.139999389648438)
2024/05/03/12:55:35.189856;100344;1714766135;211486368;;['BL_Position', 'BL_Wheel', 'BR_Position', 'BR_Wheel', 'FL_Position', 'FL_Wheel', 'FR_Position', 'FR_Wheel'];(1.5707963705062866, 1427.6146240234375, 1.572330355644226, 1425.5712890625, 1.5707963705062866, 1425.3243408203125, 1.5707963705062866, 1429.844970703125);(0.0, 0.0, 0.0, 0.0, 0.0, 0.0, 0.0, 0.0);(2.690000057220459, 0.0, 0.0, 24.21000099182129, 0.0, -2.690000057220459, 5.380000114440918, -16.139999389648438)
2024/05/03/12:55:35.206232;100345;1714766135;228159293;;['BL_Position', 'BL_Wheel', 'BR_Position', 'BR_Wheel', 'FL_Position', 'FL_Wheel', 'FR_Position', 'FR_Wheel'];(1.5707963705062866, 1427.6146240234375, 1.572330355644226, 1425.5728759765625, 1.572330355644226, 1425.3243408203125, 1.5707963705062866, 1429.844970703125);(0.0, 0.0, 0.0, 0.0, 0.0, 0.0, 0.0, 0.0);(2.690000057220459, 0.0, 0.0, 24.21000099182129, 0.0, -2.690000057220459, 2.690000057220459, -16.139999389648438)
2024/05/03/12:55:35.230262;100346;1714766135;243467718;;['BL_Position', 'BL_Wheel', 'BR_Position', 'BR_Wheel', 'FL_Position', 'FL_Wheel', 'FR_Position', 'FR_Wheel'];(1.5707963705062866, 1427.6160888671875, 1.5707963705062866, 1425.5712890625, 1.5707963705062866, 1425.3243408203125, 1.5707963705062866, 1429.844970703125);(0.0, 0.0, 0.0, 0.0, 0.0, 0.0, 0.0, 0.0);(0.0, 0.0, 0.0, 24.21000099182129, 0.0, -2.690000057220459, 2.690000057220459, -16.139999389648438)
2024/05/03/12:55:35.237287;100347;1714766135;259529513;;['BL_Position', 'BL_Wheel', 'BR_Position', 'BR_Wheel', 'FL_Position', 'FL_Wheel', 'FR_Position', 'FR_Wheel'];(1.5707963705062866, 1427.6146240234375, 1.572330355644226, 1425.5712890625, 1.5707963705062866, 1425.3243408203125, 1.5707963705062866, 1429.844970703125);(0.0, 0.0, 0.0, 0.0, 0.0, 0.0, 0.0, 0.0);(2.690000057220459, 0.0, 0.0, 24.21000099182129, 0.0, -2.690000057220459, 2.690000057220459, -16.139999389648438)
2024/05/03/12:55:35.254247;100348;1714766135;275729826;;['BL_Position', 'BL_Wheel', 'BR_Position', 'BR_Wheel', 'FL_Position', 'FL_Wheel', 'FR_Position', 'FR_Wheel'];(1.5707963705062866, 1427.6146240234375, 1.5707963705062866, 1425.5712890625, 1.5707963705062866, 1425.3243408203125, 1.5707963705062866, 1429.844970703125);(0.0, 0.0, 0.0, 0.0, 0.0, 0.0, 0.0, 0.0);(0.0, 0.0, 0.0, 24.21000099182129, 0.0, -2.690000057220459, 5.380000114440918, -16.139999389648438)
2024/05/03/12:55:35.269789;100349;1714766135;291452362;;['BL_Position', 'BL_Wheel', 'BR_Position', 'BR_Wheel', 'FL_Position', 'FL_Wheel', 'FR_Position', 'FR_Wheel'];(1.572330355644226, 1427.6160888671875, 1.5707963705062866, 1425.5712890625, 1.572330355644226, 1425.3243408203125, 1.5707963705062866, 1429.844970703125);(0.0, 0.0, 0.0, 0.0, 0.0, 0.0, 0.0, 0.0);(0.0, 0.0, 0.0, 24.21000099182129, 0.0, -2.690000057220459, 5.380000114440918, -16.139999389648438)
2024/05/03/12:55:35.285257;100350;1714766135;307503676;;['BL_Position', 'BL_Wheel', 'BR_Position', 'BR_Wheel', 'FL_Position', 'FL_Wheel', 'FR_Position', 'FR_Wheel'];(1.5707963705062866, 1427.6146240234375, 1.572330355644226, 1425.5712890625, 1.5707963705062866, 1425.3243408203125, 1.5707963705062866, 1429.844970703125);(0.0, 0.0, 0.0, 0.0, 0.0, 0.0, 0.0, 0.0);(2.690000057220459, 0.0, 0.0, 24.21000099182129, 0.0, -2.690000057220459, 5.380000114440918, -16.139999389648438)
2024/05/03/12:55:35.301113;100351;1714766135;323427804;;['BL_Position', 'BL_Wheel', 'BR_Position', 'BR_Wheel', 'FL_Position', 'FL_Wheel', 'FR_Position', 'FR_Wheel'];(1.5707963705062866, 1427.6160888671875, 1.572330355644226, 1425.5728759765625, 1.5707963705062866, 1425.3243408203125, 1.5692623853683472, 1429.844970703125);(0.0, 0.0, 0.0, 0.0, 0.0, 0.0, 0.0, 0.0);(0.0, 0.0, 0.0, 24.21000099182129, 0.0, -2.690000057220459, 2.690000057220459, -16.139999389648438)
2024/05/03/12:55:35.317396;100352;1714766135;339457321;;['BL_Position', 'BL_Wheel', 'BR_Position', 'BR_Wheel', 'FL_Position', 'FL_Wheel', 'FR_Position', 'FR_Wheel'];(1.5707963705062866, 1427.6146240234375, 1.572330355644226, 1425.5728759765625, 1.572330355644226, 1425.3243408203125, 1.5707963705062866, 1429.844970703125);(0.0, 0.0, 0.0, 0.0, 0.0, 0.0, 0.0, 0.0);(0.0, 0.0, 0.0, 24.21000099182129, 0.0, -2.690000057220459, 5.380000114440918, -16.139999389648438)
2024/05/03/12:55:35.334141;100353;1714766135;355456931;;['BL_Position', 'BL_Wheel', 'BR_Position', 'BR_Wheel', 'FL_Position', 'FL_Wheel', 'FR_Position', 'FR_Wheel'];(1.5707963705062866, 1427.6160888671875, 1.572330355644226, 1425.5712890625, 1.572330355644226, 1425.3243408203125, 1.5707963705062866, 1429.844970703125);(0.0, 0.0, 0.0, 0.0, 0.0, 0.0, 0.0, 0.0);(0.0, 0.0, 0.0, 24.21000099182129, 0.0, -2.690000057220459, 5.380000114440918, -16.139999389648438)
2024/05/03/12:55:35.360248;100354;1714766135;371538707;;['BL_Position', 'BL_Wheel', 'BR_Position', 'BR_Wheel', 'FL_Position', 'FL_Wheel', 'FR_Position', 'FR_Wheel'];(1.572330355644226, 1427.6146240234375, 1.5707963705062866, 1425.5712890625, 1.5707963705062866, 1425.3243408203125, 1.5707963705062866, 1429.844970703125);(0.0, 0.0, 0.0, 0.0, 0.0, 0.0, 0.0, 0.0);(0.0, 0.0, 0.0, 24.21000099182129, 0.0, -2.690000057220459, 5.380000114440918, -16.139999389648438)
2024/05/03/12:55:35.367107;100355;1714766135;387423817;;['BL_Position', 'BL_Wheel', 'BR_Position', 'BR_Wheel', 'FL_Position', 'FL_Wheel', 'FR_Position', 'FR_Wheel'];(1.5707963705062866, 1427.6160888671875, 1.572330355644226, 1425.5728759765625, 1.5707963705062866, 1425.3243408203125, 1.5707963705062866, 1429.844970703125);(0.0, 0.0, 0.0, 0.0, 0.0, 0.0, 0.0, 0.0);(0.0, 0.0, 0.0, 24.21000099182129, 0.0, -2.690000057220459, 5.380000114440918, -16.139999389648438)
2024/05/03/12:55:35.381325;100356;1714766135;403517094;;['BL_Position', 'BL_Wheel', 'BR_Position', 'BR_Wheel', 'FL_Position', 'FL_Wheel', 'FR_Position', 'FR_Wheel'];(1.5707963705062866, 1427.6160888671875, 1.572330355644226, 1425.5728759765625, 1.5707963705062866, 1425.325927734375, 1.5707963705062866, 1429.844970703125);(0.0, 0.0, 0.0, 0.0, 0.0, 0.0, 0.0, 0.0);(0.0, 0.0, 0.0, 24.21000099182129, 0.0, -2.690000057220459, 2.690000057220459, -16.139999389648438)
2024/05/03/12:55:35.397644;100357;1714766135;419436796;;['BL_Position', 'BL_Wheel', 'BR_Position', 'BR_Wheel', 'FL_Position', 'FL_Wheel', 'FR_Position', 'FR_Wheel'];(1.5707963705062866, 1427.6146240234375, 1.572330355644226, 1425.5728759765625, 1.5707963705062866, 1425.3243408203125, 1.5707963705062866, 1429.844970703125);(0.0, 0.0, 0.0, 0.0, 0.0, 0.0, 0.0, 0.0);(0.0, 0.0, 0.0, 24.21000099182129, 0.0, -2.690000057220459, 2.690000057220459, -16.139999389648438)
2024/05/03/12:55:35.412795;100358;1714766135;435600795;;['BL_Position', 'BL_Wheel', 'BR_Position', 'BR_Wheel', 'FL_Position', 'FL_Wheel', 'FR_Position', 'FR_Wheel'];(1.5707963705062866, 1427.6146240234375, 1.572330355644226, 1425.5712890625, 1.5707963705062866, 1425.3243408203125, 1.5707963705062866, 1429.844970703125);(0.0, 0.0, 0.0, 0.0, 0.0, 0.0, 0.0, 0.0);(0.0, 0.0, 0.0, 24.21000099182129, 0.0, -2.690000057220459, 2.690000057220459, -16.139999389648438)
2024/05/03/12:55:35.435034;100359;1714766135;451456071;;['BL_Position', 'BL_Wheel', 'BR_Position', 'BR_Wheel', 'FL_Position', 'FL_Wheel', 'FR_Position', 'FR_Wheel'];(1.5707963705062866, 1427.6146240234375, 1.5707963705062866, 1425.5728759765625, 1.5707963705062866, 1425.3243408203125, 1.5707963705062866, 1429.844970703125);(0.0, 0.0, 0.0, 0.0, 0.0, 0.0, 0.0, 0.0);(0.0, 0.0, 0.0, 24.21000099182129, 0.0, -2.690000057220459, 5.380000114440918, -16.139999389648438)
2024/05/03/12:55:35.444955;100360;1714766135;467623755;;['BL_Position', 'BL_Wheel', 'BR_Position', 'BR_Wheel', 'FL_Position', 'FL_Wheel', 'FR_Position', 'FR_Wheel'];(1.5707963705062866, 1427.6160888671875, 1.572330355644226, 1425.5728759765625, 1.5707963705062866, 1425.3243408203125, 1.5692623853683472, 1429.8465576171875);(0.0, 0.0, 0.0, 0.0, 0.0, 0.0, 0.0, 0.0);(0.0, 0.0, 0.0, 24.21000099182129, 0.0, -2.690000057220459, 5.380000114440918, -16.139999389648438)
2024/05/03/12:55:35.463708;100361;1714766135;483540180;;['BL_Position', 'BL_Wheel', 'BR_Position', 'BR_Wheel', 'FL_Position', 'FL_Wheel', 'FR_Position', 'FR_Wheel'];(1.5707963705062866, 1427.6160888671875, 1.572330355644226, 1425.5728759765625, 1.5707963705062866, 1425.3243408203125, 1.5692623853683472, 1429.844970703125);(0.0, 0.0, 0.0, 0.0, 0.0, 0.0, 0.0, 0.0);(0.0, 0.0, 0.0, 24.21000099182129, 0.0, -2.690000057220459, 5.380000114440918, -16.139999389648438)
2024/05/03/12:55:35.476940;100362;1714766135;499416234;;['BL_Position', 'BL_Wheel', 'BR_Position', 'BR_Wheel', 'FL_Position', 'FL_Wheel', 'FR_Position', 'FR_Wheel'];(1.5707963705062866, 1427.6146240234375, 1.572330355644226, 1425.5728759765625, 1.5707963705062866, 1425.3243408203125, 1.5707963705062866, 1429.844970703125);(0.0, 0.0, 0.0, 0.0, 0.0, 0.0, 0.0, 0.0);(0.0, 0.0, 0.0, 24.21000099182129, 0.0, -2.690000057220459, 5.380000114440918, -16.139999389648438)
2024/05/03/12:55:35.492829;100363;1714766135;515398733;;['BL_Position', 'BL_Wheel', 'BR_Position', 'BR_Wheel', 'FL_Position', 'FL_Wheel', 'FR_Position', 'FR_Wheel'];(1.5707963705062866, 1427.6146240234375, 1.572330355644226, 1425.5712890625, 1.5707963705062866, 1425.3243408203125, 1.5707963705062866, 1429.844970703125);(0.0, 0.0, 0.0, 0.0, 0.0, 0.0, 0.0, 0.0);(0.0, 0.0, 0.0, 24.21000099182129, 0.0, -2.690000057220459, 2.690000057220459, -16.139999389648438)
2024/05/03/12:55:35.508988;100364;1714766135;531448324;;['BL_Position', 'BL_Wheel', 'BR_Position', 'BR_Wheel', 'FL_Position', 'FL_Wheel', 'FR_Position', 'FR_Wheel'];(1.572330355644226, 1427.6146240234375, 1.572330355644226, 1425.5712890625, 1.5707963705062866, 1425.3243408203125, 1.5707963705062866, 1429.844970703125);(0.0, 0.0, 0.0, 0.0, 0.0, 0.0, 0.0, 0.0);(0.0, 0.0, 0.0, 24.21000099182129, 0.0, -2.690000057220459, 5.380000114440918, -16.139999389648438)
2024/05/03/12:55:35.537307;100365;1714766135;547426304;;['BL_Position', 'BL_Wheel', 'BR_Position', 'BR_Wheel', 'FL_Position', 'FL_Wheel', 'FR_Position', 'FR_Wheel'];(1.5707963705062866, 1427.6146240234375, 1.572330355644226, 1425.5712890625, 1.5707963705062866, 1425.3243408203125, 1.5707963705062866, 1429.844970703125);(0.0, 0.0, 0.0, 0.0, 0.0, 0.0, 0.0, 0.0);(0.0, 0.0, 0.0, 24.21000099182129, 0.0, -2.690000057220459, 5.380000114440918, -16.139999389648438)
2024/05/03/12:55:35.542506;100366;1714766135;563418210;;['BL_Position', 'BL_Wheel', 'BR_Position', 'BR_Wheel', 'FL_Position', 'FL_Wheel', 'FR_Position', 'FR_Wheel'];(1.5707963705062866, 1427.6160888671875, 1.572330355644226, 1425.5712890625, 1.5707963705062866, 1425.3243408203125, 1.5707963705062866, 1429.844970703125);(0.0, 0.0, 0.0, 0.0, 0.0, 0.0, 0.0, 0.0);(2.690000057220459, 0.0, 0.0, 24.21000099182129, 0.0, -2.690000057220459, 5.380000114440918, -16.139999389648438)
2024/05/03/12:55:35.559922;100367;1714766135;579446709;;['BL_Position', 'BL_Wheel', 'BR_Position', 'BR_Wheel', 'FL_Position', 'FL_Wheel', 'FR_Position', 'FR_Wheel'];(1.5707963705062866, 1427.6146240234375, 1.572330355644226, 1425.5712890625, 1.5707963705062866, 1425.3243408203125, 1.5707963705062866, 1429.844970703125);(0.0, 0.0, 0.0, 0.0, 0.0, 0.0, 0.0, 0.0);(0.0, 0.0, 0.0, 24.21000099182129, 0.0, -2.690000057220459, 5.380000114440918, -16.139999389648438)
2024/05/03/12:55:35.574700;100368;1714766135;595503689;;['BL_Position', 'BL_Wheel', 'BR_Position', 'BR_Wheel', 'FL_Position', 'FL_Wheel', 'FR_Position', 'FR_Wheel'];(1.5707963705062866, 1427.6146240234375, 1.572330355644226, 1425.5712890625, 1.5707963705062866, 1425.3243408203125, 1.5707963705062866, 1429.844970703125);(0.0, 0.0, 0.0, 0.0, 0.0, 0.0, 0.0, 0.0);(0.0, 0.0, 0.0, 24.21000099182129, 0.0, -2.690000057220459, 5.380000114440918, -16.139999389648438)
2024/05/03/12:55:35.589115;100369;1714766135;611432373;;['BL_Position', 'BL_Wheel', 'BR_Position', 'BR_Wheel', 'FL_Position', 'FL_Wheel', 'FR_Position', 'FR_Wheel'];(1.5707963705062866, 1427.6146240234375, 1.572330355644226, 1425.5728759765625, 1.5707963705062866, 1425.3243408203125, 1.5707963705062866, 1429.844970703125);(0.0, 0.0, 0.0, 0.0, 0.0, 0.0, 0.0, 0.0);(2.690000057220459, 0.0, 0.0, 24.21000099182129, 0.0, -2.690000057220459, 8.069999694824219, -16.139999389648438)
2024/05/03/12:55:35.604970;100370;1714766135;627424798;;['BL_Position', 'BL_Wheel', 'BR_Position', 'BR_Wheel', 'FL_Position', 'FL_Wheel', 'FR_Position', 'FR_Wheel'];(1.5707963705062866, 1427.6146240234375, 1.5707963705062866, 1425.5728759765625, 1.5707963705062866, 1425.3243408203125, 1.5707963705062866, 1429.844970703125);(0.0, 0.0, 0.0, 0.0, 0.0, 0.0, 0.0, 0.0);(0.0, 0.0, 0.0, 24.21000099182129, 0.0, -2.690000057220459, 5.380000114440918, -16.139999389648438)
2024/05/03/12:55:35.621191;100371;1714766135;643460074;;['BL_Position', 'BL_Wheel', 'BR_Position', 'BR_Wheel', 'FL_Position', 'FL_Wheel', 'FR_Position', 'FR_Wheel'];(1.572330355644226, 1427.6160888671875, 1.5707963705062866, 1425.5728759765625, 1.5707963705062866, 1425.3243408203125, 1.5707963705062866, 1429.844970703125);(0.0, 0.0, 0.0, 0.0, 0.0, 0.0, 0.0, 0.0);(2.690000057220459, 0.0, 0.0, 24.21000099182129, 0.0, -2.690000057220459, 2.690000057220459, -16.139999389648438)
2024/05/03/12:55:35.640409;100372;1714766135;659454314;;['BL_Position', 'BL_Wheel', 'BR_Position', 'BR_Wheel', 'FL_Position', 'FL_Wheel', 'FR_Position', 'FR_Wheel'];(1.5707963705062866, 1427.6146240234375, 1.572330355644226, 1425.5712890625, 1.5707963705062866, 1425.3243408203125, 1.5707963705062866, 1429.844970703125);(0.0, 0.0, 0.0, 0.0, 0.0, 0.0, 0.0, 0.0);(0.0, 0.0, 0.0, 24.21000099182129, 0.0, -2.690000057220459, 2.690000057220459, -16.139999389648438)
2024/05/03/12:55:35.652832;100373;1714766135;675431572;;['BL_Position', 'BL_Wheel', 'BR_Position', 'BR_Wheel', 'FL_Position', 'FL_Wheel', 'FR_Position', 'FR_Wheel'];(1.5707963705062866, 1427.6146240234375, 1.572330355644226, 1425.5712890625, 1.5707963705062866, 1425.3243408203125, 1.5707963705062866, 1429.844970703125);(0.0, 0.0, 0.0, 0.0, 0.0, 0.0, 0.0, 0.0);(0.0, 0.0, 0.0, 24.21000099182129, 0.0, -2.690000057220459, 5.380000114440918, -16.139999389648438)
2024/05/03/12:55:35.673907;100374;1714766135;691441367;;['BL_Position', 'BL_Wheel', 'BR_Position', 'BR_Wheel', 'FL_Position', 'FL_Wheel', 'FR_Position', 'FR_Wheel'];(1.5707963705062866, 1427.6160888671875, 1.5707963705062866, 1425.5728759765625, 1.5707963705062866, 1425.3243408203125, 1.5707963705062866, 1429.844970703125);(0.0, 0.0, 0.0, 0.0, 0.0, 0.0, 0.0, 0.0);(2.690000057220459, 0.0, 0.0, 24.21000099182129, 0.0, -2.690000057220459, 5.380000114440918, -16.139999389648438)
2024/05/03/12:55:35.685188;100375;1714766135;707417162;;['BL_Position', 'BL_Wheel', 'BR_Position', 'BR_Wheel', 'FL_Position', 'FL_Wheel', 'FR_Position', 'FR_Wheel'];(1.5707963705062866, 1427.6146240234375, 1.572330355644226, 1425.5712890625, 1.5707963705062866, 1425.3243408203125, 1.5707963705062866, 1429.844970703125);(0.0, 0.0, 0.0, 0.0, 0.0, 0.0, 0.0, 0.0);(2.690000057220459, 0.0, 0.0, 24.21000099182129, 0.0, -2.690000057220459, 5.380000114440918, -16.139999389648438)
2024/05/03/12:55:35.701214;100376;1714766135;723593586;;['BL_Position', 'BL_Wheel', 'BR_Position', 'BR_Wheel', 'FL_Position', 'FL_Wheel', 'FR_Position', 'FR_Wheel'];(1.5707963705062866, 1427.6146240234375, 1.572330355644226, 1425.5712890625, 1.5707963705062866, 1425.3243408203125, 1.5707963705062866, 1429.844970703125);(0.0, 0.0, 0.0, 0.0, 0.0, 0.0, 0.0, 0.0);(2.690000057220459, 0.0, 0.0, 24.21000099182129, 0.0, -2.690000057220459, 5.380000114440918, -16.139999389648438)
2024/05/03/12:55:35.717320;100377;1714766135;739428789;;['BL_Position', 'BL_Wheel', 'BR_Position', 'BR_Wheel', 'FL_Position', 'FL_Wheel', 'FR_Position', 'FR_Wheel'];(1.5707963705062866, 1427.6146240234375, 1.572330355644226, 1425.5712890625, 1.572330355644226, 1425.3243408203125, 1.5692623853683472, 1429.844970703125);(0.0, 0.0, 0.0, 0.0, 0.0, 0.0, 0.0, 0.0);(2.690000057220459, 0.0, 0.0, 24.21000099182129, 0.0, -2.690000057220459, 2.690000057220459, -16.139999389648438)
2024/05/03/12:55:35.733026;100378;1714766135;755394195;;['BL_Position', 'BL_Wheel', 'BR_Position', 'BR_Wheel', 'FL_Position', 'FL_Wheel', 'FR_Position', 'FR_Wheel'];(1.5707963705062866, 1427.6146240234375, 1.5707963705062866, 1425.5728759765625, 1.5707963705062866, 1425.3243408203125, 1.5707963705062866, 1429.844970703125);(0.0, 0.0, 0.0, 0.0, 0.0, 0.0, 0.0, 0.0);(2.690000057220459, 0.0, 0.0, 24.21000099182129, 0.0, -2.690000057220459, 2.690000057220459, -16.139999389648438)
2024/05/03/12:55:35.748960;100379;1714766135;771414157;;['BL_Position', 'BL_Wheel', 'BR_Position', 'BR_Wheel', 'FL_Position', 'FL_Wheel', 'FR_Position', 'FR_Wheel'];(1.5707963705062866, 1427.6146240234375, 1.5707963705062866, 1425.5728759765625, 1.5707963705062866, 1425.3243408203125, 1.5707963705062866, 1429.844970703125);(0.0, 0.0, 0.0, 0.0, 0.0, 0.0, 0.0, 0.0);(0.0, 0.0, 0.0, 24.21000099182129, 0.0, -2.690000057220459, 2.690000057220459, -16.139999389648438)
2024/05/03/12:55:35.765782;100380;1714766135;787848396;;['BL_Position', 'BL_Wheel', 'BR_Position', 'BR_Wheel', 'FL_Position', 'FL_Wheel', 'FR_Position', 'FR_Wheel'];(1.5707963705062866, 1427.6146240234375, 1.572330355644226, 1425.5728759765625, 1.5707963705062866, 1425.325927734375, 1.5707963705062866, 1429.844970703125);(0.0, 0.0, 0.0, 0.0, 0.0, 0.0, 0.0, 0.0);(0.0, 0.0, 0.0, 24.21000099182129, 0.0, -2.690000057220459, 5.380000114440918, -16.139999389648438)
2024/05/03/12:55:35.781337;100381;1714766135;803453598;;['BL_Position', 'BL_Wheel', 'BR_Position', 'BR_Wheel', 'FL_Position', 'FL_Wheel', 'FR_Position', 'FR_Wheel'];(1.5707963705062866, 1427.6160888671875, 1.572330355644226, 1425.5728759765625, 1.572330355644226, 1425.3243408203125, 1.5707963705062866, 1429.844970703125);(0.0, 0.0, 0.0, 0.0, 0.0, 0.0, 0.0, 0.0);(0.0, 0.0, 0.0, 24.21000099182129, 0.0, -2.690000057220459, 5.380000114440918, -16.139999389648438)
2024/05/03/12:55:35.797075;100382;1714766135;819498541;;['BL_Position', 'BL_Wheel', 'BR_Position', 'BR_Wheel', 'FL_Position', 'FL_Wheel', 'FR_Position', 'FR_Wheel'];(1.5707963705062866, 1427.6146240234375, 1.5707963705062866, 1425.5728759765625, 1.5707963705062866, 1425.3243408203125, 1.5707963705062866, 1429.844970703125);(0.0, 0.0, 0.0, 0.0, 0.0, 0.0, 0.0, 0.0);(0.0, 0.0, 0.0, 24.21000099182129, 0.0, -2.690000057220459, 5.380000114440918, -16.139999389648438)
2024/05/03/12:55:35.813254;100383;1714766135;835488096;;['BL_Position', 'BL_Wheel', 'BR_Position', 'BR_Wheel', 'FL_Position', 'FL_Wheel', 'FR_Position', 'FR_Wheel'];(1.572330355644226, 1427.6146240234375, 1.5707963705062866, 1425.5712890625, 1.5707963705062866, 1425.3243408203125, 1.5707963705062866, 1429.844970703125);(0.0, 0.0, 0.0, 0.0, 0.0, 0.0, 0.0, 0.0);(0.0, 0.0, 0.0, 24.21000099182129, 0.0, -2.690000057220459, 5.380000114440918, -16.139999389648438)
2024/05/03/12:55:35.829182;100384;1714766135;851438483;;['BL_Position', 'BL_Wheel', 'BR_Position', 'BR_Wheel', 'FL_Position', 'FL_Wheel', 'FR_Position', 'FR_Wheel'];(1.5707963705062866, 1427.6146240234375, 1.572330355644226, 1425.5712890625, 1.5707963705062866, 1425.3243408203125, 1.5707963705062866, 1429.844970703125);(0.0, 0.0, 0.0, 0.0, 0.0, 0.0, 0.0, 0.0);(0.0, 0.0, 0.0, 24.21000099182129, 0.0, -2.690000057220459, 5.380000114440918, -16.139999389648438)
2024/05/03/12:55:35.846065;100385;1714766135;867435982;;['BL_Position', 'BL_Wheel', 'BR_Position', 'BR_Wheel', 'FL_Position', 'FL_Wheel', 'FR_Position', 'FR_Wheel'];(1.5707963705062866, 1427.6146240234375, 1.5707963705062866, 1425.5728759765625, 1.572330355644226, 1425.3243408203125, 1.5692623853683472, 1429.844970703125);(0.0, 0.0, 0.0, 0.0, 0.0, 0.0, 0.0, 0.0);(2.690000057220459, 0.0, 0.0, 24.21000099182129, 0.0, -2.690000057220459, 2.690000057220459, -16.139999389648438)
2024/05/03/12:55:35.868592;100386;1714766135;883401018;;['BL_Position', 'BL_Wheel', 'BR_Position', 'BR_Wheel', 'FL_Position', 'FL_Wheel', 'FR_Position', 'FR_Wheel'];(1.5707963705062866, 1427.6160888671875, 1.572330355644226, 1425.5712890625, 1.5707963705062866, 1425.3243408203125, 1.5707963705062866, 1429.844970703125);(0.0, 0.0, 0.0, 0.0, 0.0, 0.0, 0.0, 0.0);(2.690000057220459, 0.0, 0.0, 24.21000099182129, 0.0, -2.690000057220459, 5.380000114440918, -16.139999389648438)
2024/05/03/12:55:35.879717;100387;1714766135;899434794;;['BL_Position', 'BL_Wheel', 'BR_Position', 'BR_Wheel', 'FL_Position', 'FL_Wheel', 'FR_Position', 'FR_Wheel'];(1.5707963705062866, 1427.6146240234375, 1.572330355644226, 1425.5712890625, 1.5707963705062866, 1425.3243408203125, 1.5707963705062866, 1429.8465576171875);(0.0, 0.0, 0.0, 0.0, 0.0, 0.0, 0.0, 0.0);(2.690000057220459, 0.0, 0.0, 24.21000099182129, 0.0, -2.690000057220459, 5.380000114440918, -16.139999389648438)
2024/05/03/12:55:35.893229;100388;1714766135;915380274;;['BL_Position', 'BL_Wheel', 'BR_Position', 'BR_Wheel', 'FL_Position', 'FL_Wheel', 'FR_Position', 'FR_Wheel'];(1.5707963705062866, 1427.6146240234375, 1.5707963705062866, 1425.5712890625, 1.5707963705062866, 1425.3243408203125, 1.5707963705062866, 1429.844970703125);(0.0, 0.0, 0.0, 0.0, 0.0, 0.0, 0.0, 0.0);(2.690000057220459, 0.0, 0.0, 24.21000099182129, 0.0, -2.690000057220459, 5.380000114440918, -16.139999389648438)
2024/05/03/12:55:35.909034;100389;1714766135;931373625;;['BL_Position', 'BL_Wheel', 'BR_Position', 'BR_Wheel', 'FL_Position', 'FL_Wheel', 'FR_Position', 'FR_Wheel'];(1.5707963705062866, 1427.6146240234375, 1.572330355644226, 1425.5712890625, 1.5707963705062866, 1425.3243408203125, 1.5707963705062866, 1429.844970703125);(0.0, 0.0, 0.0, 0.0, 0.0, 0.0, 0.0, 0.0);(2.690000057220459, 0.0, 0.0, 24.21000099182129, 0.0, -2.690000057220459, 5.380000114440918, -16.139999389648438)
2024/05/03/12:55:35.925146;100390;1714766135;947365494;;['BL_Position', 'BL_Wheel', 'BR_Position', 'BR_Wheel', 'FL_Position', 'FL_Wheel', 'FR_Position', 'FR_Wheel'];(1.5707963705062866, 1427.6160888671875, 1.572330355644226, 1425.5712890625, 1.5707963705062866, 1425.3243408203125, 1.5707963705062866, 1429.844970703125);(0.0, 0.0, 0.0, 0.0, 0.0, 0.0, 0.0, 0.0);(2.690000057220459, 0.0, 0.0, 24.21000099182129, 0.0, -2.690000057220459, 5.380000114440918, -16.139999389648438)
2024/05/03/12:55:35.947497;100391;1714766135;963388993;;['BL_Position', 'BL_Wheel', 'BR_Position', 'BR_Wheel', 'FL_Position', 'FL_Wheel', 'FR_Position', 'FR_Wheel'];(1.5707963705062866, 1427.6146240234375, 1.5707963705062866, 1425.5728759765625, 1.5707963705062866, 1425.3243408203125, 1.5707963705062866, 1429.844970703125);(0.0, 0.0, 0.0, 0.0, 0.0, 0.0, 0.0, 0.0);(2.690000057220459, 0.0, 0.0, 24.21000099182129, 0.0, -2.690000057220459, 2.690000057220459, -16.139999389648438)
2024/05/03/12:55:35.957173;100392;1714766135;979444380;;['BL_Position', 'BL_Wheel', 'BR_Position', 'BR_Wheel', 'FL_Position', 'FL_Wheel', 'FR_Position', 'FR_Wheel'];(1.5707963705062866, 1427.6146240234375, 1.572330355644226, 1425.5712890625, 1.5707963705062866, 1425.3243408203125, 1.5707963705062866, 1429.844970703125);(0.0, 0.0, 0.0, 0.0, 0.0, 0.0, 0.0, 0.0);(0.0, 0.0, 0.0, 24.21000099182129, 0.0, -2.690000057220459, 5.380000114440918, -16.139999389648438)
2024/05/03/12:55:35.973499;100393;1714766135;995463675;;['BL_Position', 'BL_Wheel', 'BR_Position', 'BR_Wheel', 'FL_Position', 'FL_Wheel', 'FR_Position', 'FR_Wheel'];(1.5707963705062866, 1427.6160888671875, 1.572330355644226, 1425.5712890625, 1.5707963705062866, 1425.3243408203125, 1.5692623853683472, 1429.844970703125);(0.0, 0.0, 0.0, 0.0, 0.0, 0.0, 0.0, 0.0);(0.0, 0.0, 0.0, 24.21000099182129, 0.0, -2.690000057220459, 5.380000114440918, -16.139999389648438)
2024/05/03/12:55:35.989557;100394;1714766136;11434859;;['BL_Position', 'BL_Wheel', 'BR_Position', 'BR_Wheel', 'FL_Position', 'FL_Wheel', 'FR_Position', 'FR_Wheel'];(1.5707963705062866, 1427.6146240234375, 1.5707963705062866, 1425.5712890625, 1.572330355644226, 1425.3243408203125, 1.5707963705062866, 1429.844970703125);(0.0, 0.0, 0.0, 0.0, 0.0, 0.0, 0.0, 0.0);(0.0, 0.0, 0.0, 24.21000099182129, 0.0, -2.690000057220459, 5.380000114440918, -16.139999389648438)
2024/05/03/12:55:36.004496;100395;1714766136;27492099;;['BL_Position', 'BL_Wheel', 'BR_Position', 'BR_Wheel', 'FL_Position', 'FL_Wheel', 'FR_Position', 'FR_Wheel'];(1.5707963705062866, 1427.6160888671875, 1.572330355644226, 1425.5712890625, 1.5707963705062866, 1425.3243408203125, 1.5692623853683472, 1429.844970703125);(0.0, 0.0, 0.0, 0.0, 0.0, 0.0, 0.0, 0.0);(0.0, 0.0, 0.0, 24.21000099182129, 0.0, -2.690000057220459, 5.380000114440918, -16.139999389648438)
2024/05/03/12:55:36.021183;100396;1714766136;43419764;;['BL_Position', 'BL_Wheel', 'BR_Position', 'BR_Wheel', 'FL_Position', 'FL_Wheel', 'FR_Position', 'FR_Wheel'];(1.5707963705062866, 1427.6146240234375, 1.572330355644226, 1425.5728759765625, 1.5707963705062866, 1425.3243408203125, 1.5707963705062866, 1429.844970703125);(0.0, 0.0, 0.0, 0.0, 0.0, 0.0, 0.0, 0.0);(0.0, 0.0, 0.0, 24.21000099182129, 0.0, -2.690000057220459, 5.380000114440918, -16.139999389648438)
2024/05/03/12:55:36.049926;100397;1714766136;59727152;;['BL_Position', 'BL_Wheel', 'BR_Position', 'BR_Wheel', 'FL_Position', 'FL_Wheel', 'FR_Position', 'FR_Wheel'];(1.572330355644226, 1427.6146240234375, 1.5707963705062866, 1425.5712890625, 1.572330355644226, 1425.3243408203125, 1.5707963705062866, 1429.844970703125);(0.0, 0.0, 0.0, 0.0, 0.0, 0.0, 0.0, 0.0);(0.0, 0.0, 0.0, 24.21000099182129, 0.0, -2.690000057220459, 5.380000114440918, -16.139999389648438)
2024/05/03/12:55:36.054827;100398;1714766136;75484243;;['BL_Position', 'BL_Wheel', 'BR_Position', 'BR_Wheel', 'FL_Position', 'FL_Wheel', 'FR_Position', 'FR_Wheel'];(1.5707963705062866, 1427.6146240234375, 1.572330355644226, 1425.5712890625, 1.5707963705062866, 1425.3243408203125, 1.5707963705062866, 1429.844970703125);(0.0, 0.0, 0.0, 0.0, 0.0, 0.0, 0.0, 0.0);(0.0, 0.0, 0.0, 24.21000099182129, 0.0, -2.690000057220459, 5.380000114440918, -16.139999389648438)
2024/05/03/12:55:36.071561;100399;1714766136;91419186;;['BL_Position', 'BL_Wheel', 'BR_Position', 'BR_Wheel', 'FL_Position', 'FL_Wheel', 'FR_Position', 'FR_Wheel'];(1.5707963705062866, 1427.6160888671875, 1.572330355644226, 1425.5712890625, 1.5707963705062866, 1425.325927734375, 1.5707963705062866, 1429.844970703125);(0.0, 0.0, 0.0, 0.0, 0.0, 0.0, 0.0, 0.0);(0.0, 0.0, 0.0, 24.21000099182129, 0.0, -2.690000057220459, 5.380000114440918, -16.139999389648438)
2024/05/03/12:55:36.083677;100400;1714766136;107422574;;['BL_Position', 'BL_Wheel', 'BR_Position', 'BR_Wheel', 'FL_Position', 'FL_Wheel', 'FR_Position', 'FR_Wheel'];(1.5707963705062866, 1427.6146240234375, 1.572330355644226, 1425.5728759765625, 1.5707963705062866, 1425.3243408203125, 1.5707963705062866, 1429.844970703125);(0.0, 0.0, 0.0, 0.0, 0.0, 0.0, 0.0, 0.0);(2.690000057220459, 0.0, 0.0, 24.21000099182129, 0.0, -2.690000057220459, 5.380000114440918, -16.139999389648438)
2024/05/03/12:55:36.100308;100401;1714766136;123443461;;['BL_Position', 'BL_Wheel', 'BR_Position', 'BR_Wheel', 'FL_Position', 'FL_Wheel', 'FR_Position', 'FR_Wheel'];(1.5707963705062866, 1427.6146240234375, 1.572330355644226, 1425.5712890625, 1.5707963705062866, 1425.3243408203125, 1.5707963705062866, 1429.844970703125);(0.0, 0.0, 0.0, 0.0, 0.0, 0.0, 0.0, 0.0);(2.690000057220459, 0.0, 0.0, 24.21000099182129, 0.0, -2.690000057220459, 5.380000114440918, -16.139999389648438)
2024/05/03/12:55:36.117222;100402;1714766136;139396960;;['BL_Position', 'BL_Wheel', 'BR_Position', 'BR_Wheel', 'FL_Position', 'FL_Wheel', 'FR_Position', 'FR_Wheel'];(1.572330355644226, 1427.6160888671875, 1.5707963705062866, 1425.5712890625, 1.5707963705062866, 1425.3243408203125, 1.5707963705062866, 1429.844970703125);(0.0, 0.0, 0.0, 0.0, 0.0, 0.0, 0.0, 0.0);(0.0, 0.0, 0.0, 24.21000099182129, 0.0, -2.690000057220459, 5.380000114440918, -16.139999389648438)
2024/05/03/12:55:36.133379;100403;1714766136;155436200;;['BL_Position', 'BL_Wheel', 'BR_Position', 'BR_Wheel', 'FL_Position', 'FL_Wheel', 'FR_Position', 'FR_Wheel'];(1.5707963705062866, 1427.6146240234375, 1.5707963705062866, 1425.5728759765625, 1.572330355644226, 1425.3243408203125, 1.5707963705062866, 1429.844970703125);(0.0, 0.0, 0.0, 0.0, 0.0, 0.0, 0.0, 0.0);(0.0, 0.0, 0.0, 24.21000099182129, 0.0, -2.690000057220459, 5.380000114440918, -16.139999389648438)
2024/05/03/12:55:36.152226;100404;1714766136;171471569;;['BL_Position', 'BL_Wheel', 'BR_Position', 'BR_Wheel', 'FL_Position', 'FL_Wheel', 'FR_Position', 'FR_Wheel'];(1.5707963705062866, 1427.6146240234375, 1.5707963705062866, 1425.5712890625, 1.5707963705062866, 1425.3243408203125, 1.5707963705062866, 1429.844970703125);(0.0, 0.0, 0.0, 0.0, 0.0, 0.0, 0.0, 0.0);(0.0, 0.0, 0.0, 24.21000099182129, 0.0, -2.690000057220459, 5.380000114440918, -16.139999389648438)
2024/05/03/12:55:36.164944;100405;1714766136;187413327;;['BL_Position', 'BL_Wheel', 'BR_Position', 'BR_Wheel', 'FL_Position', 'FL_Wheel', 'FR_Position', 'FR_Wheel'];(1.5707963705062866, 1427.6160888671875, 1.572330355644226, 1425.5712890625, 1.5707963705062866, 1425.3243408203125, 1.5707963705062866, 1429.844970703125);(0.0, 0.0, 0.0, 0.0, 0.0, 0.0, 0.0, 0.0);(0.0, 0.0, 0.0, 24.21000099182129, 0.0, -2.690000057220459, 5.380000114440918, -16.139999389648438)
2024/05/03/12:55:36.186863;100406;1714766136;203441473;;['BL_Position', 'BL_Wheel', 'BR_Position', 'BR_Wheel', 'FL_Position', 'FL_Wheel', 'FR_Position', 'FR_Wheel'];(1.5707963705062866, 1427.6160888671875, 1.572330355644226, 1425.5712890625, 1.5707963705062866, 1425.3243408203125, 1.5707963705062866, 1429.844970703125);(0.0, 0.0, 0.0, 0.0, 0.0, 0.0, 0.0, 0.0);(0.0, 0.0, 0.0, 24.21000099182129, 0.0, -2.690000057220459, 5.380000114440918, -16.139999389648438)
2024/05/03/12:55:36.197468;100407;1714766136;219382417;;['BL_Position', 'BL_Wheel', 'BR_Position', 'BR_Wheel', 'FL_Position', 'FL_Wheel', 'FR_Position', 'FR_Wheel'];(1.5707963705062866, 1427.6146240234375, 1.5707963705062866, 1425.5728759765625, 1.5707963705062866, 1425.3243408203125, 1.5707963705062866, 1429.844970703125);(0.0, 0.0, 0.0, 0.0, 0.0, 0.0, 0.0, 0.0);(2.690000057220459, 0.0, 0.0, 24.21000099182129, 0.0, -2.690000057220459, 5.380000114440918, -16.139999389648438)
2024/05/03/12:55:36.212043;100408;1714766136;235456545;;['BL_Position', 'BL_Wheel', 'BR_Position', 'BR_Wheel', 'FL_Position', 'FL_Wheel', 'FR_Position', 'FR_Wheel'];(1.572330355644226, 1427.6160888671875, 1.572330355644226, 1425.5712890625, 1.5707963705062866, 1425.3243408203125, 1.5707963705062866, 1429.844970703125);(0.0, 0.0, 0.0, 0.0, 0.0, 0.0, 0.0, 0.0);(2.690000057220459, 0.0, 0.0, 24.21000099182129, 0.0, -2.690000057220459, 5.380000114440918, -16.139999389648438)
2024/05/03/12:55:36.229812;100409;1714766136;251721247;;['BL_Position', 'BL_Wheel', 'BR_Position', 'BR_Wheel', 'FL_Position', 'FL_Wheel', 'FR_Position', 'FR_Wheel'];(1.5707963705062866, 1427.6146240234375, 1.572330355644226, 1425.5728759765625, 1.5707963705062866, 1425.3243408203125, 1.5707963705062866, 1429.844970703125);(0.0, 0.0, 0.0, 0.0, 0.0, 0.0, 0.0, 0.0);(2.690000057220459, 0.0, 0.0, 24.21000099182129, 0.0, -2.690000057220459, 5.380000114440918, -16.139999389648438)
2024/05/03/12:55:36.254333;100410;1714766136;267431487;;['BL_Position', 'BL_Wheel', 'BR_Position', 'BR_Wheel', 'FL_Position', 'FL_Wheel', 'FR_Position', 'FR_Wheel'];(1.5707963705062866, 1427.6146240234375, 1.572330355644226, 1425.5728759765625, 1.5707963705062866, 1425.3243408203125, 1.5692623853683472, 1429.844970703125);(0.0, 0.0, 0.0, 0.0, 0.0, 0.0, 0.0, 0.0);(0.0, 0.0, 0.0, 24.21000099182129, 0.0, -2.690000057220459, 5.380000114440918, -16.139999389648438)
2024/05/03/12:55:36.261761;100411;1714766136;283422374;;['BL_Position', 'BL_Wheel', 'BR_Position', 'BR_Wheel', 'FL_Position', 'FL_Wheel', 'FR_Position', 'FR_Wheel'];(1.5707963705062866, 1427.6146240234375, 1.5707963705062866, 1425.5712890625, 1.5707963705062866, 1425.3243408203125, 1.5692623853683472, 1429.844970703125);(0.0, 0.0, 0.0, 0.0, 0.0, 0.0, 0.0, 0.0);(0.0, 0.0, 0.0, 24.21000099182129, 0.0, -2.690000057220459, 5.380000114440918, -16.139999389648438)
2024/05/03/12:55:36.277572;100412;1714766136;299392243;;['BL_Position', 'BL_Wheel', 'BR_Position', 'BR_Wheel', 'FL_Position', 'FL_Wheel', 'FR_Position', 'FR_Wheel'];(1.5707963705062866, 1427.6146240234375, 1.572330355644226, 1425.5712890625, 1.5707963705062866, 1425.3243408203125, 1.5707963705062866, 1429.844970703125);(0.0, 0.0, 0.0, 0.0, 0.0, 0.0, 0.0, 0.0);(2.690000057220459, 0.0, 0.0, 24.21000099182129, 0.0, -2.690000057220459, 5.380000114440918, -16.139999389648438)
2024/05/03/12:55:36.291848;100413;1714766136;315423816;;['BL_Position', 'BL_Wheel', 'BR_Position', 'BR_Wheel', 'FL_Position', 'FL_Wheel', 'FR_Position', 'FR_Wheel'];(1.5707963705062866, 1427.6146240234375, 1.5707963705062866, 1425.5728759765625, 1.5707963705062866, 1425.3243408203125, 1.5707963705062866, 1429.844970703125);(0.0, 0.0, 0.0, 0.0, 0.0, 0.0, 0.0, 0.0);(2.690000057220459, 0.0, 0.0, 24.21000099182129, 0.0, -2.690000057220459, 5.380000114440918, -16.139999389648438)
2024/05/03/12:55:36.307440;100414;1714766136;331413352;;['BL_Position', 'BL_Wheel', 'BR_Position', 'BR_Wheel', 'FL_Position', 'FL_Wheel', 'FR_Position', 'FR_Wheel'];(1.5707963705062866, 1427.6146240234375, 1.5707963705062866, 1425.5712890625, 1.5707963705062866, 1425.3243408203125, 1.5692623853683472, 1429.844970703125);(0.0, 0.0, 0.0, 0.0, 0.0, 0.0, 0.0, 0.0);(0.0, 0.0, 0.0, 24.21000099182129, 0.0, -2.690000057220459, 5.380000114440918, -16.139999389648438)
2024/05/03/12:55:36.324995;100415;1714766136;347419073;;['BL_Position', 'BL_Wheel', 'BR_Position', 'BR_Wheel', 'FL_Position', 'FL_Wheel', 'FR_Position', 'FR_Wheel'];(1.5707963705062866, 1427.6160888671875, 1.5707963705062866, 1425.5712890625, 1.5707963705062866, 1425.3243408203125, 1.5707963705062866, 1429.844970703125);(0.0, 0.0, 0.0, 0.0, 0.0, 0.0, 0.0, 0.0);(0.0, 0.0, 0.0, 24.21000099182129, 0.0, -2.690000057220459, 5.380000114440918, -16.139999389648438)
2024/05/03/12:55:36.341216;100416;1714766136;363395775;;['BL_Position', 'BL_Wheel', 'BR_Position', 'BR_Wheel', 'FL_Position', 'FL_Wheel', 'FR_Position', 'FR_Wheel'];(1.5707963705062866, 1427.6160888671875, 1.572330355644226, 1425.5712890625, 1.5707963705062866, 1425.3243408203125, 1.5707963705062866, 1429.844970703125);(0.0, 0.0, 0.0, 0.0, 0.0, 0.0, 0.0, 0.0);(2.690000057220459, 0.0, 0.0, 24.21000099182129, 0.0, -2.690000057220459, 5.380000114440918, -16.139999389648438)
2024/05/03/12:55:36.357547;100417;1714766136;379411793;;['BL_Position', 'BL_Wheel', 'BR_Position', 'BR_Wheel', 'FL_Position', 'FL_Wheel', 'FR_Position', 'FR_Wheel'];(1.572330355644226, 1427.6146240234375, 1.572330355644226, 1425.5712890625, 1.572330355644226, 1425.3243408203125, 1.5707963705062866, 1429.844970703125);(0.0, 0.0, 0.0, 0.0, 0.0, 0.0, 0.0, 0.0);(0.0, 0.0, 0.0, 24.21000099182129, 0.0, -2.690000057220459, 5.380000114440918, -16.139999389648438)
2024/05/03/12:55:36.387420;100418;1714766136;395467884;;['BL_Position', 'BL_Wheel', 'BR_Position', 'BR_Wheel', 'FL_Position', 'FL_Wheel', 'FR_Position', 'FR_Wheel'];(1.5707963705062866, 1427.6160888671875, 1.572330355644226, 1425.5712890625, 1.5707963705062866, 1425.3243408203125, 1.5707963705062866, 1429.844970703125);(0.0, 0.0, 0.0, 0.0, 0.0, 0.0, 0.0, 0.0);(0.0, 0.0, 0.0, 24.21000099182129, 0.0, -2.690000057220459, 2.690000057220459, -16.139999389648438)
2024/05/03/12:55:36.394570;100419;1714766136;411437957;;['BL_Position', 'BL_Wheel', 'BR_Position', 'BR_Wheel', 'FL_Position', 'FL_Wheel', 'FR_Position', 'FR_Wheel'];(1.5707963705062866, 1427.6160888671875, 1.572330355644226, 1425.5712890625, 1.572330355644226, 1425.3243408203125, 1.5692623853683472, 1429.844970703125);(0.0, 0.0, 0.0, 0.0, 0.0, 0.0, 0.0, 0.0);(0.0, 0.0, 0.0, 24.21000099182129, 0.0, -2.690000057220459, 2.690000057220459, -16.139999389648438)
2024/05/03/12:55:36.404966;100420;1714766136;427603344;;['BL_Position', 'BL_Wheel', 'BR_Position', 'BR_Wheel', 'FL_Position', 'FL_Wheel', 'FR_Position', 'FR_Wheel'];(1.5707963705062866, 1427.6146240234375, 1.5707963705062866, 1425.5712890625, 1.5707963705062866, 1425.3243408203125, 1.5707963705062866, 1429.844970703125);(0.0, 0.0, 0.0, 0.0, 0.0, 0.0, 0.0, 0.0);(2.690000057220459, 0.0, 0.0, 24.21000099182129, 0.0, -2.690000057220459, 2.690000057220459, -16.139999389648438)
2024/05/03/12:55:36.421660;100421;1714766136;443519695;;['BL_Position', 'BL_Wheel', 'BR_Position', 'BR_Wheel', 'FL_Position', 'FL_Wheel', 'FR_Position', 'FR_Wheel'];(1.5707963705062866, 1427.6160888671875, 1.572330355644226, 1425.5712890625, 1.572330355644226, 1425.3243408203125, 1.5707963705062866, 1429.844970703125);(0.0, 0.0, 0.0, 0.0, 0.0, 0.0, 0.0, 0.0);(0.0, 0.0, 0.0, 24.21000099182129, 0.0, -2.690000057220459, 2.690000057220459, -16.139999389648438)
2024/05/03/12:55:36.437573;100422;1714766136;459399897;;['BL_Position', 'BL_Wheel', 'BR_Position', 'BR_Wheel', 'FL_Position', 'FL_Wheel', 'FR_Position', 'FR_Wheel'];(1.5707963705062866, 1427.6146240234375, 1.572330355644226, 1425.5712890625, 1.5707963705062866, 1425.3243408203125, 1.5707963705062866, 1429.844970703125);(0.0, 0.0, 0.0, 0.0, 0.0, 0.0, 0.0, 0.0);(0.0, 0.0, 0.0, 24.21000099182129, 0.0, -2.690000057220459, 2.690000057220459, -16.139999389648438)
2024/05/03/12:55:36.459768;100423;1714766136;475377359;;['BL_Position', 'BL_Wheel', 'BR_Position', 'BR_Wheel', 'FL_Position', 'FL_Wheel', 'FR_Position', 'FR_Wheel'];(1.5707963705062866, 1427.6146240234375, 1.5707963705062866, 1425.5712890625, 1.5707963705062866, 1425.3243408203125, 1.5692623853683472, 1429.844970703125);(0.0, 0.0, 0.0, 0.0, 0.0, 0.0, 0.0, 0.0);(0.0, 0.0, 0.0, 24.21000099182129, 0.0, -2.690000057220459, 5.380000114440918, -16.139999389648438)
2024/05/03/12:55:36.469093;100424;1714766136;491500061;;['BL_Position', 'BL_Wheel', 'BR_Position', 'BR_Wheel', 'FL_Position', 'FL_Wheel', 'FR_Position', 'FR_Wheel'];(1.5707963705062866, 1427.6160888671875, 1.572330355644226, 1425.5712890625, 1.5707963705062866, 1425.3243408203125, 1.5707963705062866, 1429.844970703125);(0.0, 0.0, 0.0, 0.0, 0.0, 0.0, 0.0, 0.0);(0.0, 0.0, 0.0, 24.21000099182129, 0.0, -2.690000057220459, 5.380000114440918, -16.139999389648438)
2024/05/03/12:55:36.495245;100425;1714766136;507433078;;['BL_Position', 'BL_Wheel', 'BR_Position', 'BR_Wheel', 'FL_Position', 'FL_Wheel', 'FR_Position', 'FR_Wheel'];(1.5707963705062866, 1427.6160888671875, 1.572330355644226, 1425.5712890625, 1.5707963705062866, 1425.3243408203125, 1.5707963705062866, 1429.844970703125);(0.0, 0.0, 0.0, 0.0, 0.0, 0.0, 0.0, 0.0);(0.0, 0.0, 0.0, 24.21000099182129, 0.0, -2.690000057220459, 5.380000114440918, -16.139999389648438)
2024/05/03/12:55:36.500500;100426;1714766136;524164633;;['BL_Position', 'BL_Wheel', 'BR_Position', 'BR_Wheel', 'FL_Position', 'FL_Wheel', 'FR_Position', 'FR_Wheel'];(1.5707963705062866, 1427.6146240234375, 1.5707963705062866, 1425.5712890625, 1.5707963705062866, 1425.3243408203125, 1.5707963705062866, 1429.8465576171875);(0.0, 0.0, 0.0, 0.0, 0.0, 0.0, 0.0, 0.0);(2.690000057220459, 0.0, 0.0, 24.21000099182129, 0.0, -2.690000057220459, 5.380000114440918, -16.139999389648438)
2024/05/03/12:55:36.516960;100427;1714766136;539388076;;['BL_Position', 'BL_Wheel', 'BR_Position', 'BR_Wheel', 'FL_Position', 'FL_Wheel', 'FR_Position', 'FR_Wheel'];(1.5707963705062866, 1427.6146240234375, 1.572330355644226, 1425.5728759765625, 1.5707963705062866, 1425.3243408203125, 1.5707963705062866, 1429.844970703125);(0.0, 0.0, 0.0, 0.0, 0.0, 0.0, 0.0, 0.0);(2.690000057220459, 0.0, 0.0, 24.21000099182129, 0.0, -2.690000057220459, 5.380000114440918, -16.139999389648438)
2024/05/03/12:55:36.533136;100428;1714766136;555416834;;['BL_Position', 'BL_Wheel', 'BR_Position', 'BR_Wheel', 'FL_Position', 'FL_Wheel', 'FR_Position', 'FR_Wheel'];(1.5707963705062866, 1427.6146240234375, 1.5707963705062866, 1425.5712890625, 1.5707963705062866, 1425.3243408203125, 1.5707963705062866, 1429.844970703125);(0.0, 0.0, 0.0, 0.0, 0.0, 0.0, 0.0, 0.0);(2.690000057220459, 0.0, 0.0, 24.21000099182129, 0.0, -2.690000057220459, 5.380000114440918, -16.139999389648438)
2024/05/03/12:55:36.563293;100429;1714766136;571435703;;['BL_Position', 'BL_Wheel', 'BR_Position', 'BR_Wheel', 'FL_Position', 'FL_Wheel', 'FR_Position', 'FR_Wheel'];(1.5707963705062866, 1427.6146240234375, 1.572330355644226, 1425.5712890625, 1.5707963705062866, 1425.3243408203125, 1.5707963705062866, 1429.844970703125);(0.0, 0.0, 0.0, 0.0, 0.0, 0.0, 0.0, 0.0);(0.0, 0.0, 0.0, 24.21000099182129, 0.0, -2.690000057220459, 8.069999694824219, -16.139999389648438)
2024/05/03/12:55:36.572501;100430;1714766136;587375646;;['BL_Position', 'BL_Wheel', 'BR_Position', 'BR_Wheel', 'FL_Position', 'FL_Wheel', 'FR_Position', 'FR_Wheel'];(1.5707963705062866, 1427.6146240234375, 1.572330355644226, 1425.5712890625, 1.572330355644226, 1425.3243408203125, 1.5707963705062866, 1429.844970703125);(0.0, 0.0, 0.0, 0.0, 0.0, 0.0, 0.0, 0.0);(0.0, 0.0, 0.0, 24.21000099182129, 0.0, -2.690000057220459, 5.380000114440918, -16.139999389648438)
2024/05/03/12:55:36.587562;100431;1714766136;603388423;;['BL_Position', 'BL_Wheel', 'BR_Position', 'BR_Wheel', 'FL_Position', 'FL_Wheel', 'FR_Position', 'FR_Wheel'];(1.5707963705062866, 1427.6160888671875, 1.572330355644226, 1425.5712890625, 1.572330355644226, 1425.3243408203125, 1.5707963705062866, 1429.844970703125);(0.0, 0.0, 0.0, 0.0, 0.0, 0.0, 0.0, 0.0);(0.0, 0.0, 0.0, 24.21000099182129, 0.0, -2.690000057220459, 5.380000114440918, -16.139999389648438)
2024/05/03/12:55:36.595790;100432;1714766136;619405773;;['BL_Position', 'BL_Wheel', 'BR_Position', 'BR_Wheel', 'FL_Position', 'FL_Wheel', 'FR_Position', 'FR_Wheel'];(1.5707963705062866, 1427.6146240234375, 1.5707963705062866, 1425.5728759765625, 1.5707963705062866, 1425.3243408203125, 1.5707963705062866, 1429.844970703125);(0.0, 0.0, 0.0, 0.0, 0.0, 0.0, 0.0, 0.0);(0.0, 0.0, 0.0, 24.21000099182129, 0.0, -2.690000057220459, 5.380000114440918, -16.139999389648438)
2024/05/03/12:55:36.613262;100433;1714766136;635434179;;['BL_Position', 'BL_Wheel', 'BR_Position', 'BR_Wheel', 'FL_Position', 'FL_Wheel', 'FR_Position', 'FR_Wheel'];(1.5707963705062866, 1427.6146240234375, 1.572330355644226, 1425.5712890625, 1.5707963705062866, 1425.3243408203125, 1.5707963705062866, 1429.844970703125);(0.0, 0.0, 0.0, 0.0, 0.0, 0.0, 0.0, 0.0);(0.0, 0.0, 0.0, 24.21000099182129, 0.0, -2.690000057220459, 5.380000114440918, -16.139999389648438)
2024/05/03/12:55:36.629098;100434;1714766136;651422289;;['BL_Position', 'BL_Wheel', 'BR_Position', 'BR_Wheel', 'FL_Position', 'FL_Wheel', 'FR_Position', 'FR_Wheel'];(1.5707963705062866, 1427.6160888671875, 1.5707963705062866, 1425.5712890625, 1.5707963705062866, 1425.3243408203125, 1.5707963705062866, 1429.844970703125);(0.0, 0.0, 0.0, 0.0, 0.0, 0.0, 0.0, 0.0);(0.0, 0.0, 0.0, 24.21000099182129, 0.0, -2.690000057220459, 5.380000114440918, -16.139999389648438)
2024/05/03/12:55:36.644922;100435;1714766136;667381825;;['BL_Position', 'BL_Wheel', 'BR_Position', 'BR_Wheel', 'FL_Position', 'FL_Wheel', 'FR_Position', 'FR_Wheel'];(1.5707963705062866, 1427.6160888671875, 1.5707963705062866, 1425.5712890625, 1.5707963705062866, 1425.3243408203125, 1.5707963705062866, 1429.844970703125);(0.0, 0.0, 0.0, 0.0, 0.0, 0.0, 0.0, 0.0);(0.0, 0.0, 0.0, 24.21000099182129, 0.0, -2.690000057220459, 5.380000114440918, -16.139999389648438)
2024/05/03/12:55:36.664305;100436;1714766136;683369472;;['BL_Position', 'BL_Wheel', 'BR_Position', 'BR_Wheel', 'FL_Position', 'FL_Wheel', 'FR_Position', 'FR_Wheel'];(1.5707963705062866, 1427.6160888671875, 1.572330355644226, 1425.5712890625, 1.572330355644226, 1425.3243408203125, 1.5707963705062866, 1429.844970703125);(0.0, 0.0, 0.0, 0.0, 0.0, 0.0, 0.0, 0.0);(0.0, 0.0, 0.0, 24.21000099182129, 0.0, -2.690000057220459, 5.380000114440918, -16.139999389648438)
2024/05/03/12:55:36.677886;100437;1714766136;699412007;;['BL_Position', 'BL_Wheel', 'BR_Position', 'BR_Wheel', 'FL_Position', 'FL_Wheel', 'FR_Position', 'FR_Wheel'];(1.5707963705062866, 1427.6160888671875, 1.5707963705062866, 1425.5712890625, 1.5707963705062866, 1425.3243408203125, 1.5707963705062866, 1429.844970703125);(0.0, 0.0, 0.0, 0.0, 0.0, 0.0, 0.0, 0.0);(2.690000057220459, 0.0, 0.0, 24.21000099182129, 0.0, -2.690000057220459, 5.380000114440918, -16.139999389648438)
2024/05/03/12:55:36.700807;100438;1714766136;715349006;;['BL_Position', 'BL_Wheel', 'BR_Position', 'BR_Wheel', 'FL_Position', 'FL_Wheel', 'FR_Position', 'FR_Wheel'];(1.5707963705062866, 1427.6160888671875, 1.572330355644226, 1425.5728759765625, 1.5707963705062866, 1425.3243408203125, 1.5707963705062866, 1429.844970703125);(0.0, 0.0, 0.0, 0.0, 0.0, 0.0, 0.0, 0.0);(2.690000057220459, 0.0, 0.0, 24.21000099182129, 0.0, -2.690000057220459, 5.380000114440918, -16.139999389648438)
2024/05/03/12:55:36.708874;100439;1714766136;731332153;;['BL_Position', 'BL_Wheel', 'BR_Position', 'BR_Wheel', 'FL_Position', 'FL_Wheel', 'FR_Position', 'FR_Wheel'];(1.5707963705062866, 1427.6146240234375, 1.572330355644226, 1425.5712890625, 1.5707963705062866, 1425.3243408203125, 1.5707963705062866, 1429.844970703125);(0.0, 0.0, 0.0, 0.0, 0.0, 0.0, 0.0, 0.0);(2.690000057220459, 0.0, 0.0, 24.21000099182129, 0.0, -2.690000057220459, 5.380000114440918, -16.139999389648438)
2024/05/03/12:55:36.724178;100440;1714766136;747323892;;['BL_Position', 'BL_Wheel', 'BR_Position', 'BR_Wheel', 'FL_Position', 'FL_Wheel', 'FR_Position', 'FR_Wheel'];(1.5707963705062866, 1427.6146240234375, 1.5707963705062866, 1425.5712890625, 1.5707963705062866, 1425.3243408203125, 1.5707963705062866, 1429.844970703125);(0.0, 0.0, 0.0, 0.0, 0.0, 0.0, 0.0, 0.0);(0.0, 0.0, 0.0, 24.21000099182129, 0.0, -2.690000057220459, 5.380000114440918, -16.139999389648438)
2024/05/03/12:55:36.739706;100441;1714766136;763693299;;['BL_Position', 'BL_Wheel', 'BR_Position', 'BR_Wheel', 'FL_Position', 'FL_Wheel', 'FR_Position', 'FR_Wheel'];(1.5707963705062866, 1427.6146240234375, 1.572330355644226, 1425.5728759765625, 1.572330355644226, 1425.3243408203125, 1.5707963705062866, 1429.844970703125);(0.0, 0.0, 0.0, 0.0, 0.0, 0.0, 0.0, 0.0);(0.0, 0.0, 0.0, 24.21000099182129, 0.0, -2.690000057220459, 5.380000114440918, -16.139999389648438)
2024/05/03/12:55:36.767064;100442;1714766136;779397908;;['BL_Position', 'BL_Wheel', 'BR_Position', 'BR_Wheel', 'FL_Position', 'FL_Wheel', 'FR_Position', 'FR_Wheel'];(1.5707963705062866, 1427.622314453125, 1.5707963705062866, 1425.58056640625, 1.5707963705062866, 1425.3304443359375, 1.5707963705062866, 1429.8526611328125);(0.0, 0.0, 0.0, 0.023980824276804924, 0.0, 0.0, 0.0, 0.023980824276804924);(2.690000057220459, 150.63999938964844, 0.0, 169.47000122070312, 0.0, 123.74000549316406, 5.380000114440918, 150.63999938964844)
2024/05/03/12:55:36.773662;100443;1714766136;795398407;;['BL_Position', 'BL_Wheel', 'BR_Position', 'BR_Wheel', 'FL_Position', 'FL_Wheel', 'FR_Position', 'FR_Wheel'];(1.5707963705062866, 1427.640625, 1.572330355644226, 1425.6004638671875, 1.5707963705062866, 1425.3519287109375, 1.5707963705062866, 1429.8695068359375);(0.0, 0.11990412324666977, 0.0, 0.16786576807498932, 0.0, 0.14388494193553925, 0.0, 0.11990412324666977);(2.690000057220459, 177.54000854492188, 0.0, 174.85000610351562, 0.0, 131.80999755859375, 5.380000114440918, 134.5)
2024/05/03/12:55:36.798768;100444;1714766136;815147794;;['BL_Position', 'BL_Wheel', 'BR_Position', 'BR_Wheel', 'FL_Position', 'FL_Wheel', 'FR_Position', 'FR_Wheel'];(1.5707963705062866, 1427.6728515625, 1.5707963705062866, 1425.63427734375, 1.5707963705062866, 1425.3857421875, 1.5707963705062866, 1429.9033203125);(0.0, 0.40767401456832886, 0.0, 0.4796164929866791, 0.0, 0.455635666847229, 0.0, 0.40767401456832886);(0.0, 166.77999877929688, 0.0, 161.40000915527344, 0.0, 123.74000549316406, 5.380000114440918, 104.91000366210938)
