time;.header.seq;.header.stamp.secs;.header.stamp.nsecs;.header.frame_id;.name;.position;.velocity;.effort
2024/05/03/12:36:47.153089;29838;1714765007;157586516;;['BL_Position', 'BL_Wheel', 'BR_Position', 'BR_Wheel', 'FL_Position', 'FL_Wheel', 'FR_Position', 'FR_Wheel'];(0.0, 158.45254516601562, 0.0, 155.86473083496094, 0.0, 156.32337951660156, 0.0015339808305725455, 160.5985870361328);(0.0, 0.0, 0.0, 0.0, 0.0, 0.0, 0.0, 0.0);(0.0, 21.520000457763672, 0.0, 5.380000114440918, 0.0, -2.690000057220459, 0.0, 0.0)
2024/05/03/12:36:47.168163;29839;1714765007;173485748;;['BL_Position', 'BL_Wheel', 'BR_Position', 'BR_Wheel', 'FL_Position', 'FL_Wheel', 'FR_Position', 'FR_Wheel'];(0.0, 158.45254516601562, 0.0, 155.86473083496094, 0.0, 156.32337951660156, 0.0015339808305725455, 160.5985870361328);(0.0, 0.0, 0.0, 0.0, 0.0, 0.0, 0.0, 0.0);(0.0, 21.520000457763672, 0.0, 5.380000114440918, 0.0, -2.690000057220459, 0.0, 0.0)
2024/05/03/12:36:47.186348;29840;1714765007;190344424;;['BL_Position', 'BL_Wheel', 'BR_Position', 'BR_Wheel', 'FL_Position', 'FL_Wheel', 'FR_Position', 'FR_Wheel'];(0.0, 158.45408630371094, 0.0, 155.86473083496094, 0.0, 156.32337951660156, 0.0015339808305725455, 160.60012817382812);(0.0, 0.0, 0.0, 0.0, 0.0, 0.0, 0.0, 0.0);(0.0, 21.520000457763672, 0.0, 5.380000114440918, 0.0, -2.690000057220459, 0.0, 0.0)
2024/05/03/12:36:47.200872;29841;1714765007;205498137;;['BL_Position', 'BL_Wheel', 'BR_Position', 'BR_Wheel', 'FL_Position', 'FL_Wheel', 'FR_Position', 'FR_Wheel'];(0.0, 158.45254516601562, 0.0, 155.86473083496094, 0.0, 156.32337951660156, 0.0015339808305725455, 160.5985870361328);(0.0, 0.0, 0.0, 0.0, 0.0, 0.0, 0.0, 0.0);(5.380000114440918, 21.520000457763672, 0.0, 5.380000114440918, 0.0, -2.690000057220459, 0.0, 0.0)
2024/05/03/12:36:47.220518;29842;1714765007;221494924;;['BL_Position', 'BL_Wheel', 'BR_Position', 'BR_Wheel', 'FL_Position', 'FL_Wheel', 'FR_Position', 'FR_Wheel'];(0.0, 158.45408630371094, 0.0, 155.86473083496094, 0.0, 156.32337951660156, 0.0015339808305725455, 160.5985870361328);(0.0, 0.0, 0.0, 0.0, 0.0, 0.0, 0.0, 0.0);(0.0, 21.520000457763672, 0.0, 5.380000114440918, 0.0, -2.690000057220459, 0.0, 0.0)
2024/05/03/12:36:47.235098;29843;1714765007;237494397;;['BL_Position', 'BL_Wheel', 'BR_Position', 'BR_Wheel', 'FL_Position', 'FL_Wheel', 'FR_Position', 'FR_Wheel'];(0.0, 158.45408630371094, 0.0, 155.86473083496094, 0.0, 156.32337951660156, 0.0, 160.5985870361328);(0.0, 0.0, 0.0, 0.0, 0.0, 0.0, 0.0, 0.0);(0.0, 21.520000457763672, 0.0, 5.380000114440918, 0.0, -2.690000057220459, 0.0, 0.0)
2024/05/03/12:36:47.248530;29844;1714765007;253486128;;['BL_Position', 'BL_Wheel', 'BR_Position', 'BR_Wheel', 'FL_Position', 'FL_Wheel', 'FR_Position', 'FR_Wheel'];(0.0, 158.45408630371094, 0.0, 155.86473083496094, 0.0, 156.32337951660156, 0.0, 160.5985870361328);(0.0, 0.0, 0.0, 0.0, 0.0, 0.0, 0.0, 0.0);(0.0, 21.520000457763672, 0.0, 5.380000114440918, 0.0, -2.690000057220459, 0.0, 0.0)
2024/05/03/12:36:47.264759;29845;1714765007;269450267;;['BL_Position', 'BL_Wheel', 'BR_Position', 'BR_Wheel', 'FL_Position', 'FL_Wheel', 'FR_Position', 'FR_Wheel'];(0.0, 158.45408630371094, 0.0, 155.86473083496094, 0.0, 156.32337951660156, 0.0015339808305725455, 160.60012817382812);(0.0, 0.0, 0.0, 0.0, 0.0, 0.0, 0.0, 0.0);(0.0, 21.520000457763672, 0.0, 5.380000114440918, 0.0, -2.690000057220459, -2.690000057220459, 0.0)
2024/05/03/12:36:47.286203;29846;1714765007;285535054;;['BL_Position', 'BL_Wheel', 'BR_Position', 'BR_Wheel', 'FL_Position', 'FL_Wheel', 'FR_Position', 'FR_Wheel'];(0.0, 158.45408630371094, 0.0, 155.86473083496094, 0.0, 156.32337951660156, 0.0015339808305725455, 160.5985870361328);(0.0, 0.0, 0.0, 0.0, 0.0, 0.0, 0.0, 0.0);(2.690000057220459, 21.520000457763672, 0.0, 5.380000114440918, 0.0, -2.690000057220459, 0.0, 0.0)
2024/05/03/12:36:47.296025;29847;1714765007;301532138;;['BL_Position', 'BL_Wheel', 'BR_Position', 'BR_Wheel', 'FL_Position', 'FL_Wheel', 'FR_Position', 'FR_Wheel'];(0.0, 158.45254516601562, 0.0, 155.86473083496094, 0.0, 156.32337951660156, 0.0015339808305725455, 160.5985870361328);(0.0, 0.0, 0.0, 0.0, 0.0, 0.0, 0.0, 0.0);(2.690000057220459, 21.520000457763672, 0.0, 5.380000114440918, 0.0, -2.690000057220459, -2.690000057220459, 0.0)
2024/05/03/12:36:47.326015;29848;1714765007;317506981;;['BL_Position', 'BL_Wheel', 'BR_Position', 'BR_Wheel', 'FL_Position', 'FL_Wheel', 'FR_Position', 'FR_Wheel'];(0.0, 158.45408630371094, 0.0, 155.86473083496094, 0.0, 156.32337951660156, 0.0015339808305725455, 160.5985870361328);(0.0, 0.0, 0.0, 0.0, 0.0, 0.0, 0.0, 0.0);(2.690000057220459, 21.520000457763672, 0.0, 5.380000114440918, 0.0, -2.690000057220459, 0.0, 0.0)
2024/05/03/12:36:47.331290;29849;1714765007;333492416;;['BL_Position', 'BL_Wheel', 'BR_Position', 'BR_Wheel', 'FL_Position', 'FL_Wheel', 'FR_Position', 'FR_Wheel'];(0.0, 158.45254516601562, 0.0, 155.86473083496094, 0.0, 156.32337951660156, 0.0015339808305725455, 160.5985870361328);(0.0, 0.0, 0.0, 0.0, 0.0, 0.0, 0.0, 0.0);(2.690000057220459, 21.520000457763672, 0.0, 5.380000114440918, 0.0, -2.690000057220459, 0.0, 0.0)
2024/05/03/12:36:47.345230;29850;1714765007;349467092;;['BL_Position', 'BL_Wheel', 'BR_Position', 'BR_Wheel', 'FL_Position', 'FL_Wheel', 'FR_Position', 'FR_Wheel'];(0.0, 158.45408630371094, 0.0, 155.86473083496094, 0.0, 156.32337951660156, 0.0, 160.5985870361328);(0.0, 0.0, 0.0, 0.0, 0.0, 0.0, 0.0, 0.0);(2.690000057220459, 21.520000457763672, 0.0, 5.380000114440918, 0.0, -2.690000057220459, 0.0, 0.0)
2024/05/03/12:36:47.360748;29851;1714765007;365489120;;['BL_Position', 'BL_Wheel', 'BR_Position', 'BR_Wheel', 'FL_Position', 'FL_Wheel', 'FR_Position', 'FR_Wheel'];(0.0, 158.45254516601562, 0.0, 155.86473083496094, 0.0, 156.32337951660156, 0.0, 160.5985870361328);(0.0, 0.0, 0.0, 0.0, 0.0, 0.0, 0.0, 0.0);(2.690000057220459, 21.520000457763672, 0.0, 5.380000114440918, 0.0, -2.690000057220459, 0.0, 0.0)
2024/05/03/12:36:47.378118;29852;1714765007;381439703;;['BL_Position', 'BL_Wheel', 'BR_Position', 'BR_Wheel', 'FL_Position', 'FL_Wheel', 'FR_Position', 'FR_Wheel'];(0.0, 158.45408630371094, 0.0, 155.86473083496094, 0.0, 156.32337951660156, 0.0015339808305725455, 160.60012817382812);(0.0, 0.0, 0.0, 0.0, 0.0, 0.0, 0.0, 0.0);(2.690000057220459, 21.520000457763672, 0.0, 5.380000114440918, 0.0, -2.690000057220459, 0.0, 0.0)
2024/05/03/12:36:47.393451;29853;1714765007;397476657;;['BL_Position', 'BL_Wheel', 'BR_Position', 'BR_Wheel', 'FL_Position', 'FL_Wheel', 'FR_Position', 'FR_Wheel'];(0.0, 158.45408630371094, 0.0, 155.86473083496094, 0.0, 156.32337951660156, 0.0, 160.5985870361328);(0.0, 0.0, 0.0, 0.0, 0.0, 0.0, 0.0, 0.0);(2.690000057220459, 21.520000457763672, 0.0, 5.380000114440918, 0.0, -2.690000057220459, 0.0, 0.0)
2024/05/03/12:36:47.408363;29854;1714765007;413413019;;['BL_Position', 'BL_Wheel', 'BR_Position', 'BR_Wheel', 'FL_Position', 'FL_Wheel', 'FR_Position', 'FR_Wheel'];(0.0, 158.45408630371094, 0.0, 155.86473083496094, 0.0, 156.32337951660156, 0.0, 160.5985870361328);(0.0, 0.0, 0.0, 0.0, 0.0, 0.0, 0.0, 0.0);(5.380000114440918, 21.520000457763672, 0.0, 5.380000114440918, 0.0, -2.690000057220459, 0.0, 0.0)
2024/05/03/12:36:47.427460;29855;1714765007;429419732;;['BL_Position', 'BL_Wheel', 'BR_Position', 'BR_Wheel', 'FL_Position', 'FL_Wheel', 'FR_Position', 'FR_Wheel'];(0.0, 158.45408630371094, 0.0, 155.86473083496094, 0.0, 156.32337951660156, 0.0015339808305725455, 160.5985870361328);(0.0, 0.0, 0.0, 0.0, 0.0, 0.0, 0.0, 0.0);(5.380000114440918, 21.520000457763672, 0.0, 5.380000114440918, 0.0, -2.690000057220459, 0.0, 0.0)
2024/05/03/12:36:47.439726;29856;1714765007;445454889;;['BL_Position', 'BL_Wheel', 'BR_Position', 'BR_Wheel', 'FL_Position', 'FL_Wheel', 'FR_Position', 'FR_Wheel'];(0.0, 158.45408630371094, 0.0, 155.86473083496094, 0.0, 156.32337951660156, 0.0, 160.60012817382812);(0.0, 0.0, 0.0, 0.0, 0.0, 0.0, 0.0, 0.0);(5.380000114440918, 21.520000457763672, 0.0, 5.380000114440918, 0.0, -2.690000057220459, 0.0, 0.0)
2024/05/03/12:36:47.456647;29857;1714765007;461413936;;['BL_Position', 'BL_Wheel', 'BR_Position', 'BR_Wheel', 'FL_Position', 'FL_Wheel', 'FR_Position', 'FR_Wheel'];(0.0, 158.45254516601562, 0.0, 155.86473083496094, 0.0, 156.32337951660156, 0.0015339808305725455, 160.60012817382812);(0.0, 0.0, 0.0, 0.0, 0.0, 0.0, 0.0, 0.0);(5.380000114440918, 21.520000457763672, 0.0, 5.380000114440918, 0.0, -2.690000057220459, 0.0, 0.0)
2024/05/03/12:36:47.472764;29858;1714765007;477449482;;['BL_Position', 'BL_Wheel', 'BR_Position', 'BR_Wheel', 'FL_Position', 'FL_Wheel', 'FR_Position', 'FR_Wheel'];(0.0, 158.45408630371094, 0.0, 155.86473083496094, 0.0, 156.32337951660156, 0.0015339808305725455, 160.5985870361328);(0.0, 0.0, 0.0, 0.0, 0.0, 0.0, 0.0, 0.0);(2.690000057220459, 21.520000457763672, 0.0, 5.380000114440918, 0.0, -2.690000057220459, -2.690000057220459, 0.0)
2024/05/03/12:36:47.489659;29859;1714765007;493450917;;['BL_Position', 'BL_Wheel', 'BR_Position', 'BR_Wheel', 'FL_Position', 'FL_Wheel', 'FR_Position', 'FR_Wheel'];(0.0, 158.45408630371094, 0.0, 155.86473083496094, 0.0, 156.32337951660156, 0.0015339808305725455, 160.5985870361328);(0.0, 0.0, 0.0, 0.0, 0.0, 0.0, 0.0, 0.0);(2.690000057220459, 21.520000457763672, 0.0, 5.380000114440918, 0.0, -2.690000057220459, 0.0, 0.0)
2024/05/03/12:36:47.505676;29860;1714765007;509441890;;['BL_Position', 'BL_Wheel', 'BR_Position', 'BR_Wheel', 'FL_Position', 'FL_Wheel', 'FR_Position', 'FR_Wheel'];(0.0, 158.45408630371094, 0.0015339808305725455, 155.86473083496094, 0.0, 156.32337951660156, 0.0015339808305725455, 160.5985870361328);(0.0, 0.0, 0.0, 0.0, 0.0, 0.0, 0.0, 0.0);(2.690000057220459, 21.520000457763672, 0.0, 5.380000114440918, 0.0, -2.690000057220459, 0.0, 0.0)
2024/05/03/12:36:47.525421;29861;1714765007;527015602;;['BL_Position', 'BL_Wheel', 'BR_Position', 'BR_Wheel', 'FL_Position', 'FL_Wheel', 'FR_Position', 'FR_Wheel'];(0.0, 158.45408630371094, 0.0, 155.86473083496094, 0.0, 156.32337951660156, 0.0015339808305725455, 160.5985870361328);(0.0, 0.0, 0.0, 0.0, 0.0, 0.0, 0.0, 0.0);(2.690000057220459, 21.520000457763672, 0.0, 5.380000114440918, 0.0, -2.690000057220459, -2.690000057220459, 0.0)
2024/05/03/12:36:47.535851;29862;1714765007;541457464;;['BL_Position', 'BL_Wheel', 'BR_Position', 'BR_Wheel', 'FL_Position', 'FL_Wheel', 'FR_Position', 'FR_Wheel'];(0.0, 158.45408630371094, 0.0, 155.86473083496094, 0.0, 156.32337951660156, 0.0015339808305725455, 160.60012817382812);(0.0, 0.0, 0.0, 0.0, 0.0, 0.0, 0.0, 0.0);(2.690000057220459, 21.520000457763672, 0.0, 5.380000114440918, 0.0, -2.690000057220459, 0.0, 0.0)
2024/05/03/12:36:47.552889;29863;1714765007;557516751;;['BL_Position', 'BL_Wheel', 'BR_Position', 'BR_Wheel', 'FL_Position', 'FL_Wheel', 'FR_Position', 'FR_Wheel'];(0.0, 158.45408630371094, 0.0, 155.86473083496094, 0.0, 156.32337951660156, 0.0015339808305725455, 160.60012817382812);(0.0, 0.0, 0.0, 0.0, 0.0, 0.0, 0.0, 0.0);(2.690000057220459, 21.520000457763672, 0.0, 5.380000114440918, 0.0, -2.690000057220459, 0.0, 0.0)
2024/05/03/12:36:47.568670;29864;1714765007;573543001;;['BL_Position', 'BL_Wheel', 'BR_Position', 'BR_Wheel', 'FL_Position', 'FL_Wheel', 'FR_Position', 'FR_Wheel'];(0.0, 158.45408630371094, 0.0, 155.86473083496094, 0.0, 156.32337951660156, 0.0, 160.60012817382812);(0.0, 0.0, 0.0, 0.0, 0.0, 0.0, 0.0, 0.0);(2.690000057220459, 21.520000457763672, 0.0, 5.380000114440918, 0.0, -2.690000057220459, -2.690000057220459, 0.0)
2024/05/03/12:36:47.585158;29865;1714765007;589461252;;['BL_Position', 'BL_Wheel', 'BR_Position', 'BR_Wheel', 'FL_Position', 'FL_Wheel', 'FR_Position', 'FR_Wheel'];(0.0, 158.45254516601562, 0.0, 155.86473083496094, 0.0, 156.32337951660156, 0.0015339808305725455, 160.5985870361328);(0.0, 0.0, 0.0, 0.0, 0.0, 0.0, 0.0, 0.0);(2.690000057220459, 21.520000457763672, 0.0, 5.380000114440918, 0.0, -2.690000057220459, 0.0, 0.0)
2024/05/03/12:36:47.601228;29866;1714765007;605436391;;['BL_Position', 'BL_Wheel', 'BR_Position', 'BR_Wheel', 'FL_Position', 'FL_Wheel', 'FR_Position', 'FR_Wheel'];(0.0, 158.45408630371094, 0.0, 155.86473083496094, 0.0, 156.32337951660156, 0.0015339808305725455, 160.5985870361328);(0.0, 0.0, 0.0, 0.0, 0.0, 0.0, 0.0, 0.0);(2.690000057220459, 21.520000457763672, 0.0, 5.380000114440918, 0.0, -2.690000057220459, 0.0, 0.0)
2024/05/03/12:36:47.616849;29867;1714765007;621490381;;['BL_Position', 'BL_Wheel', 'BR_Position', 'BR_Wheel', 'FL_Position', 'FL_Wheel', 'FR_Position', 'FR_Wheel'];(0.0, 158.45254516601562, 0.0, 155.86473083496094, 0.0, 156.32337951660156, 0.0, 160.5985870361328);(0.0, 0.0, 0.0, 0.0, 0.0, 0.0, 0.0, 0.0);(2.690000057220459, 21.520000457763672, 0.0, 5.380000114440918, 0.0, -2.690000057220459, -2.690000057220459, 0.0)
2024/05/03/12:36:47.630497;29868;1714765007;637437409;;['BL_Position', 'BL_Wheel', 'BR_Position', 'BR_Wheel', 'FL_Position', 'FL_Wheel', 'FR_Position', 'FR_Wheel'];(0.0, 158.45408630371094, 0.0, 155.86473083496094, 0.0, 156.32337951660156, 0.0015339808305725455, 160.60012817382812);(0.0, 0.0, 0.0, 0.0, 0.0, 0.0, 0.0, 0.0);(2.690000057220459, 21.520000457763672, 0.0, 5.380000114440918, 0.0, -2.690000057220459, 0.0, 0.0)
2024/05/03/12:36:47.648976;29869;1714765007;653451048;;['BL_Position', 'BL_Wheel', 'BR_Position', 'BR_Wheel', 'FL_Position', 'FL_Wheel', 'FR_Position', 'FR_Wheel'];(0.0, 158.45408630371094, 0.0, 155.86473083496094, 0.0, 156.32337951660156, 0.0015339808305725455, 160.60012817382812);(0.0, 0.0, 0.0, 0.0, 0.0, 0.0, 0.0, 0.0);(2.690000057220459, 21.520000457763672, 0.0, 5.380000114440918, 0.0, -2.690000057220459, 0.0, 0.0)
2024/05/03/12:36:47.665342;29870;1714765007;669487595;;['BL_Position', 'BL_Wheel', 'BR_Position', 'BR_Wheel', 'FL_Position', 'FL_Wheel', 'FR_Position', 'FR_Wheel'];(0.0, 158.45408630371094, 0.0, 155.86473083496094, 0.0, 156.32337951660156, 0.0015339808305725455, 160.5985870361328);(0.0, 0.0, 0.0, 0.0, 0.0, 0.0, 0.0, 0.0);(2.690000057220459, 21.520000457763672, 0.0, 5.380000114440918, 0.0, -2.690000057220459, 0.0, 0.0)
2024/05/03/12:36:47.680407;29871;1714765007;685454401;;['BL_Position', 'BL_Wheel', 'BR_Position', 'BR_Wheel', 'FL_Position', 'FL_Wheel', 'FR_Position', 'FR_Wheel'];(0.0, 158.45254516601562, 0.0, 155.86473083496094, 0.0, 156.32337951660156, 0.0015339808305725455, 160.60012817382812);(0.0, 0.0, 0.0, 0.0, 0.0, 0.0, 0.0, 0.0);(2.690000057220459, 21.520000457763672, 0.0, 5.380000114440918, 0.0, -2.690000057220459, 0.0, 0.0)
2024/05/03/12:36:47.696856;29872;1714765007;701463984;;['BL_Position', 'BL_Wheel', 'BR_Position', 'BR_Wheel', 'FL_Position', 'FL_Wheel', 'FR_Position', 'FR_Wheel'];(0.0, 158.45408630371094, 0.0, 155.86473083496094, 0.0, 156.32337951660156, 0.0015339808305725455, 160.5985870361328);(0.0, 0.0, 0.0, 0.0, 0.0, 0.0, 0.0, 0.0);(2.690000057220459, 21.520000457763672, 0.0, 5.380000114440918, 0.0, -2.690000057220459, -2.690000057220459, 0.0)
2024/05/03/12:36:47.712551;29873;1714765007;717464142;;['BL_Position', 'BL_Wheel', 'BR_Position', 'BR_Wheel', 'FL_Position', 'FL_Wheel', 'FR_Position', 'FR_Wheel'];(0.0, 158.45408630371094, 0.0, 155.86473083496094, 0.0, 156.32337951660156, 0.0015339808305725455, 160.5985870361328);(0.0, 0.0, 0.0, 0.0, 0.0, 0.0, 0.0, 0.0);(2.690000057220459, 21.520000457763672, 0.0, 5.380000114440918, 0.0, -2.690000057220459, 0.0, 0.0)
2024/05/03/12:36:47.730543;29874;1714765007;733802521;;['BL_Position', 'BL_Wheel', 'BR_Position', 'BR_Wheel', 'FL_Position', 'FL_Wheel', 'FR_Position', 'FR_Wheel'];(0.0, 158.45408630371094, 0.0, 155.86473083496094, 0.0, 156.32337951660156, 0.0, 160.5985870361328);(0.0, 0.0, 0.0, 0.0, 0.0, 0.0, 0.0, 0.0);(2.690000057220459, 21.520000457763672, 0.0, 5.380000114440918, 0.0, -2.690000057220459, 0.0, 0.0)
2024/05/03/12:36:47.748083;29875;1714765007;749473716;;['BL_Position', 'BL_Wheel', 'BR_Position', 'BR_Wheel', 'FL_Position', 'FL_Wheel', 'FR_Position', 'FR_Wheel'];(0.0, 158.45408630371094, 0.0, 155.86473083496094, 0.0, 156.32337951660156, 0.0015339808305725455, 160.60012817382812);(0.0, 0.0, 0.0, 0.0, 0.0, 0.0, 0.0, 0.0);(2.690000057220459, 21.520000457763672, 2.690000057220459, 5.380000114440918, 0.0, -2.690000057220459, 0.0, 0.0)
2024/05/03/12:36:47.759635;29876;1714765007;765433262;;['BL_Position', 'BL_Wheel', 'BR_Position', 'BR_Wheel', 'FL_Position', 'FL_Wheel', 'FR_Position', 'FR_Wheel'];(0.0, 158.45254516601562, 0.0, 155.86473083496094, 0.0, 156.32337951660156, 0.0015339808305725455, 160.5985870361328);(0.0, 0.0, 0.0, 0.0, 0.0, 0.0, 0.0, 0.0);(2.690000057220459, 21.520000457763672, 0.0, 5.380000114440918, 0.0, -2.690000057220459, -2.690000057220459, 0.0)
2024/05/03/12:36:47.775103;29877;1714765007;781479105;;['BL_Position', 'BL_Wheel', 'BR_Position', 'BR_Wheel', 'FL_Position', 'FL_Wheel', 'FR_Position', 'FR_Wheel'];(0.0, 158.45254516601562, 0.0, 155.86473083496094, 0.0, 156.32337951660156, 0.0, 160.5985870361328);(0.0, 0.0, 0.0, 0.0, 0.0, 0.0, 0.0, 0.0);(2.690000057220459, 21.520000457763672, 0.0, 5.380000114440918, 0.0, -2.690000057220459, 0.0, 0.0)
2024/05/03/12:36:47.794551;29878;1714765007;797468855;;['BL_Position', 'BL_Wheel', 'BR_Position', 'BR_Wheel', 'FL_Position', 'FL_Wheel', 'FR_Position', 'FR_Wheel'];(0.0, 158.45408630371094, 0.0, 155.86473083496094, 0.0, 156.32337951660156, 0.0, 160.5985870361328);(0.0, 0.0, 0.0, 0.0, 0.0, 0.0, 0.0, 0.0);(2.690000057220459, 21.520000457763672, 0.0, 5.380000114440918, 0.0, -2.690000057220459, 0.0, 0.0)
2024/05/03/12:36:47.809056;29879;1714765007;813542513;;['BL_Position', 'BL_Wheel', 'BR_Position', 'BR_Wheel', 'FL_Position', 'FL_Wheel', 'FR_Position', 'FR_Wheel'];(0.0, 158.45408630371094, 0.0, 155.86473083496094, 0.0, 156.32337951660156, 0.0015339808305725455, 160.5985870361328);(0.0, 0.0, 0.0, 0.0, 0.0, 0.0, 0.0, 0.0);(2.690000057220459, 21.520000457763672, 0.0, 5.380000114440918, 0.0, -2.690000057220459, 0.0, 0.0)
2024/05/03/12:36:47.825086;29880;1714765007;829499763;;['BL_Position', 'BL_Wheel', 'BR_Position', 'BR_Wheel', 'FL_Position', 'FL_Wheel', 'FR_Position', 'FR_Wheel'];(0.0, 158.45408630371094, 0.0, 155.86473083496094, 0.0, 156.32337951660156, 0.0, 160.60012817382812);(0.0, 0.0, 0.0, 0.0, 0.0, 0.0, 0.0, 0.0);(2.690000057220459, 21.520000457763672, 0.0, 5.380000114440918, 0.0, -2.690000057220459, 0.0, 0.0)
2024/05/03/12:36:47.840522;29881;1714765007;845422828;;['BL_Position', 'BL_Wheel', 'BR_Position', 'BR_Wheel', 'FL_Position', 'FL_Wheel', 'FR_Position', 'FR_Wheel'];(0.0, 158.45408630371094, 0.0, 155.86473083496094, 0.0, 156.32337951660156, 0.0, 160.5985870361328);(0.0, 0.0, 0.0, 0.0, 0.0, 0.0, 0.0, 0.0);(2.690000057220459, 21.520000457763672, 0.0, 5.380000114440918, 0.0, -2.690000057220459, 0.0, 0.0)
2024/05/03/12:36:47.857405;29882;1714765007;861856319;;['BL_Position', 'BL_Wheel', 'BR_Position', 'BR_Wheel', 'FL_Position', 'FL_Wheel', 'FR_Position', 'FR_Wheel'];(0.0, 158.45408630371094, 0.0, 155.86473083496094, 0.0, 156.32337951660156, 0.0015339808305725455, 160.5985870361328);(0.0, 0.0, 0.0, 0.0, 0.0, 0.0, 0.0, 0.0);(2.690000057220459, 21.520000457763672, 0.0, 5.380000114440918, 0.0, -2.690000057220459, 0.0, 0.0)
2024/05/03/12:36:47.872528;29883;1714765007;877461606;;['BL_Position', 'BL_Wheel', 'BR_Position', 'BR_Wheel', 'FL_Position', 'FL_Wheel', 'FR_Position', 'FR_Wheel'];(0.0, 158.45408630371094, 0.0, 155.86473083496094, 0.0, 156.32337951660156, 0.0015339808305725455, 160.60012817382812);(0.0, 0.0, 0.0, 0.0, 0.0, 0.0, 0.0, 0.0);(2.690000057220459, 21.520000457763672, 0.0, 5.380000114440918, 0.0, -2.690000057220459, 0.0, 0.0)
2024/05/03/12:36:47.889574;29884;1714765007;893454319;;['BL_Position', 'BL_Wheel', 'BR_Position', 'BR_Wheel', 'FL_Position', 'FL_Wheel', 'FR_Position', 'FR_Wheel'];(0.0, 158.45408630371094, 0.0, 155.86473083496094, 0.0, 156.32337951660156, 0.0, 160.5985870361328);(0.0, 0.0, 0.0, 0.0, 0.0, 0.0, 0.0, 0.0);(2.690000057220459, 21.520000457763672, 0.0, 5.380000114440918, 0.0, -2.690000057220459, 0.0, 0.0)
2024/05/03/12:36:47.904832;29885;1714765007;909478736;;['BL_Position', 'BL_Wheel', 'BR_Position', 'BR_Wheel', 'FL_Position', 'FL_Wheel', 'FR_Position', 'FR_Wheel'];(0.0, 158.45408630371094, 0.0, 155.86473083496094, 0.0, 156.32337951660156, 0.0015339808305725455, 160.5985870361328);(0.0, 0.0, 0.0, 0.0, 0.0, 0.0, 0.0, 0.0);(2.690000057220459, 21.520000457763672, 0.0, 5.380000114440918, 0.0, -2.690000057220459, -2.690000057220459, 0.0)
2024/05/03/12:36:47.920818;29886;1714765007;925419245;;['BL_Position', 'BL_Wheel', 'BR_Position', 'BR_Wheel', 'FL_Position', 'FL_Wheel', 'FR_Position', 'FR_Wheel'];(0.0, 158.45408630371094, 0.0, 155.86473083496094, 0.0, 156.32337951660156, 0.0, 160.5985870361328);(0.0, 0.0, 0.0, 0.0, 0.0, 0.0, 0.0, 0.0);(2.690000057220459, 21.520000457763672, 0.0, 5.380000114440918, 0.0, -2.690000057220459, 0.0, 0.0)
2024/05/03/12:36:47.939041;29887;1714765007;941498958;;['BL_Position', 'BL_Wheel', 'BR_Position', 'BR_Wheel', 'FL_Position', 'FL_Wheel', 'FR_Position', 'FR_Wheel'];(0.0, 158.45254516601562, 0.0, 155.86473083496094, 0.0, 156.32337951660156, 0.0015339808305725455, 160.5985870361328);(0.0, 0.0, 0.0, 0.0, 0.0, 0.0, 0.0, 0.0);(2.690000057220459, 21.520000457763672, 0.0, 5.380000114440918, 0.0, -2.690000057220459, 0.0, 0.0)
2024/05/03/12:36:47.952451;29888;1714765007;957416505;;['BL_Position', 'BL_Wheel', 'BR_Position', 'BR_Wheel', 'FL_Position', 'FL_Wheel', 'FR_Position', 'FR_Wheel'];(0.0, 158.45254516601562, 0.0, 155.86473083496094, 0.0, 156.32337951660156, 0.0015339808305725455, 160.5985870361328);(0.0, 0.0, 0.0, 0.0, 0.0, 0.0, 0.0, 0.0);(2.690000057220459, 21.520000457763672, 0.0, 5.380000114440918, 0.0, -2.690000057220459, 0.0, 0.0)
2024/05/03/12:36:47.968864;29889;1714765007;973465403;;['BL_Position', 'BL_Wheel', 'BR_Position', 'BR_Wheel', 'FL_Position', 'FL_Wheel', 'FR_Position', 'FR_Wheel'];(0.0, 158.45408630371094, 0.0, 155.86473083496094, 0.0, 156.32337951660156, 0.0015339808305725455, 160.60012817382812);(0.0, 0.0, 0.0, 0.0, 0.0, 0.0, 0.0, 0.0);(2.690000057220459, 21.520000457763672, 0.0, 5.380000114440918, 0.0, -2.690000057220459, 0.0, 0.0)
2024/05/03/12:36:47.984823;29890;1714765007;989520949;;['BL_Position', 'BL_Wheel', 'BR_Position', 'BR_Wheel', 'FL_Position', 'FL_Wheel', 'FR_Position', 'FR_Wheel'];(-0.0015339808305725455, 158.45254516601562, 0.0, 155.86473083496094, 0.0, 156.32337951660156, 0.0, 160.5985870361328);(0.0, 0.0, 0.0, 0.0, 0.0, 0.0, 0.0, 0.0);(2.690000057220459, 21.520000457763672, 0.0, 5.380000114440918, 0.0, -2.690000057220459, 0.0, 0.0)
2024/05/03/12:36:48.001830;29891;1714765008;5481570;;['BL_Position', 'BL_Wheel', 'BR_Position', 'BR_Wheel', 'FL_Position', 'FL_Wheel', 'FR_Position', 'FR_Wheel'];(0.0, 158.45408630371094, 0.0, 155.86473083496094, 0.0, 156.32337951660156, 0.0, 160.5985870361328);(0.0, 0.0, 0.0, 0.0, 0.0, 0.0, 0.0, 0.0);(2.690000057220459, 21.520000457763672, 0.0, 5.380000114440918, 0.0, -2.690000057220459, 0.0, 0.0)
2024/05/03/12:36:48.018056;29892;1714765008;21462561;;['BL_Position', 'BL_Wheel', 'BR_Position', 'BR_Wheel', 'FL_Position', 'FL_Wheel', 'FR_Position', 'FR_Wheel'];(0.0, 158.45254516601562, 0.0, 155.86473083496094, 0.0, 156.32337951660156, 0.0, 160.60012817382812);(0.0, 0.0, 0.0, 0.0, 0.0, 0.0, 0.0, 0.0);(2.690000057220459, 21.520000457763672, 0.0, 5.380000114440918, 0.0, -2.690000057220459, 0.0, 0.0)
2024/05/03/12:36:48.040545;29893;1714765008;37448163;;['BL_Position', 'BL_Wheel', 'BR_Position', 'BR_Wheel', 'FL_Position', 'FL_Wheel', 'FR_Position', 'FR_Wheel'];(0.0, 158.45408630371094, 0.0, 155.86473083496094, 0.0, 156.32337951660156, 0.0015339808305725455, 160.5985870361328);(0.0, 0.0, 0.0, 0.0, 0.0, 0.0, 0.0, 0.0);(2.690000057220459, 21.520000457763672, 0.0, 5.380000114440918, 0.0, -2.690000057220459, 0.0, 0.0)
2024/05/03/12:36:48.048329;29894;1714765008;53459228;;['BL_Position', 'BL_Wheel', 'BR_Position', 'BR_Wheel', 'FL_Position', 'FL_Wheel', 'FR_Position', 'FR_Wheel'];(0.0, 158.45408630371094, 0.0, 155.86473083496094, 0.0, 156.32337951660156, 0.0015339808305725455, 160.5985870361328);(0.0, 0.0, 0.0, 0.0, 0.0, 0.0, 0.0, 0.0);(2.690000057220459, 21.520000457763672, 0.0, 5.380000114440918, 0.0, -2.690000057220459, 0.0, 0.0)
2024/05/03/12:36:48.064576;29895;1714765008;69472385;;['BL_Position', 'BL_Wheel', 'BR_Position', 'BR_Wheel', 'FL_Position', 'FL_Wheel', 'FR_Position', 'FR_Wheel'];(0.0, 158.45408630371094, 0.0, 155.86473083496094, 0.0, 156.32337951660156, 0.0, 160.5985870361328);(0.0, 0.0, 0.0, 0.0, 0.0, 0.0, 0.0, 0.0);(2.690000057220459, 21.520000457763672, 0.0, 5.380000114440918, 0.0, -2.690000057220459, 0.0, 0.0)
2024/05/03/12:36:48.080513;29896;1714765008;85477339;;['BL_Position', 'BL_Wheel', 'BR_Position', 'BR_Wheel', 'FL_Position', 'FL_Wheel', 'FR_Position', 'FR_Wheel'];(0.0, 158.45254516601562, 0.0, 155.86473083496094, 0.0, 156.32337951660156, 0.0, 160.5985870361328);(0.0, 0.0, 0.0, 0.0, 0.0, 0.0, 0.0, 0.0);(2.690000057220459, 21.520000457763672, 0.0, 5.380000114440918, 0.0, -2.690000057220459, 0.0, 0.0)
2024/05/03/12:36:48.097569;29897;1714765008;101404738;;['BL_Position', 'BL_Wheel', 'BR_Position', 'BR_Wheel', 'FL_Position', 'FL_Wheel', 'FR_Position', 'FR_Wheel'];(0.0, 158.45408630371094, 0.0, 155.86473083496094, 0.0, 156.32337951660156, 0.0015339808305725455, 160.5985870361328);(0.0, 0.0, 0.0, 0.0, 0.0, 0.0, 0.0, 0.0);(2.690000057220459, 21.520000457763672, 0.0, 5.380000114440918, 0.0, -2.690000057220459, -2.690000057220459, 0.0)
2024/05/03/12:36:48.112875;29898;1714765008;117460840;;['BL_Position', 'BL_Wheel', 'BR_Position', 'BR_Wheel', 'FL_Position', 'FL_Wheel', 'FR_Position', 'FR_Wheel'];(0.0, 158.45254516601562, 0.0, 155.86473083496094, 0.0, 156.32337951660156, 0.0015339808305725455, 160.5985870361328);(0.0, 0.0, 0.0, 0.0, 0.0, 0.0, 0.0, 0.0);(2.690000057220459, 21.520000457763672, 0.0, 5.380000114440918, 0.0, -2.690000057220459, 0.0, 0.0)
2024/05/03/12:36:48.128891;29899;1714765008;133467312;;['BL_Position', 'BL_Wheel', 'BR_Position', 'BR_Wheel', 'FL_Position', 'FL_Wheel', 'FR_Position', 'FR_Wheel'];(0.0, 158.45254516601562, 0.0, 155.86318969726562, 0.0, 156.32337951660156, 0.0015339808305725455, 160.5985870361328);(0.0, 0.0, 0.0, 0.0, 0.0, 0.0, 0.0, 0.0);(2.690000057220459, 21.520000457763672, 0.0, 5.380000114440918, 0.0, -2.690000057220459, 0.0, 0.0)
2024/05/03/12:36:48.145512;29900;1714765008;149475025;;['BL_Position', 'BL_Wheel', 'BR_Position', 'BR_Wheel', 'FL_Position', 'FL_Wheel', 'FR_Position', 'FR_Wheel'];(0.0, 158.45408630371094, 0.0, 155.86473083496094, 0.0, 156.32337951660156, 0.0015339808305725455, 160.5985870361328);(0.0, 0.0, 0.0, 0.0, 0.0, 0.0, 0.0, 0.0);(2.690000057220459, 21.520000457763672, 0.0, 5.380000114440918, 0.0, -2.690000057220459, 0.0, 0.0)
2024/05/03/12:36:48.160717;29901;1714765008;165439368;;['BL_Position', 'BL_Wheel', 'BR_Position', 'BR_Wheel', 'FL_Position', 'FL_Wheel', 'FR_Position', 'FR_Wheel'];(0.0, 158.45408630371094, 0.0, 155.86473083496094, 0.0, 156.32337951660156, 0.0015339808305725455, 160.5985870361328);(0.0, 0.0, 0.0, 0.0, 0.0, 0.0, 0.0, 0.0);(2.690000057220459, 21.520000457763672, 0.0, 5.380000114440918, 0.0, -2.690000057220459, 0.0, 0.0)
2024/05/03/12:36:48.176902;29902;1714765008;181488136;;['BL_Position', 'BL_Wheel', 'BR_Position', 'BR_Wheel', 'FL_Position', 'FL_Wheel', 'FR_Position', 'FR_Wheel'];(0.0, 158.45254516601562, 0.0, 155.86473083496094, 0.0, 156.32337951660156, 0.0, 160.5985870361328);(0.0, 0.0, 0.0, 0.0, 0.0, 0.0, 0.0, 0.0);(2.690000057220459, 21.520000457763672, 0.0, 5.380000114440918, 0.0, -2.690000057220459, 0.0, 0.0)
2024/05/03/12:36:48.192631;29903;1714765008;197438442;;['BL_Position', 'BL_Wheel', 'BR_Position', 'BR_Wheel', 'FL_Position', 'FL_Wheel', 'FR_Position', 'FR_Wheel'];(0.0, 158.45408630371094, 0.0, 155.86473083496094, 0.0, 156.32337951660156, 0.0015339808305725455, 160.5985870361328);(0.0, 0.0, 0.0, 0.0, 0.0, 0.0, 0.0, 0.0);(2.690000057220459, 21.520000457763672, 0.0, 5.380000114440918, 0.0, -2.690000057220459, 0.0, 0.0)
2024/05/03/12:36:48.206843;29904;1714765008;213409192;;['BL_Position', 'BL_Wheel', 'BR_Position', 'BR_Wheel', 'FL_Position', 'FL_Wheel', 'FR_Position', 'FR_Wheel'];(0.0, 158.45408630371094, 0.0, 155.86473083496094, 0.0, 156.32337951660156, 0.0, 160.5985870361328);(0.0, 0.0, 0.0, 0.0, 0.0, 0.0, 0.0, 0.0);(0.0, 21.520000457763672, 0.0, 5.380000114440918, 0.0, -2.690000057220459, 0.0, 0.0)
2024/05/03/12:36:48.224772;29905;1714765008;229430165;;['BL_Position', 'BL_Wheel', 'BR_Position', 'BR_Wheel', 'FL_Position', 'FL_Wheel', 'FR_Position', 'FR_Wheel'];(0.0, 158.45408630371094, 0.0, 155.86473083496094, 0.0, 156.32337951660156, 0.0, 160.5985870361328);(0.0, 0.0, 0.0, 0.0, 0.0, 0.0, 0.0, 0.0);(0.0, 21.520000457763672, 0.0, 5.380000114440918, 0.0, -2.690000057220459, -2.690000057220459, 0.0)
2024/05/03/12:36:48.241914;29906;1714765008;245420341;;['BL_Position', 'BL_Wheel', 'BR_Position', 'BR_Wheel', 'FL_Position', 'FL_Wheel', 'FR_Position', 'FR_Wheel'];(0.0, 158.45408630371094, 0.0, 155.86473083496094, 0.0, 156.32337951660156, 0.0015339808305725455, 160.5985870361328);(0.0, 0.0, 0.0, 0.0, 0.0, 0.0, 0.0, 0.0);(0.0, 21.520000457763672, 0.0, 5.380000114440918, 0.0, -2.690000057220459, 0.0, 0.0)
2024/05/03/12:36:48.258588;29907;1714765008;261391758;;['BL_Position', 'BL_Wheel', 'BR_Position', 'BR_Wheel', 'FL_Position', 'FL_Wheel', 'FR_Position', 'FR_Wheel'];(0.0, 158.45408630371094, 0.0, 155.86473083496094, 0.0, 156.32337951660156, 0.0015339808305725455, 160.5985870361328);(0.0, 0.0, 0.0, 0.0, 0.0, 0.0, 0.0, 0.0);(2.690000057220459, 21.520000457763672, 0.0, 5.380000114440918, 0.0, -2.690000057220459, 0.0, 0.0)
2024/05/03/12:36:48.272490;29908;1714765008;277404137;;['BL_Position', 'BL_Wheel', 'BR_Position', 'BR_Wheel', 'FL_Position', 'FL_Wheel', 'FR_Position', 'FR_Wheel'];(0.0, 158.45408630371094, 0.0, 155.86473083496094, 0.0, 156.32337951660156, 0.0015339808305725455, 160.5985870361328);(0.0, 0.0, 0.0, 0.0, 0.0, 0.0, 0.0, 0.0);(2.690000057220459, 21.520000457763672, 0.0, 5.380000114440918, 0.0, -2.690000057220459, 0.0, 0.0)
2024/05/03/12:36:48.288548;29909;1714765008;293411425;;['BL_Position', 'BL_Wheel', 'BR_Position', 'BR_Wheel', 'FL_Position', 'FL_Wheel', 'FR_Position', 'FR_Wheel'];(0.0, 158.45408630371094, 0.0, 155.86473083496094, 0.0, 156.32337951660156, 0.0, 160.5985870361328);(0.0, 0.0, 0.0, 0.0, 0.0, 0.0, 0.0, 0.0);(2.690000057220459, 21.520000457763672, 0.0, 5.380000114440918, 0.0, -2.690000057220459, 0.0, 0.0)
2024/05/03/12:36:48.306081;29910;1714765008;309388249;;['BL_Position', 'BL_Wheel', 'BR_Position', 'BR_Wheel', 'FL_Position', 'FL_Wheel', 'FR_Position', 'FR_Wheel'];(0.0, 158.45408630371094, 0.0, 155.86473083496094, 0.0, 156.32337951660156, 0.0, 160.5985870361328);(0.0, 0.0, 0.0, 0.0, 0.0, 0.0, 0.0, 0.0);(2.690000057220459, 21.520000457763672, 0.0, 5.380000114440918, 0.0, -2.690000057220459, 0.0, 0.0)
2024/05/03/12:36:48.321613;29911;1714765008;325478888;;['BL_Position', 'BL_Wheel', 'BR_Position', 'BR_Wheel', 'FL_Position', 'FL_Wheel', 'FR_Position', 'FR_Wheel'];(0.0, 158.45408630371094, 0.0, 155.86473083496094, 0.0, 156.32337951660156, 0.0015339808305725455, 160.5985870361328);(0.0, 0.0, 0.0, 0.0, 0.0, 0.0, 0.0, 0.0);(2.690000057220459, 21.520000457763672, 0.0, 5.380000114440918, 0.0, -2.690000057220459, 0.0, 0.0)
2024/05/03/12:36:48.348304;29912;1714765008;342846397;;['BL_Position', 'BL_Wheel', 'BR_Position', 'BR_Wheel', 'FL_Position', 'FL_Wheel', 'FR_Position', 'FR_Wheel'];(0.0, 158.45408630371094, 0.0, 155.86473083496094, 0.0, 156.32337951660156, 0.0015339808305725455, 160.60012817382812);(0.0, 0.0, 0.0, 0.0, 0.0, 0.0, 0.0, 0.0);(2.690000057220459, 21.520000457763672, 0.0, 5.380000114440918, 0.0, -2.690000057220459, 0.0, 0.0)
2024/05/03/12:36:48.354808;29913;1714765008;357754481;;['BL_Position', 'BL_Wheel', 'BR_Position', 'BR_Wheel', 'FL_Position', 'FL_Wheel', 'FR_Position', 'FR_Wheel'];(0.0, 158.45254516601562, 0.0, 155.86473083496094, 0.0, 156.32337951660156, 0.0, 160.5985870361328);(0.0, 0.0, 0.0, 0.0, 0.0, 0.0, 0.0, 0.0);(2.690000057220459, 21.520000457763672, 0.0, 5.380000114440918, 0.0, -2.690000057220459, 0.0, 0.0)
2024/05/03/12:36:48.368951;29914;1714765008;373492490;;['BL_Position', 'BL_Wheel', 'BR_Position', 'BR_Wheel', 'FL_Position', 'FL_Wheel', 'FR_Position', 'FR_Wheel'];(0.0, 158.45254516601562, 0.0, 155.86473083496094, 0.0, 156.32337951660156, 0.0015339808305725455, 160.5985870361328);(0.0, 0.0, 0.0, 0.0, 0.0, 0.0, 0.0, 0.0);(2.690000057220459, 21.520000457763672, 0.0, 5.380000114440918, 0.0, -2.690000057220459, 0.0, 0.0)
2024/05/03/12:36:48.385911;29915;1714765008;389449370;;['BL_Position', 'BL_Wheel', 'BR_Position', 'BR_Wheel', 'FL_Position', 'FL_Wheel', 'FR_Position', 'FR_Wheel'];(0.0, 158.45254516601562, 0.0, 155.86473083496094, 0.0, 156.32337951660156, 0.0, 160.60012817382812);(0.0, 0.0, 0.0, 0.0, 0.0, 0.0, 0.0, 0.0);(2.690000057220459, 21.520000457763672, 0.0, 5.380000114440918, 0.0, -2.690000057220459, 0.0, 0.0)
2024/05/03/12:36:48.400978;29916;1714765008;405455583;;['BL_Position', 'BL_Wheel', 'BR_Position', 'BR_Wheel', 'FL_Position', 'FL_Wheel', 'FR_Position', 'FR_Wheel'];(0.0, 158.45408630371094, 0.0, 155.86473083496094, 0.0, 156.32337951660156, 0.0, 160.60012817382812);(0.0, 0.0, 0.0, 0.0, 0.0, 0.0, 0.0, 0.0);(2.690000057220459, 21.520000457763672, 0.0, 5.380000114440918, 0.0, -2.690000057220459, 0.0, 0.0)
2024/05/03/12:36:48.416706;29917;1714765008;421433889;;['BL_Position', 'BL_Wheel', 'BR_Position', 'BR_Wheel', 'FL_Position', 'FL_Wheel', 'FR_Position', 'FR_Wheel'];(0.0, 158.45408630371094, 0.0, 155.86473083496094, 0.0, 156.32337951660156, 0.0, 160.5985870361328);(0.0, 0.0, 0.0, 0.0, 0.0, 0.0, 0.0, 0.0);(2.690000057220459, 21.520000457763672, 0.0, 5.380000114440918, 0.0, -2.690000057220459, 0.0, 0.0)
2024/05/03/12:36:48.436551;29918;1714765008;437469250;;['BL_Position', 'BL_Wheel', 'BR_Position', 'BR_Wheel', 'FL_Position', 'FL_Wheel', 'FR_Position', 'FR_Wheel'];(0.0, 158.45408630371094, 0.0, 155.86473083496094, 0.0, 156.32337951660156, 0.0015339808305725455, 160.5985870361328);(0.0, 0.0, 0.0, 0.0, 0.0, 0.0, 0.0, 0.0);(2.690000057220459, 21.520000457763672, 0.0, 5.380000114440918, 0.0, -2.690000057220459, 0.0, 0.0)
2024/05/03/12:36:48.448597;29919;1714765008;453435408;;['BL_Position', 'BL_Wheel', 'BR_Position', 'BR_Wheel', 'FL_Position', 'FL_Wheel', 'FR_Position', 'FR_Wheel'];(0.0, 158.45254516601562, 0.0, 155.86473083496094, 0.0, 156.32337951660156, 0.0, 160.5985870361328);(0.0, 0.0, 0.0, 0.0, 0.0, 0.0, 0.0, 0.0);(2.690000057220459, 21.520000457763672, 0.0, 5.380000114440918, 0.0, -2.690000057220459, -2.690000057220459, 0.0)
2024/05/03/12:36:48.464636;29920;1714765008;469476084;;['BL_Position', 'BL_Wheel', 'BR_Position', 'BR_Wheel', 'FL_Position', 'FL_Wheel', 'FR_Position', 'FR_Wheel'];(0.0, 158.45254516601562, 0.0, 155.86473083496094, 0.0, 156.32337951660156, 0.0, 160.5985870361328);(0.0, 0.0, 0.0, 0.0, 0.0, 0.0, 0.0, 0.0);(5.380000114440918, 21.520000457763672, 0.0, 5.380000114440918, 0.0, -2.690000057220459, 0.0, 0.0)
2024/05/03/12:36:48.480793;29921;1714765008;485388945;;['BL_Position', 'BL_Wheel', 'BR_Position', 'BR_Wheel', 'FL_Position', 'FL_Wheel', 'FR_Position', 'FR_Wheel'];(0.0, 158.45254516601562, 0.0, 155.86473083496094, 0.0, 156.32337951660156, 0.0015339808305725455, 160.60012817382812);(0.0, 0.0, 0.0, 0.0, 0.0, 0.0, 0.0, 0.0);(5.380000114440918, 21.520000457763672, 0.0, 5.380000114440918, 0.0, -2.690000057220459, 0.0, 0.0)
2024/05/03/12:36:48.496459;29922;1714765008;501436010;;['BL_Position', 'BL_Wheel', 'BR_Position', 'BR_Wheel', 'FL_Position', 'FL_Wheel', 'FR_Position', 'FR_Wheel'];(0.0, 158.45408630371094, 0.0, 155.86473083496094, 0.0, 156.32337951660156, 0.0015339808305725455, 160.5985870361328);(0.0, 0.0, 0.0, 0.0, 0.0, 0.0, 0.0, 0.0);(5.380000114440918, 21.520000457763672, 0.0, 5.380000114440918, 0.0, -2.690000057220459, 0.0, 0.0)
2024/05/03/12:36:48.513845;29923;1714765008;517401631;;['BL_Position', 'BL_Wheel', 'BR_Position', 'BR_Wheel', 'FL_Position', 'FL_Wheel', 'FR_Position', 'FR_Wheel'];(0.0, 158.45408630371094, 0.0, 155.86473083496094, 0.0, 156.32337951660156, 0.0, 160.60012817382812);(0.0, 0.0, 0.0, 0.0, 0.0, 0.0, 0.0, 0.0);(5.380000114440918, 21.520000457763672, 0.0, 5.380000114440918, 0.0, -2.690000057220459, -2.690000057220459, 0.0)
2024/05/03/12:36:48.529869;29924;1714765008;533425288;;['BL_Position', 'BL_Wheel', 'BR_Position', 'BR_Wheel', 'FL_Position', 'FL_Wheel', 'FR_Position', 'FR_Wheel'];(0.0, 158.45254516601562, 0.0, 155.86473083496094, 0.0, 156.32337951660156, 0.0, 160.5985870361328);(0.0, 0.0, 0.0, 0.0, 0.0, 0.0, 0.0, 0.0);(5.380000114440918, 21.520000457763672, 0.0, 5.380000114440918, 0.0, -2.690000057220459, 0.0, 0.0)
2024/05/03/12:36:48.550587;29925;1714765008;549455779;;['BL_Position', 'BL_Wheel', 'BR_Position', 'BR_Wheel', 'FL_Position', 'FL_Wheel', 'FR_Position', 'FR_Wheel'];(0.0, 158.45408630371094, 0.0, 155.86473083496094, 0.0, 156.32337951660156, 0.0, 160.5985870361328);(0.0, 0.0, 0.0, 0.0, 0.0, 0.0, 0.0, 0.0);(5.380000114440918, 21.520000457763672, 0.0, 5.380000114440918, 0.0, -2.690000057220459, 0.0, 0.0)
2024/05/03/12:36:48.560088;29926;1714765008;565451918;;['BL_Position', 'BL_Wheel', 'BR_Position', 'BR_Wheel', 'FL_Position', 'FL_Wheel', 'FR_Position', 'FR_Wheel'];(0.0, 158.45254516601562, 0.0, 155.86473083496094, 0.0, 156.32337951660156, 0.0015339808305725455, 160.5985870361328);(0.0, 0.0, 0.0, 0.0, 0.0, 0.0, 0.0, 0.0);(5.380000114440918, 21.520000457763672, 0.0, 5.380000114440918, 0.0, -2.690000057220459, -2.690000057220459, 0.0)
2024/05/03/12:36:48.574751;29927;1714765008;581447576;;['BL_Position', 'BL_Wheel', 'BR_Position', 'BR_Wheel', 'FL_Position', 'FL_Wheel', 'FR_Position', 'FR_Wheel'];(0.0, 158.45408630371094, 0.0, 155.86473083496094, 0.0, 156.32337951660156, 0.0015339808305725455, 160.60012817382812);(0.0, 0.0, 0.0, 0.0, 0.0, 0.0, 0.0, 0.0);(5.380000114440918, 21.520000457763672, 0.0, 5.380000114440918, 0.0, -2.690000057220459, 0.0, 0.0)
2024/05/03/12:36:48.592917;29928;1714765008;597507252;;['BL_Position', 'BL_Wheel', 'BR_Position', 'BR_Wheel', 'FL_Position', 'FL_Wheel', 'FR_Position', 'FR_Wheel'];(0.0, 158.45408630371094, 0.0, 155.86473083496094, 0.0, 156.32337951660156, 0.0015339808305725455, 160.5985870361328);(0.0, 0.0, 0.0, 0.0, 0.0, 0.0, 0.0, 0.0);(5.380000114440918, 21.520000457763672, 0.0, 5.380000114440918, 0.0, -2.690000057220459, -2.690000057220459, 0.0)
2024/05/03/12:36:48.609346;29929;1714765008;613410465;;['BL_Position', 'BL_Wheel', 'BR_Position', 'BR_Wheel', 'FL_Position', 'FL_Wheel', 'FR_Position', 'FR_Wheel'];(0.0, 158.45408630371094, 0.0, 155.86473083496094, 0.0, 156.32337951660156, 0.0015339808305725455, 160.5985870361328);(0.0, 0.0, 0.0, 0.0, 0.0, 0.0, 0.0, 0.0);(5.380000114440918, 21.520000457763672, 0.0, 5.380000114440918, 0.0, -2.690000057220459, 0.0, 0.0)
2024/05/03/12:36:48.624923;29930;1714765008;629456604;;['BL_Position', 'BL_Wheel', 'BR_Position', 'BR_Wheel', 'FL_Position', 'FL_Wheel', 'FR_Position', 'FR_Wheel'];(0.0, 158.45408630371094, 0.0, 155.86473083496094, 0.0, 156.32337951660156, 0.0015339808305725455, 160.5985870361328);(0.0, 0.0, 0.0, 0.0, 0.0, 0.0, 0.0, 0.0);(5.380000114440918, 21.520000457763672, 0.0, 5.380000114440918, 0.0, -2.690000057220459, 0.0, 0.0)
2024/05/03/12:36:48.650928;29931;1714765008;645913539;;['BL_Position', 'BL_Wheel', 'BR_Position', 'BR_Wheel', 'FL_Position', 'FL_Wheel', 'FR_Position', 'FR_Wheel'];(0.0, 158.45408630371094, 0.0, 155.86473083496094, 0.0, 156.32337951660156, 0.0, 160.60012817382812);(0.0, 0.0, 0.0, 0.0, 0.0, 0.0, 0.0, 0.0);(5.380000114440918, 21.520000457763672, 0.0, 5.380000114440918, 0.0, -2.690000057220459, 0.0, 0.0)
2024/05/03/12:36:48.656527;29932;1714765008;661409012;;['BL_Position', 'BL_Wheel', 'BR_Position', 'BR_Wheel', 'FL_Position', 'FL_Wheel', 'FR_Position', 'FR_Wheel'];(0.0, 158.45408630371094, 0.0, 155.86473083496094, 0.0, 156.32337951660156, 0.0, 160.60012817382812);(0.0, 0.0, 0.0, 0.0, 0.0, 0.0, 0.0, 0.0);(5.380000114440918, 21.520000457763672, 0.0, 5.380000114440918, 0.0, -2.690000057220459, 0.0, 0.0)
2024/05/03/12:36:48.672648;29933;1714765008;677428336;;['BL_Position', 'BL_Wheel', 'BR_Position', 'BR_Wheel', 'FL_Position', 'FL_Wheel', 'FR_Position', 'FR_Wheel'];(0.0, 158.45254516601562, 0.0, 155.86473083496094, 0.0, 156.32337951660156, 0.0015339808305725455, 160.5985870361328);(0.0, 0.0, 0.0, 0.0, 0.0, 0.0, 0.0, 0.0);(5.380000114440918, 21.520000457763672, 0.0, 5.380000114440918, 0.0, -2.690000057220459, 0.0, 0.0)
2024/05/03/12:36:48.686937;29934;1714765008;693469623;;['BL_Position', 'BL_Wheel', 'BR_Position', 'BR_Wheel', 'FL_Position', 'FL_Wheel', 'FR_Position', 'FR_Wheel'];(0.0, 158.45408630371094, 0.0, 155.86473083496094, 0.0, 156.32337951660156, 0.0015339808305725455, 160.5985870361328);(0.0, 0.0, 0.0, 0.0, 0.0, 0.0, 0.0, 0.0);(5.380000114440918, 21.520000457763672, 0.0, 5.380000114440918, 0.0, -2.690000057220459, 0.0, 0.0)
2024/05/03/12:36:48.704383;29935;1714765008;709400355;;['BL_Position', 'BL_Wheel', 'BR_Position', 'BR_Wheel', 'FL_Position', 'FL_Wheel', 'FR_Position', 'FR_Wheel'];(0.0, 158.45408630371094, 0.0, 155.86473083496094, 0.0, 156.32337951660156, 0.0015339808305725455, 160.60012817382812);(0.0, 0.0, 0.0, 0.0, 0.0, 0.0, 0.0, 0.0);(5.380000114440918, 21.520000457763672, 0.0, 5.380000114440918, 0.0, -2.690000057220459, 0.0, 0.0)
2024/05/03/12:36:48.718790;29936;1714765008;725384364;;['BL_Position', 'BL_Wheel', 'BR_Position', 'BR_Wheel', 'FL_Position', 'FL_Wheel', 'FR_Position', 'FR_Wheel'];(0.0, 158.45408630371094, 0.0, 155.86473083496094, 0.0, 156.32337951660156, 0.0015339808305725455, 160.60012817382812);(0.0, 0.0, 0.0, 0.0, 0.0, 0.0, 0.0, 0.0);(5.380000114440918, 21.520000457763672, 0.0, 5.380000114440918, 0.0, -2.690000057220459, 0.0, 0.0)
2024/05/03/12:36:48.736503;29937;1714765008;741362151;;['BL_Position', 'BL_Wheel', 'BR_Position', 'BR_Wheel', 'FL_Position', 'FL_Wheel', 'FR_Position', 'FR_Wheel'];(0.0, 158.45254516601562, 0.0, 155.86473083496094, 0.0, 156.32337951660156, 0.0, 160.5985870361328);(0.0, 0.0, 0.0, 0.0, 0.0, 0.0, 0.0, 0.0);(5.380000114440918, 21.520000457763672, 0.0, 5.380000114440918, 0.0, -2.690000057220459, 0.0, 0.0)
2024/05/03/12:36:48.754160;29938;1714765008;757496809;;['BL_Position', 'BL_Wheel', 'BR_Position', 'BR_Wheel', 'FL_Position', 'FL_Wheel', 'FR_Position', 'FR_Wheel'];(0.0, 158.45254516601562, 0.0, 155.86473083496094, 0.0, 156.32337951660156, 0.0015339808305725455, 160.5985870361328);(0.0, 0.0, 0.0, 0.0, 0.0, 0.0, 0.0, 0.0);(5.380000114440918, 21.520000457763672, 0.0, 5.380000114440918, 0.0, -2.690000057220459, 0.0, 0.0)
2024/05/03/12:36:48.770700;29939;1714765008;773430040;;['BL_Position', 'BL_Wheel', 'BR_Position', 'BR_Wheel', 'FL_Position', 'FL_Wheel', 'FR_Position', 'FR_Wheel'];(0.0, 158.45408630371094, 0.0, 155.86473083496094, 0.0, 156.32337951660156, 0.0015339808305725455, 160.5985870361328);(0.0, 0.0, 0.0, 0.0, 0.0, 0.0, 0.0, 0.0);(5.380000114440918, 21.520000457763672, 0.0, 5.380000114440918, 0.0, -2.690000057220459, 0.0, 0.0)
2024/05/03/12:36:48.785431;29940;1714765008;789394531;;['BL_Position', 'BL_Wheel', 'BR_Position', 'BR_Wheel', 'FL_Position', 'FL_Wheel', 'FR_Position', 'FR_Wheel'];(0.0, 158.45408630371094, 0.0, 155.86473083496094, 0.0, 156.32337951660156, 0.0015339808305725455, 160.60012817382812);(0.0, 0.0, 0.0, 0.0, 0.0, 0.0, 0.0, 0.0);(5.380000114440918, 21.520000457763672, 0.0, 5.380000114440918, 0.0, -2.690000057220459, 0.0, 0.0)
2024/05/03/12:36:48.800428;29941;1714765008;805402004;;['BL_Position', 'BL_Wheel', 'BR_Position', 'BR_Wheel', 'FL_Position', 'FL_Wheel', 'FR_Position', 'FR_Wheel'];(0.0, 158.45408630371094, 0.0, 155.86473083496094, 0.0, 156.32337951660156, 0.0015339808305725455, 160.5985870361328);(0.0, 0.0, 0.0, 0.0, 0.0, 0.0, 0.0, 0.0);(2.690000057220459, 21.520000457763672, 0.0, 5.380000114440918, 0.0, -2.690000057220459, 0.0, 0.0)
2024/05/03/12:36:48.817670;29942;1714765008;821418513;;['BL_Position', 'BL_Wheel', 'BR_Position', 'BR_Wheel', 'FL_Position', 'FL_Wheel', 'FR_Position', 'FR_Wheel'];(0.0, 158.45408630371094, 0.0, 155.86473083496094, 0.0, 156.32337951660156, 0.0, 160.60012817382812);(0.0, 0.0, 0.0, 0.0, 0.0, 0.0, 0.0, 0.0);(2.690000057220459, 21.520000457763672, 0.0, 5.380000114440918, 0.0, -2.690000057220459, -2.690000057220459, 0.0)
2024/05/03/12:36:48.832547;29943;1714765008;837456522;;['BL_Position', 'BL_Wheel', 'BR_Position', 'BR_Wheel', 'FL_Position', 'FL_Wheel', 'FR_Position', 'FR_Wheel'];(0.0, 158.45254516601562, 0.0, 155.86473083496094, 0.0, 156.32337951660156, 0.0015339808305725455, 160.5985870361328);(0.0, 0.0, 0.0, 0.0, 0.0, 0.0, 0.0, 0.0);(5.380000114440918, 21.520000457763672, 0.0, 5.380000114440918, 0.0, -2.690000057220459, -2.690000057220459, 0.0)
2024/05/03/12:36:48.849045;29944;1714765008;853435458;;['BL_Position', 'BL_Wheel', 'BR_Position', 'BR_Wheel', 'FL_Position', 'FL_Wheel', 'FR_Position', 'FR_Wheel'];(0.0, 158.45408630371094, 0.0, 155.86473083496094, 0.0, 156.32337951660156, 0.0, 160.60012817382812);(0.0, 0.0, 0.0, 0.0, 0.0, 0.0, 0.0, 0.0);(5.380000114440918, 21.520000457763672, 0.0, 5.380000114440918, 0.0, -2.690000057220459, 0.0, 0.0)
2024/05/03/12:36:48.864458;29945;1714765008;869401245;;['BL_Position', 'BL_Wheel', 'BR_Position', 'BR_Wheel', 'FL_Position', 'FL_Wheel', 'FR_Position', 'FR_Wheel'];(0.0, 158.45408630371094, 0.0, 155.86473083496094, 0.0, 156.32337951660156, 0.0015339808305725455, 160.5985870361328);(0.0, 0.0, 0.0, 0.0, 0.0, 0.0, 0.0, 0.0);(5.380000114440918, 21.520000457763672, 0.0, 5.380000114440918, 0.0, -2.690000057220459, 0.0, 0.0)
2024/05/03/12:36:48.880961;29946;1714765008;885492717;;['BL_Position', 'BL_Wheel', 'BR_Position', 'BR_Wheel', 'FL_Position', 'FL_Wheel', 'FR_Position', 'FR_Wheel'];(0.0, 158.45408630371094, 0.0, 155.86473083496094, 0.0, 156.32337951660156, 0.0, 160.5985870361328);(0.0, 0.0, 0.0, 0.0, 0.0, 0.0, 0.0, 0.0);(5.380000114440918, 21.520000457763672, 0.0, 5.380000114440918, 0.0, -2.690000057220459, 0.0, 0.0)
2024/05/03/12:36:48.897345;29947;1714765008;901473542;;['BL_Position', 'BL_Wheel', 'BR_Position', 'BR_Wheel', 'FL_Position', 'FL_Wheel', 'FR_Position', 'FR_Wheel'];(0.0, 158.45408630371094, 0.0, 155.86473083496094, 0.0, 156.32337951660156, 0.0, 160.5985870361328);(0.0, 0.0, 0.0, 0.0, 0.0, 0.0, 0.0, 0.0);(5.380000114440918, 21.520000457763672, 0.0, 5.380000114440918, 0.0, -2.690000057220459, 0.0, 0.0)
2024/05/03/12:36:48.913245;29948;1714765008;917387014;;['BL_Position', 'BL_Wheel', 'BR_Position', 'BR_Wheel', 'FL_Position', 'FL_Wheel', 'FR_Position', 'FR_Wheel'];(0.0, 158.45254516601562, 0.0, 155.86473083496094, 0.0, 156.32337951660156, 0.0015339808305725455, 160.5985870361328);(0.0, 0.0, 0.0, 0.0, 0.0, 0.0, 0.0, 0.0);(5.380000114440918, 21.520000457763672, 0.0, 5.380000114440918, 0.0, -2.690000057220459, -5.380000114440918, 0.0)
2024/05/03/12:36:48.928504;29949;1714765008;933392690;;['BL_Position', 'BL_Wheel', 'BR_Position', 'BR_Wheel', 'FL_Position', 'FL_Wheel', 'FR_Position', 'FR_Wheel'];(0.0, 158.45408630371094, 0.0, 155.86473083496094, 0.0, 156.32337951660156, 0.0015339808305725455, 160.5985870361328);(0.0, 0.0, 0.0, 0.0, 0.0, 0.0, 0.0, 0.0);(5.380000114440918, 21.520000457763672, 0.0, 5.380000114440918, 0.0, -2.690000057220459, 0.0, 0.0)
2024/05/03/12:36:48.944610;29950;1714765008;949401940;;['BL_Position', 'BL_Wheel', 'BR_Position', 'BR_Wheel', 'FL_Position', 'FL_Wheel', 'FR_Position', 'FR_Wheel'];(0.0, 158.45408630371094, 0.0, 155.86473083496094, 0.0, 156.32337951660156, 0.0015339808305725455, 160.5985870361328);(0.0, 0.0, 0.0, 0.0, 0.0, 0.0, 0.0, 0.0);(2.690000057220459, 21.520000457763672, 0.0, 5.380000114440918, 0.0, -2.690000057220459, 0.0, 0.0)
2024/05/03/12:36:48.962879;29951;1714765008;965468431;;['BL_Position', 'BL_Wheel', 'BR_Position', 'BR_Wheel', 'FL_Position', 'FL_Wheel', 'FR_Position', 'FR_Wheel'];(0.0, 158.45254516601562, 0.0, 155.86473083496094, 0.0, 156.32337951660156, 0.0015339808305725455, 160.60012817382812);(0.0, 0.0, 0.0, 0.0, 0.0, 0.0, 0.0, 0.0);(2.690000057220459, 21.520000457763672, 0.0, 5.380000114440918, 0.0, -2.690000057220459, 0.0, 0.0)
2024/05/03/12:36:48.977149;29952;1714765008;981437107;;['BL_Position', 'BL_Wheel', 'BR_Position', 'BR_Wheel', 'FL_Position', 'FL_Wheel', 'FR_Position', 'FR_Wheel'];(0.0, 158.45254516601562, 0.0, 155.86473083496094, 0.0, 156.32337951660156, 0.0, 160.5985870361328);(0.0, 0.0, 0.0, 0.0, 0.0, 0.0, 0.0, 0.0);(2.690000057220459, 21.520000457763672, 0.0, 5.380000114440918, 0.0, -2.690000057220459, 0.0, 0.0)
2024/05/03/12:36:48.993066;29953;1714765008;997927709;;['BL_Position', 'BL_Wheel', 'BR_Position', 'BR_Wheel', 'FL_Position', 'FL_Wheel', 'FR_Position', 'FR_Wheel'];(0.0, 158.45254516601562, 0.0, 155.86473083496094, 0.0, 156.32337951660156, 0.0, 160.60012817382812);(0.0, 0.0, 0.0, 0.0, 0.0, 0.0, 0.0, 0.0);(0.0, 21.520000457763672, 0.0, 5.380000114440918, 0.0, -2.690000057220459, 0.0, 0.0)
2024/05/03/12:36:49.008443;29954;1714765009;13474533;;['BL_Position', 'BL_Wheel', 'BR_Position', 'BR_Wheel', 'FL_Position', 'FL_Wheel', 'FR_Position', 'FR_Wheel'];(0.0, 158.45408630371094, 0.0, 155.86473083496094, 0.0, 156.32337951660156, 0.0015339808305725455, 160.5985870361328);(0.0, 0.0, 0.0, 0.0, 0.0, 0.0, 0.0, 0.0);(0.0, 21.520000457763672, 0.0, 5.380000114440918, 0.0, -2.690000057220459, 0.0, 0.0)
2024/05/03/12:36:49.025949;29955;1714765009;29475635;;['BL_Position', 'BL_Wheel', 'BR_Position', 'BR_Wheel', 'FL_Position', 'FL_Wheel', 'FR_Position', 'FR_Wheel'];(0.0, 158.45254516601562, 0.0, 155.86473083496094, 0.0, 156.32337951660156, 0.0, 160.60012817382812);(0.0, 0.0, 0.0, 0.0, 0.0, 0.0, 0.0, 0.0);(0.0, 21.520000457763672, 0.0, 5.380000114440918, 0.0, -2.690000057220459, -2.690000057220459, 0.0)
2024/05/03/12:36:49.041407;29956;1714765009;45566200;;['BL_Position', 'BL_Wheel', 'BR_Position', 'BR_Wheel', 'FL_Position', 'FL_Wheel', 'FR_Position', 'FR_Wheel'];(0.0, 158.45408630371094, 0.0, 155.86473083496094, 0.0, 156.32337951660156, 0.0015339808305725455, 160.5985870361328);(0.0, 0.0, 0.0, 0.0, 0.0, 0.0, 0.0, 0.0);(0.0, 21.520000457763672, 0.0, 5.380000114440918, 0.0, -2.690000057220459, 0.0, 0.0)
2024/05/03/12:36:49.061163;29957;1714765009;61415210;;['BL_Position', 'BL_Wheel', 'BR_Position', 'BR_Wheel', 'FL_Position', 'FL_Wheel', 'FR_Position', 'FR_Wheel'];(0.0, 158.45408630371094, 0.0, 155.86473083496094, 0.0, 156.32337951660156, 0.0, 160.5985870361328);(0.0, 0.0, 0.0, 0.0, 0.0, 0.0, 0.0, 0.0);(0.0, 21.520000457763672, 0.0, 5.380000114440918, 0.0, -2.690000057220459, 0.0, 0.0)
2024/05/03/12:36:49.072498;29958;1714765009;77398849;;['BL_Position', 'BL_Wheel', 'BR_Position', 'BR_Wheel', 'FL_Position', 'FL_Wheel', 'FR_Position', 'FR_Wheel'];(0.0, 158.45254516601562, 0.0, 155.86473083496094, 0.0, 156.32337951660156, 0.0015339808305725455, 160.5985870361328);(0.0, 0.0, 0.0, 0.0, 0.0, 0.0, 0.0, 0.0);(0.0, 21.520000457763672, 0.0, 5.380000114440918, 0.0, -2.690000057220459, 0.0, 0.0)
2024/05/03/12:36:49.088371;29959;1714765009;93364784;;['BL_Position', 'BL_Wheel', 'BR_Position', 'BR_Wheel', 'FL_Position', 'FL_Wheel', 'FR_Position', 'FR_Wheel'];(0.0, 158.45408630371094, 0.0, 155.86473083496094, 0.0, 156.32337951660156, 0.0015339808305725455, 160.60012817382812);(0.0, 0.0, 0.0, 0.0, 0.0, 0.0, 0.0, 0.0);(0.0, 21.520000457763672, 0.0, 5.380000114440918, 0.0, -2.690000057220459, 0.0, 0.0)
2024/05/03/12:36:49.104510;29960;1714765009;109357960;;['BL_Position', 'BL_Wheel', 'BR_Position', 'BR_Wheel', 'FL_Position', 'FL_Wheel', 'FR_Position', 'FR_Wheel'];(0.0, 158.45408630371094, 0.0, 155.86473083496094, 0.0, 156.32337951660156, 0.0015339808305725455, 160.60012817382812);(0.0, 0.0, 0.0, 0.0, 0.0, 0.0, 0.0, 0.0);(0.0, 21.520000457763672, 0.0, 5.380000114440918, 0.0, -2.690000057220459, -2.690000057220459, 0.0)
2024/05/03/12:36:49.121653;29961;1714765009;125354248;;['BL_Position', 'BL_Wheel', 'BR_Position', 'BR_Wheel', 'FL_Position', 'FL_Wheel', 'FR_Position', 'FR_Wheel'];(0.0, 158.45254516601562, 0.0, 155.86473083496094, 0.0, 156.32337951660156, 0.0015339808305725455, 160.5985870361328);(0.0, 0.0, 0.0, 0.0, 0.0, 0.0, 0.0, 0.0);(0.0, 21.520000457763672, 0.0, 5.380000114440918, 0.0, -2.690000057220459, 0.0, 0.0)
2024/05/03/12:36:49.135176;29962;1714765009;141334053;;['BL_Position', 'BL_Wheel', 'BR_Position', 'BR_Wheel', 'FL_Position', 'FL_Wheel', 'FR_Position', 'FR_Wheel'];(0.0, 158.45408630371094, 0.0, 155.86473083496094, 0.0, 156.3218536376953, 0.0, 160.60012817382812);(0.0, 0.0, 0.0, 0.0, 0.0, 0.0, 0.0, 0.0);(0.0, 21.520000457763672, 0.0, 5.380000114440918, 0.0, -2.690000057220459, 0.0, 0.0)
2024/05/03/12:36:49.152548;29963;1714765009;157512155;;['BL_Position', 'BL_Wheel', 'BR_Position', 'BR_Wheel', 'FL_Position', 'FL_Wheel', 'FR_Position', 'FR_Wheel'];(0.0, 158.45408630371094, 0.0, 155.86473083496094, 0.0, 156.32337951660156, 0.0, 160.5985870361328);(0.0, 0.0, 0.0, 0.0, 0.0, 0.0, 0.0, 0.0);(0.0, 21.520000457763672, 0.0, 5.380000114440918, 0.0, -2.690000057220459, -2.690000057220459, 0.0)
2024/05/03/12:36:49.169177;29964;1714765009;175053571;;['BL_Position', 'BL_Wheel', 'BR_Position', 'BR_Wheel', 'FL_Position', 'FL_Wheel', 'FR_Position', 'FR_Wheel'];(0.0, 158.45254516601562, 0.0, 155.86473083496094, 0.0, 156.32337951660156, 0.0, 160.5985870361328);(0.0, 0.0, 0.0, 0.0, 0.0, 0.0, 0.0, 0.0);(0.0, 21.520000457763672, 0.0, 5.380000114440918, 0.0, -2.690000057220459, 0.0, 0.0)
2024/05/03/12:36:49.184504;29965;1714765009;189415137;;['BL_Position', 'BL_Wheel', 'BR_Position', 'BR_Wheel', 'FL_Position', 'FL_Wheel', 'FR_Position', 'FR_Wheel'];(0.0, 158.45408630371094, 0.0, 155.86473083496094, 0.0, 156.32337951660156, 0.0, 160.5985870361328);(0.0, 0.0, 0.0, 0.0, 0.0, 0.0, 0.0, 0.0);(0.0, 21.520000457763672, 0.0, 5.380000114440918, 0.0, -2.690000057220459, 0.0, 0.0)
2024/05/03/12:36:49.200748;29966;1714765009;205402980;;['BL_Position', 'BL_Wheel', 'BR_Position', 'BR_Wheel', 'FL_Position', 'FL_Wheel', 'FR_Position', 'FR_Wheel'];(0.0, 158.45408630371094, 0.0, 155.86318969726562, 0.0, 156.32337951660156, 0.0, 160.5985870361328);(0.0, 0.0, 0.0, 0.0, 0.0, 0.0, 0.0, 0.0);(0.0, 21.520000457763672, 0.0, 5.380000114440918, 0.0, -2.690000057220459, 0.0, 0.0)
2024/05/03/12:36:49.215477;29967;1714765009;221425897;;['BL_Position', 'BL_Wheel', 'BR_Position', 'BR_Wheel', 'FL_Position', 'FL_Wheel', 'FR_Position', 'FR_Wheel'];(0.0, 158.45408630371094, 0.0, 155.86473083496094, 0.0, 156.32337951660156, 0.0015339808305725455, 160.5985870361328);(0.0, 0.0, 0.0, 0.0, 0.0, 0.0, 0.0, 0.0);(0.0, 21.520000457763672, 0.0, 5.380000114440918, 0.0, -2.690000057220459, 0.0, 0.0)
2024/05/03/12:36:49.232848;29968;1714765009;237433758;;['BL_Position', 'BL_Wheel', 'BR_Position', 'BR_Wheel', 'FL_Position', 'FL_Wheel', 'FR_Position', 'FR_Wheel'];(0.0, 158.45408630371094, 0.0, 155.86473083496094, 0.0, 156.32337951660156, 0.0015339808305725455, 160.5985870361328);(0.0, 0.0, 0.0, 0.0, 0.0, 0.0, 0.0, 0.0);(0.0, 21.520000457763672, 0.0, 5.380000114440918, 0.0, -2.690000057220459, 0.0, 0.0)
2024/05/03/12:36:49.248334;29969;1714765009;253419212;;['BL_Position', 'BL_Wheel', 'BR_Position', 'BR_Wheel', 'FL_Position', 'FL_Wheel', 'FR_Position', 'FR_Wheel'];(0.0, 158.45408630371094, 0.0, 155.86473083496094, 0.0, 156.32337951660156, 0.0015339808305725455, 160.60012817382812);(0.0, 0.0, 0.0, 0.0, 0.0, 0.0, 0.0, 0.0);(0.0, 21.520000457763672, 0.0, 5.380000114440918, 0.0, -2.690000057220459, 0.0, 0.0)
2024/05/03/12:36:49.269233;29970;1714765009;269413999;;['BL_Position', 'BL_Wheel', 'BR_Position', 'BR_Wheel', 'FL_Position', 'FL_Wheel', 'FR_Position', 'FR_Wheel'];(0.0, 158.45408630371094, 0.0, 155.86473083496094, 0.0, 156.32337951660156, 0.0015339808305725455, 160.5985870361328);(0.0, 0.0, 0.0, 0.0, 0.0, 0.0, 0.0, 0.0);(0.0, 21.520000457763672, 0.0, 5.380000114440918, 0.0, -2.690000057220459, 0.0, 0.0)
2024/05/03/12:36:49.282783;29971;1714765009;285379212;;['BL_Position', 'BL_Wheel', 'BR_Position', 'BR_Wheel', 'FL_Position', 'FL_Wheel', 'FR_Position', 'FR_Wheel'];(0.0, 158.45408630371094, 0.0, 155.86473083496094, 0.0, 156.32337951660156, 0.0015339808305725455, 160.60012817382812);(0.0, 0.0, 0.0, 0.0, 0.0, 0.0, 0.0, 0.0);(0.0, 21.520000457763672, 0.0, 5.380000114440918, 0.0, -2.690000057220459, 0.0, 0.0)
2024/05/03/12:36:49.297162;29972;1714765009;301428092;;['BL_Position', 'BL_Wheel', 'BR_Position', 'BR_Wheel', 'FL_Position', 'FL_Wheel', 'FR_Position', 'FR_Wheel'];(0.0, 158.45408630371094, 0.0, 155.86473083496094, 0.0, 156.32337951660156, 0.0, 160.5985870361328);(0.0, 0.0, 0.0, 0.0, 0.0, 0.0, 0.0, 0.0);(0.0, 21.520000457763672, 0.0, 5.380000114440918, 0.0, -2.690000057220459, 0.0, 0.0)
2024/05/03/12:36:49.312509;29973;1714765009;317455861;;['BL_Position', 'BL_Wheel', 'BR_Position', 'BR_Wheel', 'FL_Position', 'FL_Wheel', 'FR_Position', 'FR_Wheel'];(0.0, 158.45254516601562, 0.0, 155.86473083496094, 0.0, 156.32337951660156, 0.0015339808305725455, 160.60012817382812);(0.0, 0.0, 0.0, 0.0, 0.0, 0.0, 0.0, 0.0);(0.0, 21.520000457763672, 0.0, 5.380000114440918, 0.0, -2.690000057220459, 0.0, 0.0)
2024/05/03/12:36:49.330023;29974;1714765009;333451870;;['BL_Position', 'BL_Wheel', 'BR_Position', 'BR_Wheel', 'FL_Position', 'FL_Wheel', 'FR_Position', 'FR_Wheel'];(0.0, 158.45254516601562, 0.0, 155.86473083496094, 0.0, 156.32337951660156, 0.0015339808305725455, 160.5985870361328);(0.0, 0.0, 0.0, 0.0, 0.0, 0.0, 0.0, 0.0);(0.0, 21.520000457763672, 0.0, 5.380000114440918, 0.0, -2.690000057220459, 0.0, 0.0)
2024/05/03/12:36:49.345117;29975;1714765009;349473824;;['BL_Position', 'BL_Wheel', 'BR_Position', 'BR_Wheel', 'FL_Position', 'FL_Wheel', 'FR_Position', 'FR_Wheel'];(0.0, 158.45408630371094, 0.0, 155.86473083496094, 0.0, 156.32337951660156, 0.0015339808305725455, 160.5985870361328);(0.0, 0.0, 0.0, 0.0, 0.0, 0.0, 0.0, 0.0);(0.0, 21.520000457763672, 0.0, 5.380000114440918, 0.0, -2.690000057220459, -2.690000057220459, 0.0)
2024/05/03/12:36:49.360271;29976;1714765009;365388260;;['BL_Position', 'BL_Wheel', 'BR_Position', 'BR_Wheel', 'FL_Position', 'FL_Wheel', 'FR_Position', 'FR_Wheel'];(0.0, 158.45408630371094, 0.0, 155.86473083496094, 0.0, 156.32337951660156, 0.0015339808305725455, 160.5985870361328);(0.0, 0.0, 0.0, 0.0, 0.0, 0.0, 0.0, 0.0);(0.0, 21.520000457763672, 0.0, 5.380000114440918, 0.0, -2.690000057220459, 0.0, 0.0)
2024/05/03/12:36:49.377509;29977;1714765009;381764695;;['BL_Position', 'BL_Wheel', 'BR_Position', 'BR_Wheel', 'FL_Position', 'FL_Wheel', 'FR_Position', 'FR_Wheel'];(0.0, 158.45408630371094, 0.0, 155.86473083496094, 0.0, 156.32337951660156, 0.0015339808305725455, 160.5985870361328);(0.0, 0.0, 0.0, 0.0, 0.0, 0.0, 0.0, 0.0);(0.0, 21.520000457763672, 0.0, 5.380000114440918, 0.0, -2.690000057220459, 0.0, 0.0)
2024/05/03/12:36:49.393096;29978;1714765009;397409278;;['BL_Position', 'BL_Wheel', 'BR_Position', 'BR_Wheel', 'FL_Position', 'FL_Wheel', 'FR_Position', 'FR_Wheel'];(0.0, 158.45408630371094, 0.0, 155.86473083496094, 0.0, 156.32337951660156, 0.0015339808305725455, 160.60012817382812);(0.0, 0.0, 0.0, 0.0, 0.0, 0.0, 0.0, 0.0);(0.0, 21.520000457763672, 0.0, 5.380000114440918, 0.0, -2.690000057220459, 0.0, 0.0)
2024/05/03/12:36:49.411519;29979;1714765009;418100118;;['BL_Position', 'BL_Wheel', 'BR_Position', 'BR_Wheel', 'FL_Position', 'FL_Wheel', 'FR_Position', 'FR_Wheel'];(0.0, 158.45408630371094, 0.0, 155.86473083496094, 0.0, 156.32337951660156, 0.0015339808305725455, 160.5985870361328);(0.0, 0.0, 0.0, 0.0, 0.0, 0.0, 0.0, 0.0);(0.0, 21.520000457763672, 0.0, 5.380000114440918, 0.0, -2.690000057220459, 0.0, 0.0)
2024/05/03/12:36:49.424664;29980;1714765009;429380723;;['BL_Position', 'BL_Wheel', 'BR_Position', 'BR_Wheel', 'FL_Position', 'FL_Wheel', 'FR_Position', 'FR_Wheel'];(0.0, 158.45254516601562, 0.0, 155.86473083496094, 0.0, 156.32337951660156, 0.0015339808305725455, 160.60012817382812);(0.0, 0.0, 0.0, 0.0, 0.0, 0.0, 0.0, 0.0);(0.0, 21.520000457763672, 0.0, 5.380000114440918, 0.0, -2.690000057220459, 0.0, 0.0)
2024/05/03/12:36:49.440573;29981;1714765009;446373417;;['BL_Position', 'BL_Wheel', 'BR_Position', 'BR_Wheel', 'FL_Position', 'FL_Wheel', 'FR_Position', 'FR_Wheel'];(0.0, 158.45408630371094, 0.0, 155.86473083496094, 0.0, 156.32337951660156, 0.0015339808305725455, 160.5985870361328);(0.0, 0.0, 0.0, 0.0, 0.0, 0.0, 0.0, 0.0);(0.0, 21.520000457763672, 0.0, 5.380000114440918, 0.0, -2.690000057220459, 0.0, 0.0)
