time;.header.seq;.header.stamp.secs;.header.stamp.nsecs;.header.frame_id;.name;.position;.velocity;.effort
2024/05/03/13:29:16.698747;226694;1714768156;737617004;;['BL_Position', 'BL_Wheel', 'BR_Position', 'BR_Wheel', 'FL_Position', 'FL_Wheel', 'FR_Position', 'FR_Wheel'];(0.7838642001152039, 2706.14306640625, -0.7838642001152039, 3024.4794921875, -0.7869321703910828, 2704.566162109375, 0.7853981852531433, 3028.87744140625);(0.0, 0.0, 0.0, 0.0, 0.0, 0.0, 0.0, 0.0);(26.900001525878906, -110.29000091552734, -24.21000099182129, 2.690000057220459, 5.380000114440918, 0.0, 2.690000057220459, -8.069999694824219)
2024/05/03/13:29:16.715065;226695;1714768156;753572244;;['BL_Position', 'BL_Wheel', 'BR_Position', 'BR_Wheel', 'FL_Position', 'FL_Wheel', 'FR_Position', 'FR_Wheel'];(0.7823302149772644, 2706.14306640625, -0.7838642001152039, 3024.4794921875, -0.7884661555290222, 2704.566162109375, 0.7853981852531433, 3028.87744140625);(0.0, 0.0, 0.0, 0.0, 0.0, 0.0, 0.0, 0.0);(24.21000099182129, -110.29000091552734, -26.900001525878906, 2.690000057220459, 18.829999923706055, 0.0, 2.690000057220459, -8.069999694824219)
2024/05/03/13:29:16.741881;226696;1714768156;769633374;;['BL_Position', 'BL_Wheel', 'BR_Position', 'BR_Wheel', 'FL_Position', 'FL_Wheel', 'FR_Position', 'FR_Wheel'];(0.7838642001152039, 2706.14306640625, -0.7838642001152039, 3024.4794921875, -0.7884661555290222, 2704.566162109375, 0.7853981852531433, 3028.87744140625);(0.0, 0.0, 0.0, 0.0, 0.0, 0.0, 0.0, 0.0);(24.21000099182129, -110.29000091552734, -24.21000099182129, 2.690000057220459, 10.760000228881836, 0.0, 2.690000057220459, -8.069999694824219)
2024/05/03/13:29:16.747072;226697;1714768156;785599744;;['BL_Position', 'BL_Wheel', 'BR_Position', 'BR_Wheel', 'FL_Position', 'FL_Wheel', 'FR_Position', 'FR_Wheel'];(0.7823302149772644, 2706.14306640625, -0.7838642001152039, 3024.4794921875, -0.7884661555290222, 2704.567626953125, 0.7853981852531433, 3028.87744140625);(0.0, 0.0, 0.0, 0.0, 0.0, 0.0, 0.0, 0.0);(21.520000457763672, -110.29000091552734, -24.21000099182129, 2.690000057220459, 5.380000114440918, 0.0, 2.690000057220459, -5.380000114440918)
2024/05/03/13:29:16.764848;226698;1714768156;801664447;;['BL_Position', 'BL_Wheel', 'BR_Position', 'BR_Wheel', 'FL_Position', 'FL_Wheel', 'FR_Position', 'FR_Wheel'];(0.7823302149772644, 2706.1416015625, -0.7838642001152039, 3024.4794921875, -0.7869321703910828, 2704.566162109375, 0.7853981852531433, 3028.87744140625);(0.0, 0.0, 0.0, 0.0, 0.0, 0.0, 0.0, 0.0);(21.520000457763672, -110.29000091552734, -26.900001525878906, 2.690000057220459, 5.380000114440918, 0.0, 2.690000057220459, -5.380000114440918)
2024/05/03/13:29:16.777565;226699;1714768156;817812891;;['BL_Position', 'BL_Wheel', 'BR_Position', 'BR_Wheel', 'FL_Position', 'FL_Wheel', 'FR_Position', 'FR_Wheel'];(0.7823302149772644, 2706.14306640625, -0.7838642001152039, 3024.4794921875, -0.7869321703910828, 2704.566162109375, 0.7838642001152039, 3028.87744140625);(0.0, 0.0, 0.0, 0.0, 0.0, 0.0, 0.0, 0.0);(29.59000015258789, -110.29000091552734, -24.21000099182129, 2.690000057220459, 13.450000762939453, 0.0, 2.690000057220459, -5.380000114440918)
2024/05/03/13:29:16.794907;226700;1714768156;833601835;;['BL_Position', 'BL_Wheel', 'BR_Position', 'BR_Wheel', 'FL_Position', 'FL_Wheel', 'FR_Position', 'FR_Wheel'];(0.7838642001152039, 2706.14306640625, -0.7838642001152039, 3024.4794921875, -0.7869321703910828, 2704.566162109375, 0.7853981852531433, 3028.87744140625);(0.0, 0.0, 0.0, 0.0, 0.0, 0.0, 0.0, 0.0);(21.520000457763672, -110.29000091552734, -24.21000099182129, 2.690000057220459, 5.380000114440918, 0.0, 5.380000114440918, -5.380000114440918)
2024/05/03/13:29:16.811351;226701;1714768156;849570539;;['BL_Position', 'BL_Wheel', 'BR_Position', 'BR_Wheel', 'FL_Position', 'FL_Wheel', 'FR_Position', 'FR_Wheel'];(0.7838642001152039, 2706.14306640625, -0.7838642001152039, 3024.4794921875, -0.7869321703910828, 2704.567626953125, 0.7853981852531433, 3028.87744140625);(0.0, 0.0, 0.0, 0.0, 0.0, 0.0, 0.0, 0.0);(26.900001525878906, -110.29000091552734, -24.21000099182129, 2.690000057220459, 2.690000057220459, 0.0, 2.690000057220459, -5.380000114440918)
2024/05/03/13:29:16.826031;226702;1714768156;865571446;;['BL_Position', 'BL_Wheel', 'BR_Position', 'BR_Wheel', 'FL_Position', 'FL_Wheel', 'FR_Position', 'FR_Wheel'];(0.7838642001152039, 2706.1416015625, -0.7838642001152039, 3024.4794921875, -0.7869321703910828, 2704.567626953125, 0.7853981852531433, 3028.87744140625);(0.0, 0.0, 0.0, 0.0, 0.0, 0.0, 0.0, 0.0);(21.520000457763672, -110.29000091552734, -26.900001525878906, 2.690000057220459, 5.380000114440918, 0.0, 2.690000057220459, -5.380000114440918)
2024/05/03/13:29:16.843585;226703;1714768156;881553593;;['BL_Position', 'BL_Wheel', 'BR_Position', 'BR_Wheel', 'FL_Position', 'FL_Wheel', 'FR_Position', 'FR_Wheel'];(0.7823302149772644, 2706.14306640625, -0.7838642001152039, 3024.4794921875, -0.7884661555290222, 2704.566162109375, 0.7853981852531433, 3028.87744140625);(0.0, 0.0, 0.0, 0.0, 0.0, 0.0, 0.0, 0.0);(24.21000099182129, -110.29000091552734, -24.21000099182129, 2.690000057220459, 10.760000228881836, 0.0, 2.690000057220459, -5.380000114440918)
2024/05/03/13:29:16.863616;226704;1714768156;897612352;;['BL_Position', 'BL_Wheel', 'BR_Position', 'BR_Wheel', 'FL_Position', 'FL_Wheel', 'FR_Position', 'FR_Wheel'];(0.7823302149772644, 2706.14306640625, -0.7838642001152039, 3024.4794921875, -0.7869321703910828, 2704.567626953125, 0.7853981852531433, 3028.87744140625);(0.0, 0.0, 0.0, 0.0, 0.0, 0.0, 0.0, 0.0);(26.900001525878906, -110.29000091552734, -24.21000099182129, 2.690000057220459, 8.069999694824219, 0.0, 2.690000057220459, -5.380000114440918)
2024/05/03/13:29:16.875830;226705;1714768156;913695500;;['BL_Position', 'BL_Wheel', 'BR_Position', 'BR_Wheel', 'FL_Position', 'FL_Wheel', 'FR_Position', 'FR_Wheel'];(0.7838642001152039, 2706.14306640625, -0.7838642001152039, 3024.4794921875, -0.7884661555290222, 2704.566162109375, 0.7853981852531433, 3028.87744140625);(0.0, 0.0, 0.0, 0.0, 0.0, 0.0, 0.0, 0.0);(21.520000457763672, -110.29000091552734, -26.900001525878906, 2.690000057220459, 2.690000057220459, 0.0, 2.690000057220459, -5.380000114440918)
2024/05/03/13:29:16.890489;226706;1714768156;929632815;;['BL_Position', 'BL_Wheel', 'BR_Position', 'BR_Wheel', 'FL_Position', 'FL_Wheel', 'FR_Position', 'FR_Wheel'];(0.7838642001152039, 2706.14306640625, -0.7838642001152039, 3024.4794921875, -0.7869321703910828, 2704.566162109375, 0.7853981852531433, 3028.87744140625);(0.0, 0.0, 0.0, 0.0, 0.0, 0.0, 0.0, 0.0);(24.21000099182129, -110.29000091552734, -26.900001525878906, 2.690000057220459, 10.760000228881836, 0.0, 5.380000114440918, -5.380000114440918)
2024/05/03/13:29:16.906626;226707;1714768156;945608407;;['BL_Position', 'BL_Wheel', 'BR_Position', 'BR_Wheel', 'FL_Position', 'FL_Wheel', 'FR_Position', 'FR_Wheel'];(0.7838642001152039, 2706.1416015625, -0.7838642001152039, 3024.4794921875, -0.7869321703910828, 2704.566162109375, 0.7853981852531433, 3028.87744140625);(0.0, 0.0, 0.0, 0.0, 0.0, 0.0, 0.0, 0.0);(26.900001525878906, -110.29000091552734, -24.21000099182129, 2.690000057220459, 13.450000762939453, 0.0, 5.380000114440918, -5.380000114440918)
2024/05/03/13:29:16.922940;226708;1714768156;961639444;;['BL_Position', 'BL_Wheel', 'BR_Position', 'BR_Wheel', 'FL_Position', 'FL_Wheel', 'FR_Position', 'FR_Wheel'];(0.7823302149772644, 2706.14306640625, -0.7838642001152039, 3024.4794921875, -0.7869321703910828, 2704.566162109375, 0.7838642001152039, 3028.87744140625);(0.0, 0.0, 0.0, 0.0, 0.0, 0.0, 0.0, 0.0);(24.21000099182129, -110.29000091552734, -26.900001525878906, 2.690000057220459, 13.450000762939453, 0.0, 5.380000114440918, -5.380000114440918)
2024/05/03/13:29:16.947110;226709;1714768156;977605203;;['BL_Position', 'BL_Wheel', 'BR_Position', 'BR_Wheel', 'FL_Position', 'FL_Wheel', 'FR_Position', 'FR_Wheel'];(0.7823302149772644, 2706.14306640625, -0.7838642001152039, 3024.4794921875, -0.7869321703910828, 2704.566162109375, 0.7853981852531433, 3028.87744140625);(0.0, 0.0, 0.0, 0.0, 0.0, 0.0, 0.0, 0.0);(24.21000099182129, -110.29000091552734, -26.900001525878906, 2.690000057220459, 5.380000114440918, 0.0, 2.690000057220459, -5.380000114440918)
2024/05/03/13:29:16.954485;226710;1714768156;993571795;;['BL_Position', 'BL_Wheel', 'BR_Position', 'BR_Wheel', 'FL_Position', 'FL_Wheel', 'FR_Position', 'FR_Wheel'];(0.7838642001152039, 2706.14306640625, -0.7838642001152039, 3024.4794921875, -0.7869321703910828, 2704.566162109375, 0.7838642001152039, 3028.87744140625);(0.0, 0.0, 0.0, 0.0, 0.0, 0.0, 0.0, 0.0);(26.900001525878906, -110.29000091552734, -24.21000099182129, 2.690000057220459, 5.380000114440918, 0.0, 2.690000057220459, -5.380000114440918)
2024/05/03/13:29:16.971827;226711;1714768157;9615276;;['BL_Position', 'BL_Wheel', 'BR_Position', 'BR_Wheel', 'FL_Position', 'FL_Wheel', 'FR_Position', 'FR_Wheel'];(0.7838642001152039, 2706.14306640625, -0.7838642001152039, 3024.4794921875, -0.7869321703910828, 2704.566162109375, 0.7853981852531433, 3028.87744140625);(0.0, 0.0, 0.0, 0.0, 0.0, 0.0, 0.0, 0.0);(26.900001525878906, -110.29000091552734, -26.900001525878906, 2.690000057220459, 5.380000114440918, 0.0, 2.690000057220459, -5.380000114440918)
2024/05/03/13:29:16.987917;226712;1714768157;25580072;;['BL_Position', 'BL_Wheel', 'BR_Position', 'BR_Wheel', 'FL_Position', 'FL_Wheel', 'FR_Position', 'FR_Wheel'];(0.7823302149772644, 2706.14306640625, -0.7838642001152039, 3024.4794921875, -0.7869321703910828, 2704.566162109375, 0.7853981852531433, 3028.87744140625);(0.0, 0.0, 0.0, 0.0, 0.0, 0.0, 0.0, 0.0);(26.900001525878906, -110.29000091552734, -26.900001525878906, 2.690000057220459, 5.380000114440918, 0.0, 2.690000057220459, -5.380000114440918)
2024/05/03/13:29:17.002720;226713;1714768157;41532738;;['BL_Position', 'BL_Wheel', 'BR_Position', 'BR_Wheel', 'FL_Position', 'FL_Wheel', 'FR_Position', 'FR_Wheel'];(0.7838642001152039, 2706.14306640625, -0.7838642001152039, 3024.4794921875, -0.7884661555290222, 2704.567626953125, 0.7853981852531433, 3028.87744140625);(0.0, 0.0, 0.0, 0.0, 0.0, 0.0, 0.0, 0.0);(24.21000099182129, -110.29000091552734, -26.900001525878906, 2.690000057220459, 5.380000114440918, 0.0, 5.380000114440918, -5.380000114440918)
2024/05/03/13:29:17.018496;226714;1714768157;57532645;;['BL_Position', 'BL_Wheel', 'BR_Position', 'BR_Wheel', 'FL_Position', 'FL_Wheel', 'FR_Position', 'FR_Wheel'];(0.7823302149772644, 2706.1416015625, -0.7838642001152039, 3024.4794921875, -0.7884661555290222, 2704.566162109375, 0.7853981852531433, 3028.87744140625);(0.0, 0.0, 0.0, 0.0, 0.0, 0.0, 0.0, 0.0);(21.520000457763672, -110.29000091552734, -24.21000099182129, 2.690000057220459, 8.069999694824219, 0.0, 2.690000057220459, -5.380000114440918)
2024/05/03/13:29:17.034332;226715;1714768157;73547552;;['BL_Position', 'BL_Wheel', 'BR_Position', 'BR_Wheel', 'FL_Position', 'FL_Wheel', 'FR_Position', 'FR_Wheel'];(0.7838642001152039, 2706.1416015625, -0.7838642001152039, 3024.4794921875, -0.7884661555290222, 2704.566162109375, 0.7853981852531433, 3028.87744140625);(0.0, 0.0, 0.0, 0.0, 0.0, 0.0, 0.0, 0.0);(21.520000457763672, -110.29000091552734, -24.21000099182129, 2.690000057220459, 10.760000228881836, 0.0, 2.690000057220459, -5.380000114440918)
2024/05/03/13:29:17.051313;226716;1714768157;89701200;;['BL_Position', 'BL_Wheel', 'BR_Position', 'BR_Wheel', 'FL_Position', 'FL_Wheel', 'FR_Position', 'FR_Wheel'];(0.7838642001152039, 2706.14306640625, -0.7838642001152039, 3024.4794921875, -0.7884661555290222, 2704.566162109375, 0.7853981852531433, 3028.87744140625);(0.0, 0.0, 0.0, 0.0, 0.0, 0.0, 0.0, 0.0);(32.279998779296875, -110.29000091552734, -24.21000099182129, 2.690000057220459, 5.380000114440918, 0.0, 2.690000057220459, -5.380000114440918)
2024/05/03/13:29:17.071609;226717;1714768157;105641441;;['BL_Position', 'BL_Wheel', 'BR_Position', 'BR_Wheel', 'FL_Position', 'FL_Wheel', 'FR_Position', 'FR_Wheel'];(0.7838642001152039, 2706.1416015625, -0.7823302149772644, 3024.4794921875, -0.7869321703910828, 2704.566162109375, 0.7838642001152039, 3028.87744140625);(0.0, 0.0, 0.0, 0.0, 0.0, 0.0, 0.0, 0.0);(26.900001525878906, -110.29000091552734, -24.21000099182129, 2.690000057220459, 5.380000114440918, 0.0, 2.690000057220459, -5.380000114440918)
2024/05/03/13:29:17.084586;226718;1714768157;121623144;;['BL_Position', 'BL_Wheel', 'BR_Position', 'BR_Wheel', 'FL_Position', 'FL_Wheel', 'FR_Position', 'FR_Wheel'];(0.7823302149772644, 2706.14306640625, -0.7838642001152039, 3024.4794921875, -0.7884661555290222, 2704.566162109375, 0.7853981852531433, 3028.87744140625);(0.0, 0.0, 0.0, 0.0, 0.0, 0.0, 0.0, 0.0);(21.520000457763672, -110.29000091552734, -24.21000099182129, 2.690000057220459, 8.069999694824219, 0.0, 2.690000057220459, -5.380000114440918)
2024/05/03/13:29:17.098730;226719;1714768157;137714829;;['BL_Position', 'BL_Wheel', 'BR_Position', 'BR_Wheel', 'FL_Position', 'FL_Wheel', 'FR_Position', 'FR_Wheel'];(0.7823302149772644, 2706.14306640625, -0.7838642001152039, 3024.4794921875, -0.7869321703910828, 2704.566162109375, 0.7853981852531433, 3028.87744140625);(0.0, 0.0, 0.0, 0.0, 0.0, 0.0, 0.0, 0.0);(26.900001525878906, -110.29000091552734, -24.21000099182129, 2.690000057220459, 16.139999389648438, 0.0, 2.690000057220459, -5.380000114440918)
2024/05/03/13:29:17.114700;226720;1714768157;153606977;;['BL_Position', 'BL_Wheel', 'BR_Position', 'BR_Wheel', 'FL_Position', 'FL_Wheel', 'FR_Position', 'FR_Wheel'];(0.7838642001152039, 2706.14306640625, -0.7838642001152039, 3024.4794921875, -0.7869321703910828, 2704.566162109375, 0.7853981852531433, 3028.87744140625);(0.0, 0.0, 0.0, 0.0, 0.0, 0.0, 0.0, 0.0);(24.21000099182129, -110.29000091552734, -24.21000099182129, 2.690000057220459, 8.069999694824219, 0.0, 2.690000057220459, -5.380000114440918)
2024/05/03/13:29:17.130841;226721;1714768157;169597661;;['BL_Position', 'BL_Wheel', 'BR_Position', 'BR_Wheel', 'FL_Position', 'FL_Wheel', 'FR_Position', 'FR_Wheel'];(0.7838642001152039, 2706.14306640625, -0.7838642001152039, 3024.4794921875, -0.7869321703910828, 2704.566162109375, 0.7853981852531433, 3028.87744140625);(0.0, 0.0, 0.0, 0.0, 0.0, 0.0, 0.0, 0.0);(18.829999923706055, -110.29000091552734, -26.900001525878906, 2.690000057220459, 5.380000114440918, 0.0, 2.690000057220459, -5.380000114440918)
2024/05/03/13:29:17.150980;226722;1714768157;185548402;;['BL_Position', 'BL_Wheel', 'BR_Position', 'BR_Wheel', 'FL_Position', 'FL_Wheel', 'FR_Position', 'FR_Wheel'];(0.7838642001152039, 2706.14306640625, -0.7838642001152039, 3024.4794921875, -0.7869321703910828, 2704.566162109375, 0.7853981852531433, 3028.87744140625);(0.0, 0.0, 0.0, 0.0, 0.0, 0.0, 0.0, 0.0);(21.520000457763672, -110.29000091552734, -24.21000099182129, 2.690000057220459, 5.380000114440918, 0.0, 5.380000114440918, -5.380000114440918)
2024/05/03/13:29:17.173506;226723;1714768157;201588087;;['BL_Position', 'BL_Wheel', 'BR_Position', 'BR_Wheel', 'FL_Position', 'FL_Wheel', 'FR_Position', 'FR_Wheel'];(0.7823302149772644, 2706.14306640625, -0.7838642001152039, 3024.4794921875, -0.7884661555290222, 2704.566162109375, 0.7853981852531433, 3028.87744140625);(0.0, 0.0, 0.0, 0.0, 0.0, 0.0, 0.0, 0.0);(26.900001525878906, -110.29000091552734, -24.21000099182129, 2.690000057220459, 5.380000114440918, 0.0, 2.690000057220459, -5.380000114440918)
2024/05/03/13:29:17.179106;226724;1714768157;217564549;;['BL_Position', 'BL_Wheel', 'BR_Position', 'BR_Wheel', 'FL_Position', 'FL_Wheel', 'FR_Position', 'FR_Wheel'];(0.7838642001152039, 2706.14306640625, -0.7838642001152039, 3024.4794921875, -0.7884661555290222, 2704.566162109375, 0.7853981852531433, 3028.87744140625);(0.0, 0.0, 0.0, 0.0, 0.0, 0.0, 0.0, 0.0);(26.900001525878906, -110.29000091552734, -24.21000099182129, 2.690000057220459, 5.380000114440918, 0.0, 5.380000114440918, -5.380000114440918)
2024/05/03/13:29:17.195003;226725;1714768157;233977123;;['BL_Position', 'BL_Wheel', 'BR_Position', 'BR_Wheel', 'FL_Position', 'FL_Wheel', 'FR_Position', 'FR_Wheel'];(0.7838642001152039, 2706.14306640625, -0.7838642001152039, 3024.4794921875, -0.7869321703910828, 2704.566162109375, 0.7853981852531433, 3028.87744140625);(0.0, 0.0, 0.0, 0.0, 0.0, 0.0, 0.0, 0.0);(26.900001525878906, -110.29000091552734, -26.900001525878906, 2.690000057220459, 5.380000114440918, 0.0, 5.380000114440918, -5.380000114440918)
2024/05/03/13:29:17.210629;226726;1714768157;249564474;;['BL_Position', 'BL_Wheel', 'BR_Position', 'BR_Wheel', 'FL_Position', 'FL_Wheel', 'FR_Position', 'FR_Wheel'];(0.7838642001152039, 2706.1416015625, -0.7838642001152039, 3024.4794921875, -0.7884661555290222, 2704.566162109375, 0.7853981852531433, 3028.87744140625);(0.0, 0.0, 0.0, 0.0, 0.0, 0.0, 0.0, 0.0);(21.520000457763672, -110.29000091552734, -24.21000099182129, 2.690000057220459, 5.380000114440918, 0.0, 5.380000114440918, -5.380000114440918)
2024/05/03/13:29:17.226669;226727;1714768157;265589826;;['BL_Position', 'BL_Wheel', 'BR_Position', 'BR_Wheel', 'FL_Position', 'FL_Wheel', 'FR_Position', 'FR_Wheel'];(0.7838642001152039, 2706.14306640625, -0.7838642001152039, 3024.4794921875, -0.7869321703910828, 2704.566162109375, 0.7838642001152039, 3028.87744140625);(0.0, 0.0, 0.0, 0.0, 0.0, 0.0, 0.0, 0.0);(24.21000099182129, -110.29000091552734, -24.21000099182129, 2.690000057220459, 8.069999694824219, 0.0, 2.690000057220459, -5.380000114440918)
2024/05/03/13:29:17.253781;226728;1714768157;281599011;;['BL_Position', 'BL_Wheel', 'BR_Position', 'BR_Wheel', 'FL_Position', 'FL_Wheel', 'FR_Position', 'FR_Wheel'];(0.7838642001152039, 2706.14306640625, -0.7838642001152039, 3024.4794921875, -0.7869321703910828, 2704.566162109375, 0.7853981852531433, 3028.87744140625);(0.0, 0.0, 0.0, 0.0, 0.0, 0.0, 0.0, 0.0);(24.21000099182129, -110.29000091552734, -24.21000099182129, 2.690000057220459, 8.069999694824219, 0.0, 2.690000057220459, -5.380000114440918)
2024/05/03/13:29:17.258996;226729;1714768157;297711048;;['BL_Position', 'BL_Wheel', 'BR_Position', 'BR_Wheel', 'FL_Position', 'FL_Wheel', 'FR_Position', 'FR_Wheel'];(0.7823302149772644, 2706.14306640625, -0.7838642001152039, 3024.4794921875, -0.7869321703910828, 2704.566162109375, 0.7853981852531433, 3028.87744140625);(0.0, 0.0, 0.0, 0.0, 0.0, 0.0, 0.0, 0.0);(24.21000099182129, -110.29000091552734, -26.900001525878906, 2.690000057220459, 10.760000228881836, 0.0, 2.690000057220459, -5.380000114440918)
2024/05/03/13:29:17.277431;226730;1714768157;313571066;;['BL_Position', 'BL_Wheel', 'BR_Position', 'BR_Wheel', 'FL_Position', 'FL_Wheel', 'FR_Position', 'FR_Wheel'];(0.7838642001152039, 2706.14306640625, -0.7838642001152039, 3024.4794921875, -0.7869321703910828, 2704.566162109375, 0.7838642001152039, 3028.87744140625);(0.0, 0.0, 0.0, 0.0, 0.0, 0.0, 0.0, 0.0);(24.21000099182129, -110.29000091552734, -29.59000015258789, 2.690000057220459, 5.380000114440918, 0.0, 2.690000057220459, -5.380000114440918)
2024/05/03/13:29:17.290703;226731;1714768157;329594232;;['BL_Position', 'BL_Wheel', 'BR_Position', 'BR_Wheel', 'FL_Position', 'FL_Wheel', 'FR_Position', 'FR_Wheel'];(0.7823302149772644, 2706.14306640625, -0.7838642001152039, 3024.4794921875, -0.7884661555290222, 2704.567626953125, 0.7838642001152039, 3028.87744140625);(0.0, 0.0, 0.0, 0.0, 0.0, 0.0, 0.0, 0.0);(21.520000457763672, -110.29000091552734, -26.900001525878906, 2.690000057220459, 8.069999694824219, 0.0, 5.380000114440918, -5.380000114440918)
2024/05/03/13:29:17.306557;226732;1714768157;345591028;;['BL_Position', 'BL_Wheel', 'BR_Position', 'BR_Wheel', 'FL_Position', 'FL_Wheel', 'FR_Position', 'FR_Wheel'];(0.7838642001152039, 2706.14306640625, -0.7838642001152039, 3024.4794921875, -0.7869321703910828, 2704.567626953125, 0.7853981852531433, 3028.87744140625);(0.0, 0.0, 0.0, 0.0, 0.0, 0.0, 0.0, 0.0);(24.21000099182129, -110.29000091552734, -26.900001525878906, 2.690000057220459, 8.069999694824219, 0.0, 2.690000057220459, -5.380000114440918)
2024/05/03/13:29:17.324083;226733;1714768157;362747731;;['BL_Position', 'BL_Wheel', 'BR_Position', 'BR_Wheel', 'FL_Position', 'FL_Wheel', 'FR_Position', 'FR_Wheel'];(0.7838642001152039, 2706.14306640625, -0.7838642001152039, 3024.4794921875, -0.7869321703910828, 2704.567626953125, 0.7853981852531433, 3028.87744140625);(0.0, 0.0, 0.0, 0.0, 0.0, 0.0, 0.0, 0.0);(26.900001525878906, -110.29000091552734, -24.21000099182129, 2.690000057220459, 5.380000114440918, 0.0, 2.690000057220459, -5.380000114440918)
2024/05/03/13:29:17.339193;226734;1714768157;377582694;;['BL_Position', 'BL_Wheel', 'BR_Position', 'BR_Wheel', 'FL_Position', 'FL_Wheel', 'FR_Position', 'FR_Wheel'];(0.7823302149772644, 2706.14306640625, -0.7838642001152039, 3024.4794921875, -0.7869321703910828, 2704.567626953125, 0.7853981852531433, 3028.87744140625);(0.0, 0.0, 0.0, 0.0, 0.0, 0.0, 0.0, 0.0);(24.21000099182129, -110.29000091552734, -26.900001525878906, 2.690000057220459, 16.139999389648438, 0.0, 5.380000114440918, -5.380000114440918)
2024/05/03/13:29:17.356909;226735;1714768157;393590471;;['BL_Position', 'BL_Wheel', 'BR_Position', 'BR_Wheel', 'FL_Position', 'FL_Wheel', 'FR_Position', 'FR_Wheel'];(0.7823302149772644, 2706.14306640625, -0.7838642001152039, 3024.4794921875, -0.7884661555290222, 2704.566162109375, 0.7853981852531433, 3028.87744140625);(0.0, 0.0, 0.0, 0.0, 0.0, 0.0, 0.0, 0.0);(24.21000099182129, -110.29000091552734, -29.59000015258789, 2.690000057220459, 5.380000114440918, 0.0, 2.690000057220459, -5.380000114440918)
2024/05/03/13:29:17.378573;226736;1714768157;409566619;;['BL_Position', 'BL_Wheel', 'BR_Position', 'BR_Wheel', 'FL_Position', 'FL_Wheel', 'FR_Position', 'FR_Wheel'];(0.7823302149772644, 2706.14306640625, -0.7838642001152039, 3024.4794921875, -0.7869321703910828, 2704.566162109375, 0.7853981852531433, 3028.87744140625);(0.0, 0.0, 0.0, 0.0, 0.0, 0.0, 0.0, 0.0);(21.520000457763672, -110.29000091552734, -32.279998779296875, 2.690000057220459, 5.380000114440918, 0.0, 5.380000114440918, -5.380000114440918)
2024/05/03/13:29:17.388808;226737;1714768157;426006526;;['BL_Position', 'BL_Wheel', 'BR_Position', 'BR_Wheel', 'FL_Position', 'FL_Wheel', 'FR_Position', 'FR_Wheel'];(0.7838642001152039, 2706.1416015625, -0.7823302149772644, 3024.4794921875, -0.7869321703910828, 2704.566162109375, 0.7853981852531433, 3028.87744140625);(0.0, 0.0, 0.0, 0.0, 0.0, 0.0, 0.0, 0.0);(24.21000099182129, -110.29000091552734, -26.900001525878906, 2.690000057220459, 8.069999694824219, 0.0, 2.690000057220459, -5.380000114440918)
2024/05/03/13:29:17.403402;226738;1714768157;441684341;;['BL_Position', 'BL_Wheel', 'BR_Position', 'BR_Wheel', 'FL_Position', 'FL_Wheel', 'FR_Position', 'FR_Wheel'];(0.7838642001152039, 2706.14306640625, -0.7838642001152039, 3024.4794921875, -0.7869321703910828, 2704.567626953125, 0.7853981852531433, 3028.87744140625);(0.0, 0.0, 0.0, 0.0, 0.0, 0.0, 0.0, 0.0);(32.279998779296875, -110.29000091552734, -24.21000099182129, 2.690000057220459, 8.069999694824219, 0.0, 2.690000057220459, -5.380000114440918)
2024/05/03/13:29:17.419523;226739;1714768157;457585433;;['BL_Position', 'BL_Wheel', 'BR_Position', 'BR_Wheel', 'FL_Position', 'FL_Wheel', 'FR_Position', 'FR_Wheel'];(0.7838642001152039, 2706.14306640625, -0.7838642001152039, 3024.4794921875, -0.7869321703910828, 2704.566162109375, 0.7853981852531433, 3028.87744140625);(0.0, 0.0, 0.0, 0.0, 0.0, 0.0, 0.0, 0.0);(24.21000099182129, -110.29000091552734, -24.21000099182129, 2.690000057220459, 5.380000114440918, 0.0, 2.690000057220459, -5.380000114440918)
2024/05/03/13:29:17.434854;226740;1714768157;473728599;;['BL_Position', 'BL_Wheel', 'BR_Position', 'BR_Wheel', 'FL_Position', 'FL_Wheel', 'FR_Position', 'FR_Wheel'];(0.7838642001152039, 2706.14306640625, -0.7838642001152039, 3024.4794921875, -0.7869321703910828, 2704.566162109375, 0.7853981852531433, 3028.87744140625);(0.0, 0.0, 0.0, 0.0, 0.0, 0.0, 0.0, 0.0);(26.900001525878906, -110.29000091552734, -26.900001525878906, 2.690000057220459, 16.139999389648438, 0.0, 5.380000114440918, -5.380000114440918)
2024/05/03/13:29:17.457922;226741;1714768157;489556580;;['BL_Position', 'BL_Wheel', 'BR_Position', 'BR_Wheel', 'FL_Position', 'FL_Wheel', 'FR_Position', 'FR_Wheel'];(0.7838642001152039, 2706.14306640625, -0.7838642001152039, 3024.4794921875, -0.7884661555290222, 2704.566162109375, 0.7853981852531433, 3028.87744140625);(0.0, 0.0, 0.0, 0.0, 0.0, 0.0, 0.0, 0.0);(29.59000015258789, -110.29000091552734, -24.21000099182129, 2.690000057220459, 5.380000114440918, 0.0, 5.380000114440918, -5.380000114440918)
2024/05/03/13:29:17.466824;226742;1714768157;505594636;;['BL_Position', 'BL_Wheel', 'BR_Position', 'BR_Wheel', 'FL_Position', 'FL_Wheel', 'FR_Position', 'FR_Wheel'];(0.7838642001152039, 2706.14306640625, -0.7838642001152039, 3024.4794921875, -0.7869321703910828, 2704.566162109375, 0.7853981852531433, 3028.87744140625);(0.0, 0.0, 0.0, 0.0, 0.0, 0.0, 0.0, 0.0);(29.59000015258789, -110.29000091552734, -26.900001525878906, 2.690000057220459, 8.069999694824219, 0.0, 5.380000114440918, -5.380000114440918)
2024/05/03/13:29:17.482876;226743;1714768157;521522135;;['BL_Position', 'BL_Wheel', 'BR_Position', 'BR_Wheel', 'FL_Position', 'FL_Wheel', 'FR_Position', 'FR_Wheel'];(0.7823302149772644, 2706.14306640625, -0.7838642001152039, 3024.4794921875, -0.7884661555290222, 2704.567626953125, 0.7853981852531433, 3028.87744140625);(0.0, 0.0, 0.0, 0.0, 0.0, 0.0, 0.0, 0.0);(24.21000099182129, -110.29000091552734, -26.900001525878906, 2.690000057220459, 13.450000762939453, 0.0, 2.690000057220459, -5.380000114440918)
2024/05/03/13:29:17.500314;226744;1714768157;537546153;;['BL_Position', 'BL_Wheel', 'BR_Position', 'BR_Wheel', 'FL_Position', 'FL_Wheel', 'FR_Position', 'FR_Wheel'];(0.7823302149772644, 2706.14306640625, -0.7838642001152039, 3024.4794921875, -0.7884661555290222, 2704.566162109375, 0.7853981852531433, 3028.87744140625);(0.0, 0.0, 0.0, 0.0, 0.0, 0.0, 0.0, 0.0);(26.900001525878906, -110.29000091552734, -26.900001525878906, 2.690000057220459, 8.069999694824219, 0.0, 2.690000057220459, -5.380000114440918)
2024/05/03/13:29:17.515003;226745;1714768157;553531579;;['BL_Position', 'BL_Wheel', 'BR_Position', 'BR_Wheel', 'FL_Position', 'FL_Wheel', 'FR_Position', 'FR_Wheel'];(0.7838642001152039, 2706.14306640625, -0.7838642001152039, 3024.4794921875, -0.7884661555290222, 2704.567626953125, 0.7853981852531433, 3028.87744140625);(0.0, 0.0, 0.0, 0.0, 0.0, 0.0, 0.0, 0.0);(29.59000015258789, -110.29000091552734, -26.900001525878906, 2.690000057220459, 5.380000114440918, 0.0, 5.380000114440918, -5.380000114440918)
2024/05/03/13:29:17.532701;226746;1714768157;569521394;;['BL_Position', 'BL_Wheel', 'BR_Position', 'BR_Wheel', 'FL_Position', 'FL_Wheel', 'FR_Position', 'FR_Wheel'];(0.7838642001152039, 2706.14306640625, -0.7838642001152039, 3024.4794921875, -0.7869321703910828, 2704.566162109375, 0.7853981852531433, 3028.87744140625);(0.0, 0.0, 0.0, 0.0, 0.0, 0.0, 0.0, 0.0);(24.21000099182129, -110.29000091552734, -24.21000099182129, 2.690000057220459, 10.760000228881836, 0.0, 2.690000057220459, -5.380000114440918)
2024/05/03/13:29:17.547881;226747;1714768157;585589782;;['BL_Position', 'BL_Wheel', 'BR_Position', 'BR_Wheel', 'FL_Position', 'FL_Wheel', 'FR_Position', 'FR_Wheel'];(0.7838642001152039, 2706.14306640625, -0.7838642001152039, 3024.4794921875, -0.7869321703910828, 2704.566162109375, 0.7853981852531433, 3028.87744140625);(0.0, 0.0, 0.0, 0.0, 0.0, 0.0, 0.0, 0.0);(24.21000099182129, -110.29000091552734, -26.900001525878906, 2.690000057220459, 5.380000114440918, 0.0, 2.690000057220459, -5.380000114440918)
2024/05/03/13:29:17.562360;226748;1714768157;601521300;;['BL_Position', 'BL_Wheel', 'BR_Position', 'BR_Wheel', 'FL_Position', 'FL_Wheel', 'FR_Position', 'FR_Wheel'];(0.7838642001152039, 2706.14306640625, -0.7838642001152039, 3024.4794921875, -0.7869321703910828, 2704.566162109375, 0.7853981852531433, 3028.87744140625);(0.0, 0.0, 0.0, 0.0, 0.0, 0.0, 0.0, 0.0);(26.900001525878906, -110.29000091552734, -24.21000099182129, 2.690000057220459, 13.450000762939453, 0.0, 2.690000057220459, -5.380000114440918)
2024/05/03/13:29:17.584055;226749;1714768157;617553318;;['BL_Position', 'BL_Wheel', 'BR_Position', 'BR_Wheel', 'FL_Position', 'FL_Wheel', 'FR_Position', 'FR_Wheel'];(0.7838642001152039, 2706.14306640625, -0.7838642001152039, 3024.4794921875, -0.7869321703910828, 2704.566162109375, 0.7853981852531433, 3028.87744140625);(0.0, 0.0, 0.0, 0.0, 0.0, 0.0, 0.0, 0.0);(29.59000015258789, -110.29000091552734, -26.900001525878906, 2.690000057220459, 8.069999694824219, 0.0, 2.690000057220459, -5.380000114440918)
2024/05/03/13:29:17.595002;226750;1714768157;633566614;;['BL_Position', 'BL_Wheel', 'BR_Position', 'BR_Wheel', 'FL_Position', 'FL_Wheel', 'FR_Position', 'FR_Wheel'];(0.7838642001152039, 2706.14306640625, -0.7838642001152039, 3024.4794921875, -0.7869321703910828, 2704.567626953125, 0.7838642001152039, 3028.87744140625);(0.0, 0.0, 0.0, 0.0, 0.0, 0.0, 0.0, 0.0);(24.21000099182129, -110.29000091552734, -26.900001525878906, 2.690000057220459, 5.380000114440918, 0.0, 2.690000057220459, -5.380000114440918)
2024/05/03/13:29:17.611473;226751;1714768157;649588633;;['BL_Position', 'BL_Wheel', 'BR_Position', 'BR_Wheel', 'FL_Position', 'FL_Wheel', 'FR_Position', 'FR_Wheel'];(0.7838642001152039, 2706.14306640625, -0.7838642001152039, 3024.4794921875, -0.7869321703910828, 2704.567626953125, 0.7853981852531433, 3028.87744140625);(0.0, 0.0, 0.0, 0.0, 0.0, 0.0, 0.0, 0.0);(26.900001525878906, -110.29000091552734, -24.21000099182129, 2.690000057220459, 5.380000114440918, 0.0, 5.380000114440918, -5.380000114440918)
2024/05/03/13:29:17.632250;226752;1714768157;669905965;;['BL_Position', 'BL_Wheel', 'BR_Position', 'BR_Wheel', 'FL_Position', 'FL_Wheel', 'FR_Position', 'FR_Wheel'];(0.7838642001152039, 2706.1416015625, -0.7838642001152039, 3024.4794921875, -0.7884661555290222, 2704.566162109375, 0.7853981852531433, 3028.87744140625);(0.0, 0.0, 0.0, 0.0, 0.0, 0.0, 0.0, 0.0);(26.900001525878906, -110.29000091552734, -24.21000099182129, 2.690000057220459, 5.380000114440918, 0.0, 5.380000114440918, -5.380000114440918)
2024/05/03/13:29:17.642477;226753;1714768157;681554539;;['BL_Position', 'BL_Wheel', 'BR_Position', 'BR_Wheel', 'FL_Position', 'FL_Wheel', 'FR_Position', 'FR_Wheel'];(0.7823302149772644, 2706.14306640625, -0.7838642001152039, 3024.4794921875, -0.7884661555290222, 2704.566162109375, 0.7838642001152039, 3028.87744140625);(0.0, 0.0, 0.0, 0.0, 0.0, 0.0, 0.0, 0.0);(21.520000457763672, -110.29000091552734, -26.900001525878906, 2.690000057220459, 8.069999694824219, 0.0, 2.690000057220459, -5.380000114440918)
2024/05/03/13:29:17.662699;226754;1714768157;697565243;;['BL_Position', 'BL_Wheel', 'BR_Position', 'BR_Wheel', 'FL_Position', 'FL_Wheel', 'FR_Position', 'FR_Wheel'];(0.7838642001152039, 2706.14306640625, -0.7838642001152039, 3024.4794921875, -0.7884661555290222, 2704.567626953125, 0.7853981852531433, 3028.87744140625);(0.0, 0.0, 0.0, 0.0, 0.0, 0.0, 0.0, 0.0);(21.520000457763672, -110.29000091552734, -29.59000015258789, 2.690000057220459, 5.380000114440918, 0.0, 2.690000057220459, -5.380000114440918)
2024/05/03/13:29:17.686836;226755;1714768157;713589983;;['BL_Position', 'BL_Wheel', 'BR_Position', 'BR_Wheel', 'FL_Position', 'FL_Wheel', 'FR_Position', 'FR_Wheel'];(0.7838642001152039, 2706.14306640625, -0.7838642001152039, 3024.4794921875, -0.7869321703910828, 2704.566162109375, 0.7853981852531433, 3028.87744140625);(0.0, 0.0, 0.0, 0.0, 0.0, 0.0, 0.0, 0.0);(26.900001525878906, -110.29000091552734, -24.21000099182129, 2.690000057220459, 13.450000762939453, 0.0, 2.690000057220459, -5.380000114440918)
2024/05/03/13:29:17.695719;226756;1714768157;729611075;;['BL_Position', 'BL_Wheel', 'BR_Position', 'BR_Wheel', 'FL_Position', 'FL_Wheel', 'FR_Position', 'FR_Wheel'];(0.7823302149772644, 2706.14306640625, -0.7838642001152039, 3024.4794921875, -0.7884661555290222, 2704.567626953125, 0.7853981852531433, 3028.87744140625);(0.0, 0.0, 0.0, 0.0, 0.0, 0.0, 0.0, 0.0);(24.21000099182129, -110.29000091552734, -24.21000099182129, 2.690000057220459, 10.760000228881836, 0.0, 2.690000057220459, -5.380000114440918)
2024/05/03/13:29:17.707245;226757;1714768157;745527816;;['BL_Position', 'BL_Wheel', 'BR_Position', 'BR_Wheel', 'FL_Position', 'FL_Wheel', 'FR_Position', 'FR_Wheel'];(0.7838642001152039, 2706.14306640625, -0.7838642001152039, 3024.4794921875, -0.7869321703910828, 2704.566162109375, 0.7853981852531433, 3028.87744140625);(0.0, 0.0, 0.0, 0.0, 0.0, 0.0, 0.0, 0.0);(24.21000099182129, -110.29000091552734, -24.21000099182129, 2.690000057220459, 5.380000114440918, 0.0, 5.380000114440918, -5.380000114440918)
2024/05/03/13:29:17.723675;226758;1714768157;761539667;;['BL_Position', 'BL_Wheel', 'BR_Position', 'BR_Wheel', 'FL_Position', 'FL_Wheel', 'FR_Position', 'FR_Wheel'];(0.7823302149772644, 2706.14306640625, -0.7838642001152039, 3024.4794921875, -0.7869321703910828, 2704.566162109375, 0.7853981852531433, 3028.87744140625);(0.0, 0.0, 0.0, 0.0, 0.0, 0.0, 0.0, 0.0);(24.21000099182129, -110.29000091552734, -24.21000099182129, 2.690000057220459, 5.380000114440918, 0.0, 2.690000057220459, -5.380000114440918)
2024/05/03/13:29:17.737772;226759;1714768157;777591408;;['BL_Position', 'BL_Wheel', 'BR_Position', 'BR_Wheel', 'FL_Position', 'FL_Wheel', 'FR_Position', 'FR_Wheel'];(0.7838642001152039, 2706.14306640625, -0.7838642001152039, 3024.4794921875, -0.7869321703910828, 2704.566162109375, 0.7838642001152039, 3028.87744140625);(0.0, 0.0, 0.0, 0.0, 0.0, 0.0, 0.0, 0.0);(24.21000099182129, -110.29000091552734, -24.21000099182129, 2.690000057220459, 5.380000114440918, 0.0, 2.690000057220459, -5.380000114440918)
2024/05/03/13:29:17.765598;226760;1714768157;793581074;;['BL_Position', 'BL_Wheel', 'BR_Position', 'BR_Wheel', 'FL_Position', 'FL_Wheel', 'FR_Position', 'FR_Wheel'];(0.7823302149772644, 2706.14306640625, -0.7838642001152039, 3024.4794921875, -0.7869321703910828, 2704.566162109375, 0.7853981852531433, 3028.87744140625);(0.0, 0.0, 0.0, 0.0, 0.0, 0.0, 0.0, 0.0);(21.520000457763672, -110.29000091552734, -24.21000099182129, 2.690000057220459, 8.069999694824219, 0.0, 2.690000057220459, -5.380000114440918)
2024/05/03/13:29:17.771392;226761;1714768157;809653185;;['BL_Position', 'BL_Wheel', 'BR_Position', 'BR_Wheel', 'FL_Position', 'FL_Wheel', 'FR_Position', 'FR_Wheel'];(0.7838642001152039, 2706.14306640625, -0.7838642001152039, 3024.4794921875, -0.7884661555290222, 2704.566162109375, 0.7853981852531433, 3028.87744140625);(0.0, 0.0, 0.0, 0.0, 0.0, 0.0, 0.0, 0.0);(21.520000457763672, -110.29000091552734, -24.21000099182129, 2.690000057220459, 5.380000114440918, 0.0, 2.690000057220459, -5.380000114440918)
2024/05/03/13:29:17.789907;226762;1714768157;825577203;;['BL_Position', 'BL_Wheel', 'BR_Position', 'BR_Wheel', 'FL_Position', 'FL_Wheel', 'FR_Position', 'FR_Wheel'];(0.7823302149772644, 2706.14306640625, -0.7838642001152039, 3024.4794921875, -0.7869321703910828, 2704.566162109375, 0.7853981852531433, 3028.87744140625);(0.0, 0.0, 0.0, 0.0, 0.0, 0.0, 0.0, 0.0);(24.21000099182129, -110.29000091552734, -24.21000099182129, 2.690000057220459, 13.450000762939453, 0.0, 2.690000057220459, -5.380000114440918)
2024/05/03/13:29:17.802465;226763;1714768157;841630499;;['BL_Position', 'BL_Wheel', 'BR_Position', 'BR_Wheel', 'FL_Position', 'FL_Wheel', 'FR_Position', 'FR_Wheel'];(0.7823302149772644, 2706.14306640625, -0.7838642001152039, 3024.4794921875, -0.7869321703910828, 2704.566162109375, 0.7853981852531433, 3028.87744140625);(0.0, 0.0, 0.0, 0.0, 0.0, 0.0, 0.0, 0.0);(24.21000099182129, -110.29000091552734, -24.21000099182129, 2.690000057220459, 8.069999694824219, 0.0, 2.690000057220459, -5.380000114440918)
2024/05/03/13:29:17.818017;226764;1714768157;857611721;;['BL_Position', 'BL_Wheel', 'BR_Position', 'BR_Wheel', 'FL_Position', 'FL_Wheel', 'FR_Position', 'FR_Wheel'];(0.7838642001152039, 2706.14306640625, -0.7823302149772644, 3024.4794921875, -0.7869321703910828, 2704.567626953125, 0.7853981852531433, 3028.87744140625);(0.0, 0.0, 0.0, 0.0, 0.0, 0.0, 0.0, 0.0);(26.900001525878906, -110.29000091552734, -29.59000015258789, 2.690000057220459, 5.380000114440918, 0.0, 2.690000057220459, -5.380000114440918)
2024/05/03/13:29:17.833663;226765;1714768157;873688387;;['BL_Position', 'BL_Wheel', 'BR_Position', 'BR_Wheel', 'FL_Position', 'FL_Wheel', 'FR_Position', 'FR_Wheel'];(0.7838642001152039, 2706.1416015625, -0.7838642001152039, 3024.4794921875, -0.7869321703910828, 2704.566162109375, 0.7853981852531433, 3028.87744140625);(0.0, 0.0, 0.0, 0.0, 0.0, 0.0, 0.0, 0.0);(29.59000015258789, -110.29000091552734, -24.21000099182129, 2.690000057220459, 2.690000057220459, 0.0, 2.690000057220459, -5.380000114440918)
2024/05/03/13:29:17.850808;226766;1714768157;889576461;;['BL_Position', 'BL_Wheel', 'BR_Position', 'BR_Wheel', 'FL_Position', 'FL_Wheel', 'FR_Position', 'FR_Wheel'];(0.7823302149772644, 2706.14306640625, -0.7838642001152039, 3024.4794921875, -0.7869321703910828, 2704.567626953125, 0.7853981852531433, 3028.87744140625);(0.0, 0.0, 0.0, 0.0, 0.0, 0.0, 0.0, 0.0);(26.900001525878906, -110.29000091552734, -24.21000099182129, 2.690000057220459, 8.069999694824219, 0.0, 2.690000057220459, -5.380000114440918)
2024/05/03/13:29:17.867790;226767;1714768157;905557405;;['BL_Position', 'BL_Wheel', 'BR_Position', 'BR_Wheel', 'FL_Position', 'FL_Wheel', 'FR_Position', 'FR_Wheel'];(0.7823302149772644, 2706.14306640625, -0.7838642001152039, 3024.4794921875, -0.7884661555290222, 2704.566162109375, 0.7853981852531433, 3028.87744140625);(0.0, 0.0, 0.0, 0.0, 0.0, 0.0, 0.0, 0.0);(26.900001525878906, -110.29000091552734, -24.21000099182129, 2.690000057220459, 5.380000114440918, 0.0, 2.690000057220459, -5.380000114440918)
2024/05/03/13:29:17.890633;226768;1714768157;921602775;;['BL_Position', 'BL_Wheel', 'BR_Position', 'BR_Wheel', 'FL_Position', 'FL_Wheel', 'FR_Position', 'FR_Wheel'];(0.7823302149772644, 2706.14306640625, -0.7838642001152039, 3024.4794921875, -0.7869321703910828, 2704.566162109375, 0.7838642001152039, 3028.87744140625);(0.0, 0.0, 0.0, 0.0, 0.0, 0.0, 0.0, 0.0);(26.900001525878906, -110.29000091552734, -24.21000099182129, 2.690000057220459, 10.760000228881836, 0.0, 2.690000057220459, -5.380000114440918)
2024/05/03/13:29:17.901458;226769;1714768157;937509960;;['BL_Position', 'BL_Wheel', 'BR_Position', 'BR_Wheel', 'FL_Position', 'FL_Wheel', 'FR_Position', 'FR_Wheel'];(0.7823302149772644, 2706.14306640625, -0.7838642001152039, 3024.4794921875, -0.7869321703910828, 2704.566162109375, 0.7853981852531433, 3028.87744140625);(0.0, 0.0, 0.0, 0.0, 0.0, 0.0, 0.0, 0.0);(29.59000015258789, -110.29000091552734, -26.900001525878906, 2.690000057220459, 5.380000114440918, 0.0, 2.690000057220459, -5.380000114440918)
2024/05/03/13:29:17.914184;226770;1714768157;953525996;;['BL_Position', 'BL_Wheel', 'BR_Position', 'BR_Wheel', 'FL_Position', 'FL_Wheel', 'FR_Position', 'FR_Wheel'];(0.7823302149772644, 2706.14306640625, -0.7823302149772644, 3024.4794921875, -0.7869321703910828, 2704.567626953125, 0.7853981852531433, 3028.87744140625);(0.0, 0.0, 0.0, 0.0, 0.0, 0.0, 0.0, 0.0);(29.59000015258789, -110.29000091552734, -24.21000099182129, 2.690000057220459, 16.139999389648438, 0.0, 2.690000057220459, -5.380000114440918)
2024/05/03/13:29:17.931480;226771;1714768157;969538070;;['BL_Position', 'BL_Wheel', 'BR_Position', 'BR_Wheel', 'FL_Position', 'FL_Wheel', 'FR_Position', 'FR_Wheel'];(0.7823302149772644, 2706.14306640625, -0.7838642001152039, 3024.4794921875, -0.7869321703910828, 2704.566162109375, 0.7853981852531433, 3028.87744140625);(0.0, 0.0, 0.0, 0.0, 0.0, 0.0, 0.0, 0.0);(18.829999923706055, -110.29000091552734, -24.21000099182129, 2.690000057220459, 5.380000114440918, 0.0, 2.690000057220459, -5.380000114440918)
2024/05/03/13:29:17.946861;226772;1714768157;985730162;;['BL_Position', 'BL_Wheel', 'BR_Position', 'BR_Wheel', 'FL_Position', 'FL_Wheel', 'FR_Position', 'FR_Wheel'];(0.7838642001152039, 2706.14306640625, -0.7838642001152039, 3024.4794921875, -0.7869321703910828, 2704.566162109375, 0.7838642001152039, 3028.87744140625);(0.0, 0.0, 0.0, 0.0, 0.0, 0.0, 0.0, 0.0);(24.21000099182129, -110.29000091552734, -32.279998779296875, 2.690000057220459, 5.380000114440918, 0.0, 2.690000057220459, -5.380000114440918)
2024/05/03/13:29:17.971507;226773;1714768158;1551681;;['BL_Position', 'BL_Wheel', 'BR_Position', 'BR_Wheel', 'FL_Position', 'FL_Wheel', 'FR_Position', 'FR_Wheel'];(0.7823302149772644, 2706.14306640625, -0.7838642001152039, 3024.4794921875, -0.7884661555290222, 2704.566162109375, 0.7853981852531433, 3028.87744140625);(0.0, 0.0, 0.0, 0.0, 0.0, 0.0, 0.0, 0.0);(21.520000457763672, -110.29000091552734, -24.21000099182129, 2.690000057220459, 2.690000057220459, 0.0, 2.690000057220459, -5.380000114440918)
2024/05/03/13:29:17.979237;226774;1714768158;17592402;;['BL_Position', 'BL_Wheel', 'BR_Position', 'BR_Wheel', 'FL_Position', 'FL_Wheel', 'FR_Position', 'FR_Wheel'];(0.7838642001152039, 2706.14306640625, -0.7838642001152039, 3024.4794921875, -0.7869321703910828, 2704.567626953125, 0.7853981852531433, 3028.87744140625);(0.0, 0.0, 0.0, 0.0, 0.0, 0.0, 0.0, 0.0);(29.59000015258789, -110.29000091552734, -24.21000099182129, 2.690000057220459, 8.069999694824219, 0.0, 5.380000114440918, -5.380000114440918)
2024/05/03/13:29:17.994775;226775;1714768158;33556772;;['BL_Position', 'BL_Wheel', 'BR_Position', 'BR_Wheel', 'FL_Position', 'FL_Wheel', 'FR_Position', 'FR_Wheel'];(0.7823302149772644, 2706.1416015625, -0.7838642001152039, 3024.4794921875, -0.7869321703910828, 2704.567626953125, 0.7853981852531433, 3028.87744140625);(0.0, 0.0, 0.0, 0.0, 0.0, 0.0, 0.0, 0.0);(24.21000099182129, -110.29000091552734, -24.21000099182129, 2.690000057220459, 16.139999389648438, 0.0, 5.380000114440918, -5.380000114440918)
2024/05/03/13:29:18.013292;226776;1714768158;49656365;;['BL_Position', 'BL_Wheel', 'BR_Position', 'BR_Wheel', 'FL_Position', 'FL_Wheel', 'FR_Position', 'FR_Wheel'];(0.7823302149772644, 2706.14306640625, -0.7823302149772644, 3024.4794921875, -0.7869321703910828, 2704.567626953125, 0.7853981852531433, 3028.87744140625);(0.0, 0.0, 0.0, 0.0, 0.0, 0.0, 0.0, 0.0);(26.900001525878906, -110.29000091552734, -24.21000099182129, 2.690000057220459, 10.760000228881836, 0.0, 5.380000114440918, -5.380000114440918)
2024/05/03/13:29:18.027014;226777;1714768158;65528012;;['BL_Position', 'BL_Wheel', 'BR_Position', 'BR_Wheel', 'FL_Position', 'FL_Wheel', 'FR_Position', 'FR_Wheel'];(0.7823302149772644, 2706.14306640625, -0.7838642001152039, 3024.4794921875, -0.7869321703910828, 2704.566162109375, 0.7853981852531433, 3028.87744140625);(0.0, 0.0, 0.0, 0.0, 0.0, 0.0, 0.0, 0.0);(26.900001525878906, -110.29000091552734, -29.59000015258789, 2.690000057220459, 5.380000114440918, 0.0, 2.690000057220459, -5.380000114440918)
2024/05/03/13:29:18.042518;226778;1714768158;81559031;;['BL_Position', 'BL_Wheel', 'BR_Position', 'BR_Wheel', 'FL_Position', 'FL_Wheel', 'FR_Position', 'FR_Wheel'];(0.7838642001152039, 2706.14306640625, -0.7823302149772644, 3024.4794921875, -0.7884661555290222, 2704.566162109375, 0.7853981852531433, 3028.87744140625);(0.0, 0.0, 0.0, 0.0, 0.0, 0.0, 0.0, 0.0);(24.21000099182129, -110.29000091552734, -24.21000099182129, 2.690000057220459, 8.069999694824219, 0.0, 2.690000057220459, -5.380000114440918)
2024/05/03/13:29:18.059609;226779;1714768158;97543975;;['BL_Position', 'BL_Wheel', 'BR_Position', 'BR_Wheel', 'FL_Position', 'FL_Wheel', 'FR_Position', 'FR_Wheel'];(0.7838642001152039, 2706.14306640625, -0.7838642001152039, 3024.4794921875, -0.7884661555290222, 2704.566162109375, 0.7853981852531433, 3028.87744140625);(0.0, 0.0, 0.0, 0.0, 0.0, 0.0, 0.0, 0.0);(26.900001525878906, -110.29000091552734, -26.900001525878906, 2.690000057220459, 10.760000228881836, 0.0, 2.690000057220459, -5.380000114440918)
2024/05/03/13:29:18.074281;226780;1714768158;113552530;;['BL_Position', 'BL_Wheel', 'BR_Position', 'BR_Wheel', 'FL_Position', 'FL_Wheel', 'FR_Position', 'FR_Wheel'];(0.7823302149772644, 2706.14306640625, -0.7823302149772644, 3024.4794921875, -0.7884661555290222, 2704.566162109375, 0.7838642001152039, 3028.87744140625);(0.0, 0.0, 0.0, 0.0, 0.0, 0.0, 0.0, 0.0);(29.59000015258789, -110.29000091552734, -24.21000099182129, 2.690000057220459, 5.380000114440918, 0.0, 2.690000057220459, -5.380000114440918)
2024/05/03/13:29:18.094878;226781;1714768158;129562752;;['BL_Position', 'BL_Wheel', 'BR_Position', 'BR_Wheel', 'FL_Position', 'FL_Wheel', 'FR_Position', 'FR_Wheel'];(0.7838642001152039, 2706.14306640625, -0.7838642001152039, 3024.4794921875, -0.7869321703910828, 2704.566162109375, 0.7853981852531433, 3028.87744140625);(0.0, 0.0, 0.0, 0.0, 0.0, 0.0, 0.0, 0.0);(29.59000015258789, -110.29000091552734, -24.21000099182129, 2.690000057220459, 5.380000114440918, 0.0, 2.690000057220459, -5.380000114440918)
2024/05/03/13:29:18.108327;226782;1714768158;145549289;;['BL_Position', 'BL_Wheel', 'BR_Position', 'BR_Wheel', 'FL_Position', 'FL_Wheel', 'FR_Position', 'FR_Wheel'];(0.7823302149772644, 2706.14306640625, -0.7838642001152039, 3024.4794921875, -0.7869321703910828, 2704.566162109375, 0.7853981852531433, 3028.87744140625);(0.0, 0.0, 0.0, 0.0, 0.0, 0.0, 0.0, 0.0);(24.21000099182129, -110.29000091552734, -24.21000099182129, 2.690000057220459, 5.380000114440918, 0.0, 2.690000057220459, -5.380000114440918)
2024/05/03/13:29:18.121887;226783;1714768158;161519862;;['BL_Position', 'BL_Wheel', 'BR_Position', 'BR_Wheel', 'FL_Position', 'FL_Wheel', 'FR_Position', 'FR_Wheel'];(0.7838642001152039, 2706.1416015625, -0.7838642001152039, 3024.4794921875, -0.7869321703910828, 2704.567626953125, 0.7853981852531433, 3028.87744140625);(0.0, 0.0, 0.0, 0.0, 0.0, 0.0, 0.0, 0.0);(21.520000457763672, -110.29000091552734, -24.21000099182129, 2.690000057220459, 5.380000114440918, 0.0, 2.690000057220459, -5.380000114440918)
2024/05/03/13:29:18.139097;226784;1714768158;177624066;;['BL_Position', 'BL_Wheel', 'BR_Position', 'BR_Wheel', 'FL_Position', 'FL_Wheel', 'FR_Position', 'FR_Wheel'];(0.7838642001152039, 2706.1416015625, -0.7838642001152039, 3024.4794921875, -0.7869321703910828, 2704.566162109375, 0.7853981852531433, 3028.87744140625);(0.0, 0.0, 0.0, 0.0, 0.0, 0.0, 0.0, 0.0);(18.829999923706055, -110.29000091552734, -24.21000099182129, 2.690000057220459, 5.380000114440918, 0.0, 2.690000057220459, -5.380000114440918)
2024/05/03/13:29:18.155452;226785;1714768158;193538825;;['BL_Position', 'BL_Wheel', 'BR_Position', 'BR_Wheel', 'FL_Position', 'FL_Wheel', 'FR_Position', 'FR_Wheel'];(0.7823302149772644, 2706.14013671875, -0.7838642001152039, 3024.4794921875, -0.7869321703910828, 2704.566162109375, 0.7838642001152039, 3028.87890625);(0.0, 0.0, 0.0, 0.0, 0.0, 0.0, 0.0, 0.0);(24.21000099182129, -166.77999877929688, -26.900001525878906, 51.11000061035156, 8.069999694824219, -45.72999954223633, 2.690000057220459, 53.80000305175781)
2024/05/03/13:29:18.175399;226786;1714768158;209555083;;['BL_Position', 'BL_Wheel', 'BR_Position', 'BR_Wheel', 'FL_Position', 'FL_Wheel', 'FR_Position', 'FR_Wheel'];(0.7838642001152039, 2706.130859375, -0.7838642001152039, 3024.487060546875, -0.7869321703910828, 2704.56005859375, 0.7853981852531433, 3028.88818359375);(0.0, -0.04796164855360985, 0.0, 0.023980824276804924, 0.0, 0.0, 0.0, 0.04796164855360985);(24.21000099182129, -177.54000854492188, -24.21000099182129, 48.42000198364258, 13.450000762939453, -43.040000915527344, 2.690000057220459, 115.67000579833984)
2024/05/03/13:29:18.199276;226787;1714768158;228651916;;['BL_Position', 'BL_Wheel', 'BR_Position', 'BR_Wheel', 'FL_Position', 'FL_Wheel', 'FR_Position', 'FR_Wheel'];(0.7823302149772644, 2706.116943359375, -0.7838642001152039, 3024.5009765625, -0.7884661555290222, 2704.546142578125, 0.7853981852531433, 3028.900390625);(0.0, -0.16786576807498932, 0.0, 0.14388494193553925, 0.0, -0.11990412324666977, 0.0, 0.16786576807498932);(18.829999923706055, -169.47000122070312, -26.900001525878906, 48.42000198364258, 16.139999389648438, -45.72999954223633, 2.690000057220459, 112.9800033569336)
2024/05/03/13:29:18.209492;226788;1714768158;245594398;;['BL_Position', 'BL_Wheel', 'BR_Position', 'BR_Wheel', 'FL_Position', 'FL_Wheel', 'FR_Position', 'FR_Wheel'];(0.7823302149772644, 2706.095703125, -0.7838642001152039, 3024.520751953125, -0.7869321703910828, 2704.523193359375, 0.7853981852531433, 3028.921875);(0.0, -0.40767401456832886, 0.0, 0.3836931884288788, 0.0, -0.3597123622894287, 0.0, 0.40767401456832886);(24.21000099182129, -153.3300018310547, -29.59000015258789, 37.65999984741211, 5.380000114440918, -34.970001220703125, 2.690000057220459, 86.08000183105469)
2024/05/03/13:29:18.217422;226789;1714768158;257539008;;['BL_Position', 'BL_Wheel', 'BR_Position', 'BR_Wheel', 'FL_Position', 'FL_Wheel', 'FR_Position', 'FR_Wheel'];(0.7823302149772644, 2706.07421875, -0.7838642001152039, 3024.54541015625, -0.7869321703910828, 2704.498779296875, 0.7853981852531433, 3028.94482421875);(0.0, -0.6714630722999573, 0.0, 0.6714630722999573, 0.0, -0.6714630722999573, 0.0, 0.6714630722999573);(24.21000099182129, -145.260009765625, -26.900001525878906, 32.279998779296875, 5.380000114440918, -32.279998779296875, 2.690000057220459, 72.6300048828125)
2024/05/03/13:29:18.234767;226790;1714768158;273545971;;['BL_Position', 'BL_Wheel', 'BR_Position', 'BR_Wheel', 'FL_Position', 'FL_Wheel', 'FR_Position', 'FR_Wheel'];(0.7838642001152039, 2706.05419921875, -0.7838642001152039, 3024.563720703125, -0.7884661555290222, 2704.478759765625, 0.7853981852531433, 3028.96484375);(0.0, -0.8633096814155579, 0.0, 0.8872904777526855, 0.0, -0.911271333694458, 0.0, 0.8633096814155579);(8.069999694824219, -142.57000732421875, -24.21000099182129, 32.279998779296875, 10.760000228881836, -32.279998779296875, 2.690000057220459, 59.18000030517578)
2024/05/03/13:29:18.249871;226791;1714768158;290031285;;['BL_Position', 'BL_Wheel', 'BR_Position', 'BR_Wheel', 'FL_Position', 'FL_Wheel', 'FR_Position', 'FR_Wheel'];(0.7838642001152039, 2706.028076171875, -0.7838642001152039, 3024.59130859375, -0.7869321703910828, 2704.45263671875, 0.7853981852531433, 3028.9892578125);(0.0, -1.127098798751831, 0.0, 1.151079535484314, 0.0, -1.1750603914260864, 0.0, 1.127098798751831);(10.760000228881836, -137.19000244140625, -26.900001525878906, 29.59000015258789, 10.760000228881836, -29.59000015258789, 2.690000057220459, 45.72999954223633)
2024/05/03/13:29:18.277273;226792;1714768158;308238415;;['BL_Position', 'BL_Wheel', 'BR_Position', 'BR_Wheel', 'FL_Position', 'FL_Wheel', 'FR_Position', 'FR_Wheel'];(0.7838642001152039, 2705.997314453125, -0.7838642001152039, 3024.6220703125, -0.7884661555290222, 2704.422119140625, 0.7853981852531433, 3029.02001953125);(0.0, -1.366907000541687, 0.0, 1.3908878564834595, 0.0, -1.4148685932159424, 0.0, 1.3429261445999146);(10.760000228881836, -131.80999755859375, -24.21000099182129, 24.21000099182129, 8.069999694824219, -24.21000099182129, 5.380000114440918, 40.35000228881836)
2024/05/03/13:29:18.282715;226793;1714768158;321531618;;['BL_Position', 'BL_Wheel', 'BR_Position', 'BR_Wheel', 'FL_Position', 'FL_Wheel', 'FR_Position', 'FR_Wheel'];(0.7823302149772644, 2705.965087890625, -0.7838642001152039, 3024.654296875, -0.7869321703910828, 2704.391357421875, 0.7853981852531433, 3029.05078125);(0.0, -1.5347727537155151, 0.0, 1.5587536096572876, 0.0, -1.5587536096572876, 0.0, 1.5107918977737427);(10.760000228881836, -121.05000305175781, -24.21000099182129, 21.520000457763672, 13.450000762939453, -24.21000099182129, 5.380000114440918, 32.279998779296875)
2024/05/03/13:29:18.307961;226794;1714768158;337525414;;['BL_Position', 'BL_Wheel', 'BR_Position', 'BR_Wheel', 'FL_Position', 'FL_Wheel', 'FR_Position', 'FR_Wheel'];(0.7838642001152039, 2705.940673828125, -0.7838642001152039, 3024.67724609375, -0.7869321703910828, 2704.36669921875, 0.7838642001152039, 3029.0751953125);(0.0, -1.654676914215088, 0.0, 1.654676914215088, 0.0, -1.654676914215088, 0.0, 1.606715202331543);(10.760000228881836, -118.36000061035156, -26.900001525878906, 18.829999923706055, 8.069999694824219, -18.829999923706055, 5.380000114440918, 32.279998779296875)
2024/05/03/13:29:18.313681;226795;1714768158;353519932;;['BL_Position', 'BL_Wheel', 'BR_Position', 'BR_Wheel', 'FL_Position', 'FL_Wheel', 'FR_Position', 'FR_Wheel'];(0.7823302149772644, 2705.909912109375, -0.7838642001152039, 3024.7080078125, -0.7869321703910828, 2704.336181640625, 0.7853981852531433, 3029.10595703125);(0.0, -1.7506002187728882, 0.0, 1.7506002187728882, 0.0, -1.7266193628311157, 0.0, 1.7026385068893433);(13.450000762939453, -112.9800033569336, -24.21000099182129, 16.139999389648438, 18.829999923706055, -16.139999389648438, 5.380000114440918, 26.900001525878906)
2024/05/03/13:29:18.329230;226796;1714768158;369568432;;['BL_Position', 'BL_Wheel', 'BR_Position', 'BR_Wheel', 'FL_Position', 'FL_Wheel', 'FR_Position', 'FR_Wheel'];(0.7823302149772644, 2705.877685546875, -0.7838642001152039, 3024.73876953125, -0.7869321703910828, 2704.305419921875, 0.7853981852531433, 3029.13818359375);(0.0, -1.822542667388916, 0.0, 1.7985618114471436, 0.0, -1.7985618114471436, 0.0, 1.774580955505371);(13.450000762939453, -115.67000579833984, -24.21000099182129, 16.139999389648438, 24.21000099182129, -16.139999389648438, 5.380000114440918, 26.900001525878906)
2024/05/03/13:29:18.346629;226797;1714768158;385484006;;['BL_Position', 'BL_Wheel', 'BR_Position', 'BR_Wheel', 'FL_Position', 'FL_Wheel', 'FR_Position', 'FR_Wheel'];(0.7823302149772644, 2705.8486328125, -0.7838642001152039, 3024.767822265625, -0.7869321703910828, 2704.274658203125, 0.7853981852531433, 3029.167236328125);(0.0, -1.8465235233306885, 0.0, 1.822542667388916, 0.0, -1.822542667388916, 0.0, 1.822542667388916);(24.21000099182129, -107.60000610351562, -8.069999694824219, 13.450000762939453, 10.760000228881836, -10.760000228881836, 5.380000114440918, 24.21000099182129)
2024/05/03/13:29:18.362712;226798;1714768158;401503265;;['BL_Position', 'BL_Wheel', 'BR_Position', 'BR_Wheel', 'FL_Position', 'FL_Wheel', 'FR_Position', 'FR_Wheel'];(0.7838642001152039, 2705.81787109375, -0.7838642001152039, 3024.796875, -0.7869321703910828, 2704.24560546875, 0.7853981852531433, 3029.19482421875);(0.0, -1.8705042600631714, 0.0, 1.822542667388916, 0.0, -1.8465235233306885, 0.0, 1.8465235233306885);(10.760000228881836, -107.60000610351562, -8.069999694824219, 13.450000762939453, 5.380000114440918, -8.069999694824219, 2.690000057220459, 21.520000457763672)
2024/05/03/13:29:18.380059;226799;1714768158;417513653;;['BL_Position', 'BL_Wheel', 'BR_Position', 'BR_Wheel', 'FL_Position', 'FL_Wheel', 'FR_Position', 'FR_Wheel'];(0.7823302149772644, 2705.788818359375, -0.7838642001152039, 3024.82470703125, -0.7869321703910828, 2704.21484375, 0.7853981852531433, 3029.2255859375);(0.0, -1.8944851160049438, 0.0, 1.822542667388916, 0.0, -1.8465235233306885, 0.0, 1.8465235233306885);(10.760000228881836, -104.91000366210938, -5.380000114440918, 10.760000228881836, 5.380000114440918, -8.069999694824219, 2.690000057220459, 21.520000457763672)
2024/05/03/13:29:18.403401;226800;1714768158;433517764;;['BL_Position', 'BL_Wheel', 'BR_Position', 'BR_Wheel', 'FL_Position', 'FL_Wheel', 'FR_Position', 'FR_Wheel'];(0.7823302149772644, 2705.758056640625, -0.7823302149772644, 3024.855224609375, -0.7869321703910828, 2704.187255859375, 0.7853981852531433, 3029.251708984375);(0.0, -1.8705042600631714, 0.0, 1.822542667388916, 0.0, -1.8465235233306885, 0.0, 1.8465235233306885);(8.069999694824219, -102.22000122070312, 0.0, 8.069999694824219, 0.0, -8.069999694824219, 2.690000057220459, 21.520000457763672)
2024/05/03/13:29:18.412841;226801;1714768158;449526412;;['BL_Position', 'BL_Wheel', 'BR_Position', 'BR_Wheel', 'FL_Position', 'FL_Wheel', 'FR_Position', 'FR_Wheel'];(0.7823302149772644, 2705.73046875, -0.7823302149772644, 3024.8828125, -0.7869321703910828, 2704.15673828125, 0.7853981852531433, 3029.28076171875);(0.0, -1.8705042600631714, 0.0, 1.822542667388916, 0.0, -1.8465235233306885, 0.0, 1.822542667388916);(10.760000228881836, -96.84000396728516, 0.0, 8.069999694824219, 0.0, -8.069999694824219, 5.380000114440918, 18.829999923706055)
2024/05/03/13:29:18.426916;226802;1714768158;465532337;;['BL_Position', 'BL_Wheel', 'BR_Position', 'BR_Wheel', 'FL_Position', 'FL_Wheel', 'FR_Position', 'FR_Wheel'];(0.7823302149772644, 2705.701416015625, -0.7823302149772644, 3024.910400390625, -0.7869321703910828, 2704.130615234375, 0.7838642001152039, 3029.308349609375);(0.0, -1.8465235233306885, 0.0, 1.7985618114471436, 0.0, -1.822542667388916, 0.0, 1.7985618114471436);(24.21000099182129, -91.45999908447266, 0.0, 8.069999694824219, 0.0, -5.380000114440918, 0.0, 18.829999923706055)
2024/05/03/13:29:18.443005;226803;1714768158;481485281;;['BL_Position', 'BL_Wheel', 'BR_Position', 'BR_Wheel', 'FL_Position', 'FL_Wheel', 'FR_Position', 'FR_Wheel'];(0.7823302149772644, 2705.673828125, -0.7823302149772644, 3024.9365234375, -0.7884661555290222, 2704.10302734375, 0.7853981852531433, 3029.337646484375);(0.0, -1.7985618114471436, 0.0, 1.774580955505371, 0.0, -1.774580955505371, 0.0, 1.774580955505371);(29.59000015258789, -86.08000183105469, 0.0, 8.069999694824219, 0.0, -5.380000114440918, 0.0, 18.829999923706055)
2024/05/03/13:29:18.459669;226804;1714768158;497618985;;['BL_Position', 'BL_Wheel', 'BR_Position', 'BR_Wheel', 'FL_Position', 'FL_Wheel', 'FR_Position', 'FR_Wheel'];(0.7838642001152039, 2705.647705078125, -0.7823302149772644, 3024.962646484375, -0.7884661555290222, 2704.07373046875, 0.7853981852531433, 3029.363525390625);(0.0, -1.774580955505371, 0.0, 1.7266193628311157, 0.0, -1.7506002187728882, 0.0, 1.7506002187728882);(24.21000099182129, -80.70000457763672, 0.0, 8.069999694824219, 0.0, -5.380000114440918, 0.0, 18.829999923706055)
2024/05/03/13:29:18.475992;226805;1714768158;513527984;;['BL_Position', 'BL_Wheel', 'BR_Position', 'BR_Wheel', 'FL_Position', 'FL_Wheel', 'FR_Position', 'FR_Wheel'];(0.7838642001152039, 2705.6201171875, -0.7823302149772644, 3024.9873046875, -0.7884661555290222, 2704.04931640625, 0.7853981852531433, 3029.3896484375);(0.0, -1.7506002187728882, 0.0, 1.7026385068893433, 0.0, -1.7026385068893433, 0.0, 1.7266193628311157);(37.65999984741211, -80.70000457763672, 0.0, 8.069999694824219, -2.690000057220459, -5.380000114440918, 0.0, 18.829999923706055)
2024/05/03/13:29:18.489823;226806;1714768158;529523910;;['BL_Position', 'BL_Wheel', 'BR_Position', 'BR_Wheel', 'FL_Position', 'FL_Wheel', 'FR_Position', 'FR_Wheel'];(0.7823302149772644, 2705.593994140625, -0.7823302149772644, 3025.016357421875, -0.7884661555290222, 2704.023193359375, 0.7853981852531433, 3029.415771484375);(0.0, -1.7266193628311157, 0.0, 1.654676914215088, 0.0, -1.654676914215088, 0.0, 1.6786576509475708);(43.040000915527344, -78.01000213623047, 2.690000057220459, 8.069999694824219, 0.0, -5.380000114440918, -8.069999694824219, 21.520000457763672)
2024/05/03/13:29:18.509855;226807;1714768158;545556039;;['BL_Position', 'BL_Wheel', 'BR_Position', 'BR_Wheel', 'FL_Position', 'FL_Wheel', 'FR_Position', 'FR_Wheel'];(0.7838642001152039, 2705.56787109375, -0.7823302149772644, 3025.040771484375, -0.7884661555290222, 2703.99853515625, 0.7853981852531433, 3029.44189453125);(0.0, -1.6786576509475708, 0.0, 1.6306960582733154, 0.0, -1.6306960582733154, 0.0, 1.654676914215088);(40.35000228881836, -72.6300048828125, 5.380000114440918, 5.380000114440918, -5.380000114440918, -5.380000114440918, -10.760000228881836, 21.520000457763672)
2024/05/03/13:29:18.523918;226808;1714768158;561520909;;['BL_Position', 'BL_Wheel', 'BR_Position', 'BR_Wheel', 'FL_Position', 'FL_Wheel', 'FR_Position', 'FR_Wheel'];(0.7838642001152039, 2705.54345703125, -0.7823302149772644, 3025.06396484375, -0.7884661555290222, 2703.9755859375, 0.7838642001152039, 3029.46484375);(0.0, -1.6306960582733154, 0.0, 1.606715202331543, 0.0, -1.5827343463897705, 0.0, 1.606715202331543);(43.040000915527344, -75.31999969482422, 2.690000057220459, 5.380000114440918, -5.380000114440918, -5.380000114440918, -8.069999694824219, 21.520000457763672)
