time;.header.seq;.header.stamp.secs;.header.stamp.nsecs;.header.frame_id;.name;.position;.velocity;.effort
2024/05/03/12:49:08.895227;76199;1714765748;905549700;;['BL_Position', 'BL_Wheel', 'BR_Position', 'BR_Wheel', 'FL_Position', 'FL_Wheel', 'FR_Position', 'FR_Wheel'];(1.5707963705062866, 951.5651245117188, 1.572330355644226, 949.4221801757812, 1.572330355644226, 949.5095825195312, 1.5692623853683472, 954.05322265625);(0.0, 0.0, 0.0, 0.0, 0.0, 0.0, 0.0, 0.0);(0.0, 29.59000015258789, 0.0, 0.0, 0.0, 0.0, 16.139999389648438, -13.450000762939453)
2024/05/03/12:49:08.899805;76200;1714765748;921613735;;['BL_Position', 'BL_Wheel', 'BR_Position', 'BR_Wheel', 'FL_Position', 'FL_Wheel', 'FR_Position', 'FR_Wheel'];(1.5707963705062866, 951.5651245117188, 1.572330355644226, 949.4221801757812, 1.572330355644226, 949.508056640625, 1.5692623853683472, 954.05322265625);(0.0, 0.0, 0.0, 0.0, 0.0, 0.0, 0.0, 0.0);(0.0, 29.59000015258789, 0.0, 0.0, 0.0, 0.0, 16.139999389648438, -13.450000762939453)
2024/05/03/12:49:08.917207;76201;1714765748;937678844;;['BL_Position', 'BL_Wheel', 'BR_Position', 'BR_Wheel', 'FL_Position', 'FL_Wheel', 'FR_Position', 'FR_Wheel'];(1.5707963705062866, 951.5651245117188, 1.5707963705062866, 949.4221801757812, 1.572330355644226, 949.5095825195312, 1.5692623853683472, 954.05322265625);(0.0, 0.0, 0.0, 0.0, 0.0, 0.0, 0.0, 0.0);(0.0, 29.59000015258789, 0.0, 0.0, 0.0, 0.0, 16.139999389648438, -13.450000762939453)
2024/05/03/12:49:08.932965;76202;1714765748;953616323;;['BL_Position', 'BL_Wheel', 'BR_Position', 'BR_Wheel', 'FL_Position', 'FL_Wheel', 'FR_Position', 'FR_Wheel'];(1.5707963705062866, 951.5651245117188, 1.5707963705062866, 949.4221801757812, 1.572330355644226, 949.5095825195312, 1.5692623853683472, 954.05322265625);(0.0, 0.0, 0.0, 0.0, 0.0, 0.0, 0.0, 0.0);(0.0, 29.59000015258789, 0.0, 0.0, 0.0, 0.0, 13.450000762939453, -13.450000762939453)
2024/05/03/12:49:08.950221;76203;1714765748;969645006;;['BL_Position', 'BL_Wheel', 'BR_Position', 'BR_Wheel', 'FL_Position', 'FL_Wheel', 'FR_Position', 'FR_Wheel'];(1.572330355644226, 951.5651245117188, 1.572330355644226, 949.4221801757812, 1.572330355644226, 949.5095825195312, 1.5692623853683472, 954.05322265625);(0.0, 0.0, 0.0, 0.0, 0.0, 0.0, 0.0, 0.0);(0.0, 29.59000015258789, 0.0, 0.0, 0.0, 0.0, 13.450000762939453, -13.450000762939453)
2024/05/03/12:49:08.970976;76204;1714765748;985678077;;['BL_Position', 'BL_Wheel', 'BR_Position', 'BR_Wheel', 'FL_Position', 'FL_Wheel', 'FR_Position', 'FR_Wheel'];(1.5707963705062866, 951.5651245117188, 1.5707963705062866, 949.4237060546875, 1.572330355644226, 949.5095825195312, 1.5692623853683472, 954.05322265625);(0.0, 0.0, 0.0, 0.0, 0.0, 0.0, 0.0, 0.0);(0.0, 29.59000015258789, 0.0, 0.0, 0.0, 0.0, 13.450000762939453, -13.450000762939453)
2024/05/03/12:49:08.980927;76205;1714765749;1645704;;['BL_Position', 'BL_Wheel', 'BR_Position', 'BR_Wheel', 'FL_Position', 'FL_Wheel', 'FR_Position', 'FR_Wheel'];(1.572330355644226, 951.5651245117188, 1.572330355644226, 949.4237060546875, 1.572330355644226, 949.5095825195312, 1.5692623853683472, 954.05322265625);(0.0, 0.0, 0.0, 0.0, 0.0, 0.0, 0.0, 0.0);(0.0, 29.59000015258789, 0.0, 0.0, 0.0, 0.0, 13.450000762939453, -13.450000762939453)
2024/05/03/12:49:09.000494;76206;1714765749;17569832;;['BL_Position', 'BL_Wheel', 'BR_Position', 'BR_Wheel', 'FL_Position', 'FL_Wheel', 'FR_Position', 'FR_Wheel'];(1.5707963705062866, 951.5651245117188, 1.572330355644226, 949.4221801757812, 1.572330355644226, 949.5095825195312, 1.5692623853683472, 954.0516967773438);(0.0, 0.0, 0.0, 0.0, 0.0, 0.0, 0.0, 0.0);(0.0, 29.59000015258789, 0.0, 0.0, 0.0, 0.0, 13.450000762939453, -13.450000762939453)
2024/05/03/12:49:09.013727;76207;1714765749;33671940;;['BL_Position', 'BL_Wheel', 'BR_Position', 'BR_Wheel', 'FL_Position', 'FL_Wheel', 'FR_Position', 'FR_Wheel'];(1.5707963705062866, 951.5651245117188, 1.5707963705062866, 949.4221801757812, 1.572330355644226, 949.5095825195312, 1.5692623853683472, 954.05322265625);(0.0, 0.0, 0.0, 0.0, 0.0, 0.0, 0.0, 0.0);(0.0, 29.59000015258789, 0.0, 0.0, 0.0, 0.0, 13.450000762939453, -13.450000762939453)
2024/05/03/12:49:09.029137;76208;1714765749;49688475;;['BL_Position', 'BL_Wheel', 'BR_Position', 'BR_Wheel', 'FL_Position', 'FL_Wheel', 'FR_Position', 'FR_Wheel'];(1.572330355644226, 951.5651245117188, 1.5707963705062866, 949.4221801757812, 1.572330355644226, 949.5095825195312, 1.5692623853683472, 954.05322265625);(0.0, 0.0, 0.0, 0.0, 0.0, 0.0, 0.0, 0.0);(0.0, 29.59000015258789, 0.0, 0.0, 0.0, 0.0, 16.139999389648438, -13.450000762939453)
2024/05/03/12:49:09.045702;76209;1714765749;65595936;;['BL_Position', 'BL_Wheel', 'BR_Position', 'BR_Wheel', 'FL_Position', 'FL_Wheel', 'FR_Position', 'FR_Wheel'];(1.5707963705062866, 951.5651245117188, 1.572330355644226, 949.4221801757812, 1.572330355644226, 949.5095825195312, 1.5692623853683472, 954.05322265625);(0.0, 0.0, 0.0, 0.0, 0.0, 0.0, 0.0, 0.0);(0.0, 29.59000015258789, 0.0, 0.0, 0.0, 0.0, 13.450000762939453, -13.450000762939453)
2024/05/03/12:49:09.073246;76210;1714765749;81589730;;['BL_Position', 'BL_Wheel', 'BR_Position', 'BR_Wheel', 'FL_Position', 'FL_Wheel', 'FR_Position', 'FR_Wheel'];(1.5707963705062866, 951.5651245117188, 1.5707963705062866, 949.4221801757812, 1.572330355644226, 949.5095825195312, 1.5692623853683472, 954.05322265625);(0.0, 0.0, 0.0, 0.0, 0.0, 0.0, 0.0, 0.0);(0.0, 29.59000015258789, 0.0, 0.0, 0.0, 0.0, 16.139999389648438, -13.450000762939453)
2024/05/03/12:49:09.078283;76211;1714765749;97630209;;['BL_Position', 'BL_Wheel', 'BR_Position', 'BR_Wheel', 'FL_Position', 'FL_Wheel', 'FR_Position', 'FR_Wheel'];(1.5707963705062866, 951.5651245117188, 1.5707963705062866, 949.4221801757812, 1.572330355644226, 949.5095825195312, 1.5692623853683472, 954.05322265625);(0.0, 0.0, 0.0, 0.0, 0.0, 0.0, 0.0, 0.0);(0.0, 29.59000015258789, 0.0, 0.0, 0.0, 0.0, 16.139999389648438, -13.450000762939453)
2024/05/03/12:49:09.103333;76212;1714765749;113585040;;['BL_Position', 'BL_Wheel', 'BR_Position', 'BR_Wheel', 'FL_Position', 'FL_Wheel', 'FR_Position', 'FR_Wheel'];(1.5707963705062866, 951.5651245117188, 1.5707963705062866, 949.4221801757812, 1.572330355644226, 949.5095825195312, 1.5692623853683472, 954.05322265625);(0.0, 0.0, 0.0, 0.0, 0.0, 0.0, 0.0, 0.0);(0.0, 29.59000015258789, 0.0, 0.0, 0.0, 0.0, 16.139999389648438, -13.450000762939453)
2024/05/03/12:49:09.109734;76213;1714765749;129655130;;['BL_Position', 'BL_Wheel', 'BR_Position', 'BR_Wheel', 'FL_Position', 'FL_Wheel', 'FR_Position', 'FR_Wheel'];(1.5707963705062866, 951.5651245117188, 1.572330355644226, 949.4221801757812, 1.572330355644226, 949.5095825195312, 1.5692623853683472, 954.05322265625);(0.0, 0.0, 0.0, 0.0, 0.0, 0.0, 0.0, 0.0);(0.0, 29.59000015258789, 0.0, 0.0, 0.0, 0.0, 13.450000762939453, -13.450000762939453)
2024/05/03/12:49:09.125512;76214;1714765749;145670053;;['BL_Position', 'BL_Wheel', 'BR_Position', 'BR_Wheel', 'FL_Position', 'FL_Wheel', 'FR_Position', 'FR_Wheel'];(1.5707963705062866, 951.5651245117188, 1.572330355644226, 949.4221801757812, 1.572330355644226, 949.5095825195312, 1.5692623853683472, 954.05322265625);(0.0, 0.0, 0.0, 0.0, 0.0, 0.0, 0.0, 0.0);(0.0, 29.59000015258789, 0.0, 0.0, 0.0, 0.0, 16.139999389648438, -13.450000762939453)
2024/05/03/12:49:09.142073;76215;1714765749;162180014;;['BL_Position', 'BL_Wheel', 'BR_Position', 'BR_Wheel', 'FL_Position', 'FL_Wheel', 'FR_Position', 'FR_Wheel'];(1.5707963705062866, 951.5651245117188, 1.5707963705062866, 949.4221801757812, 1.572330355644226, 949.5095825195312, 1.5692623853683472, 954.05322265625);(0.0, 0.0, 0.0, 0.0, 0.0, 0.0, 0.0, 0.0);(0.0, 29.59000015258789, 0.0, 0.0, 0.0, 0.0, 13.450000762939453, -13.450000762939453)
2024/05/03/12:49:09.157097;76216;1714765749;177577289;;['BL_Position', 'BL_Wheel', 'BR_Position', 'BR_Wheel', 'FL_Position', 'FL_Wheel', 'FR_Position', 'FR_Wheel'];(1.572330355644226, 951.5651245117188, 1.572330355644226, 949.4221801757812, 1.572330355644226, 949.5095825195312, 1.5692623853683472, 954.05322265625);(0.0, 0.0, 0.0, 0.0, 0.0, 0.0, 0.0, 0.0);(0.0, 29.59000015258789, 0.0, 0.0, 0.0, 0.0, 13.450000762939453, -13.450000762939453)
2024/05/03/12:49:09.175515;76217;1714765749;193539343;;['BL_Position', 'BL_Wheel', 'BR_Position', 'BR_Wheel', 'FL_Position', 'FL_Wheel', 'FR_Position', 'FR_Wheel'];(1.5707963705062866, 951.5651245117188, 1.572330355644226, 949.4221801757812, 1.572330355644226, 949.5095825195312, 1.5692623853683472, 954.05322265625);(0.0, 0.0, 0.0, 0.0, 0.0, 0.0, 0.0, 0.0);(0.0, 29.59000015258789, 0.0, 0.0, 0.0, 0.0, 13.450000762939453, -13.450000762939453)
2024/05/03/12:49:09.189821;76218;1714765749;209836192;;['BL_Position', 'BL_Wheel', 'BR_Position', 'BR_Wheel', 'FL_Position', 'FL_Wheel', 'FR_Position', 'FR_Wheel'];(1.5707963705062866, 951.5651245117188, 1.572330355644226, 949.4221801757812, 1.572330355644226, 949.5095825195312, 1.5692623853683472, 954.05322265625);(0.0, 0.0, 0.0, 0.0, 0.0, 0.0, 0.0, 0.0);(0.0, 29.59000015258789, 0.0, 0.0, 0.0, 0.0, 13.450000762939453, -13.450000762939453)
2024/05/03/12:49:09.206637;76219;1714765749;226090949;;['BL_Position', 'BL_Wheel', 'BR_Position', 'BR_Wheel', 'FL_Position', 'FL_Wheel', 'FR_Position', 'FR_Wheel'];(1.5707963705062866, 951.5651245117188, 1.5707963705062866, 949.4221801757812, 1.572330355644226, 949.5095825195312, 1.5692623853683472, 954.05322265625);(0.0, 0.0, 0.0, 0.0, 0.0, 0.0, 0.0, 0.0);(0.0, 29.59000015258789, 0.0, 0.0, 0.0, 0.0, 13.450000762939453, -13.450000762939453)
2024/05/03/12:49:09.224477;76220;1714765749;241595521;;['BL_Position', 'BL_Wheel', 'BR_Position', 'BR_Wheel', 'FL_Position', 'FL_Wheel', 'FR_Position', 'FR_Wheel'];(1.5707963705062866, 951.5651245117188, 1.5707963705062866, 949.4221801757812, 1.572330355644226, 949.5095825195312, 1.5692623853683472, 954.05322265625);(0.0, 0.0, 0.0, 0.0, 0.0, 0.0, 0.0, 0.0);(0.0, 29.59000015258789, 0.0, 0.0, 0.0, 0.0, 13.450000762939453, -13.450000762939453)
2024/05/03/12:49:09.237231;76221;1714765749;257826463;;['BL_Position', 'BL_Wheel', 'BR_Position', 'BR_Wheel', 'FL_Position', 'FL_Wheel', 'FR_Position', 'FR_Wheel'];(1.5707963705062866, 951.5651245117188, 1.5707963705062866, 949.4221801757812, 1.5707963705062866, 949.5095825195312, 1.5692623853683472, 954.05322265625);(0.0, 0.0, 0.0, 0.0, 0.0, 0.0, 0.0, 0.0);(0.0, 29.59000015258789, 0.0, 0.0, 0.0, 0.0, 16.139999389648438, -13.450000762939453)
2024/05/03/12:49:09.252582;76222;1714765749;273551608;;['BL_Position', 'BL_Wheel', 'BR_Position', 'BR_Wheel', 'FL_Position', 'FL_Wheel', 'FR_Position', 'FR_Wheel'];(1.5707963705062866, 951.5651245117188, 1.572330355644226, 949.4221801757812, 1.572330355644226, 949.5095825195312, 1.5692623853683472, 954.05322265625);(0.0, 0.0, 0.0, 0.0, 0.0, 0.0, 0.0, 0.0);(0.0, 29.59000015258789, 0.0, 0.0, 0.0, 0.0, 16.139999389648438, -13.450000762939453)
2024/05/03/12:49:09.277208;76223;1714765749;289572791;;['BL_Position', 'BL_Wheel', 'BR_Position', 'BR_Wheel', 'FL_Position', 'FL_Wheel', 'FR_Position', 'FR_Wheel'];(1.5707963705062866, 951.5651245117188, 1.572330355644226, 949.4221801757812, 1.572330355644226, 949.5095825195312, 1.5692623853683472, 954.05322265625);(0.0, 0.0, 0.0, 0.0, 0.0, 0.0, 0.0, 0.0);(0.0, 29.59000015258789, 0.0, 0.0, 0.0, 0.0, 16.139999389648438, -13.450000762939453)
2024/05/03/12:49:09.285426;76224;1714765749;305563437;;['BL_Position', 'BL_Wheel', 'BR_Position', 'BR_Wheel', 'FL_Position', 'FL_Wheel', 'FR_Position', 'FR_Wheel'];(1.5707963705062866, 951.5651245117188, 1.572330355644226, 949.4221801757812, 1.572330355644226, 949.5095825195312, 1.5692623853683472, 954.05322265625);(0.0, 0.0, 0.0, 0.0, 0.0, 0.0, 0.0, 0.0);(0.0, 29.59000015258789, 0.0, 0.0, 0.0, 0.0, 16.139999389648438, -13.450000762939453)
2024/05/03/12:49:09.308758;76225;1714765749;321554027;;['BL_Position', 'BL_Wheel', 'BR_Position', 'BR_Wheel', 'FL_Position', 'FL_Wheel', 'FR_Position', 'FR_Wheel'];(1.5707963705062866, 951.5651245117188, 1.572330355644226, 949.4221801757812, 1.572330355644226, 949.5095825195312, 1.5692623853683472, 954.05322265625);(0.0, 0.0, 0.0, 0.0, 0.0, 0.0, 0.0, 0.0);(0.0, 29.59000015258789, 0.0, 0.0, 0.0, 0.0, 16.139999389648438, -13.450000762939453)
2024/05/03/12:49:09.317162;76226;1714765749;337588117;;['BL_Position', 'BL_Wheel', 'BR_Position', 'BR_Wheel', 'FL_Position', 'FL_Wheel', 'FR_Position', 'FR_Wheel'];(1.572330355644226, 951.5651245117188, 1.5707963705062866, 949.4221801757812, 1.572330355644226, 949.5095825195312, 1.5692623853683472, 954.05322265625);(0.0, 0.0, 0.0, 0.0, 0.0, 0.0, 0.0, 0.0);(0.0, 29.59000015258789, 0.0, 0.0, 0.0, 0.0, 16.139999389648438, -13.450000762939453)
2024/05/03/12:49:09.332999;76227;1714765749;353560041;;['BL_Position', 'BL_Wheel', 'BR_Position', 'BR_Wheel', 'FL_Position', 'FL_Wheel', 'FR_Position', 'FR_Wheel'];(1.5707963705062866, 951.5651245117188, 1.5707963705062866, 949.4221801757812, 1.572330355644226, 949.5095825195312, 1.5692623853683472, 954.05322265625);(0.0, 0.0, 0.0, 0.0, 0.0, 0.0, 0.0, 0.0);(0.0, 29.59000015258789, 0.0, 0.0, 0.0, 0.0, 16.139999389648438, -13.450000762939453)
2024/05/03/12:49:09.349799;76228;1714765749;369537001;;['BL_Position', 'BL_Wheel', 'BR_Position', 'BR_Wheel', 'FL_Position', 'FL_Wheel', 'FR_Position', 'FR_Wheel'];(1.5707963705062866, 951.5651245117188, 1.572330355644226, 949.4221801757812, 1.572330355644226, 949.5095825195312, 1.5692623853683472, 954.05322265625);(0.0, 0.0, 0.0, 0.0, 0.0, 0.0, 0.0, 0.0);(0.0, 29.59000015258789, 0.0, 0.0, 0.0, 0.0, 13.450000762939453, -13.450000762939453)
2024/05/03/12:49:09.365107;76229;1714765749;385555518;;['BL_Position', 'BL_Wheel', 'BR_Position', 'BR_Wheel', 'FL_Position', 'FL_Wheel', 'FR_Position', 'FR_Wheel'];(1.5707963705062866, 951.5651245117188, 1.572330355644226, 949.4221801757812, 1.572330355644226, 949.5095825195312, 1.5692623853683472, 954.05322265625);(0.0, 0.0, 0.0, 0.0, 0.0, 0.0, 0.0, 0.0);(0.0, 29.59000015258789, 0.0, 0.0, 0.0, 0.0, 13.450000762939453, -13.450000762939453)
2024/05/03/12:49:09.381752;76230;1714765749;401566663;;['BL_Position', 'BL_Wheel', 'BR_Position', 'BR_Wheel', 'FL_Position', 'FL_Wheel', 'FR_Position', 'FR_Wheel'];(1.5707963705062866, 951.5651245117188, 1.5707963705062866, 949.4237060546875, 1.572330355644226, 949.5095825195312, 1.5692623853683472, 954.05322265625);(0.0, 0.0, 0.0, 0.0, 0.0, 0.0, 0.0, 0.0);(0.0, 29.59000015258789, 0.0, 0.0, 0.0, 0.0, 13.450000762939453, -13.450000762939453)
2024/05/03/12:49:09.399619;76231;1714765749;417594883;;['BL_Position', 'BL_Wheel', 'BR_Position', 'BR_Wheel', 'FL_Position', 'FL_Wheel', 'FR_Position', 'FR_Wheel'];(1.5707963705062866, 951.5651245117188, 1.572330355644226, 949.4237060546875, 1.572330355644226, 949.5095825195312, 1.5692623853683472, 954.05322265625);(0.0, 0.0, 0.0, 0.0, 0.0, 0.0, 0.0, 0.0);(0.0, 29.59000015258789, 0.0, 0.0, 0.0, 0.0, 16.139999389648438, -13.450000762939453)
2024/05/03/12:49:09.413722;76232;1714765749;433609770;;['BL_Position', 'BL_Wheel', 'BR_Position', 'BR_Wheel', 'FL_Position', 'FL_Wheel', 'FR_Position', 'FR_Wheel'];(1.5707963705062866, 951.5651245117188, 1.5707963705062866, 949.4221801757812, 1.572330355644226, 949.5095825195312, 1.5692623853683472, 954.05322265625);(0.0, 0.0, 0.0, 0.0, 0.0, 0.0, 0.0, 0.0);(0.0, 29.59000015258789, 0.0, 0.0, 0.0, 0.0, 13.450000762939453, -13.450000762939453)
2024/05/03/12:49:09.431767;76233;1714765749;449713045;;['BL_Position', 'BL_Wheel', 'BR_Position', 'BR_Wheel', 'FL_Position', 'FL_Wheel', 'FR_Position', 'FR_Wheel'];(1.5707963705062866, 951.5651245117188, 1.5707963705062866, 949.4221801757812, 1.572330355644226, 949.5095825195312, 1.5692623853683472, 954.05322265625);(0.0, 0.0, 0.0, 0.0, 0.0, 0.0, 0.0, 0.0);(0.0, 29.59000015258789, 0.0, 0.0, 0.0, 0.0, 13.450000762939453, -13.450000762939453)
2024/05/03/12:49:09.445560;76234;1714765749;465589543;;['BL_Position', 'BL_Wheel', 'BR_Position', 'BR_Wheel', 'FL_Position', 'FL_Wheel', 'FR_Position', 'FR_Wheel'];(1.5707963705062866, 951.5635986328125, 1.5707963705062866, 949.4221801757812, 1.572330355644226, 949.5095825195312, 1.5692623853683472, 954.0516967773438);(0.0, 0.0, 0.0, 0.0, 0.0, 0.0, 0.0, 0.0);(0.0, 29.59000015258789, 0.0, 0.0, 0.0, 0.0, 18.829999923706055, -13.450000762939453)
2024/05/03/12:49:09.461180;76235;1714765749;481570059;;['BL_Position', 'BL_Wheel', 'BR_Position', 'BR_Wheel', 'FL_Position', 'FL_Wheel', 'FR_Position', 'FR_Wheel'];(1.5707963705062866, 951.5651245117188, 1.5707963705062866, 949.4221801757812, 1.572330355644226, 949.5095825195312, 1.5692623853683472, 954.05322265625);(0.0, 0.0, 0.0, 0.0, 0.0, 0.0, 0.0, 0.0);(0.0, 29.59000015258789, 0.0, 0.0, 0.0, 0.0, 16.139999389648438, -13.450000762939453)
2024/05/03/12:49:09.483014;76236;1714765749;497559982;;['BL_Position', 'BL_Wheel', 'BR_Position', 'BR_Wheel', 'FL_Position', 'FL_Wheel', 'FR_Position', 'FR_Wheel'];(1.5707963705062866, 951.5651245117188, 1.5707963705062866, 949.4221801757812, 1.572330355644226, 949.5095825195312, 1.5692623853683472, 954.05322265625);(0.0, 0.0, 0.0, 0.0, 0.0, 0.0, 0.0, 0.0);(0.0, 29.59000015258789, 0.0, 0.0, 0.0, 0.0, 16.139999389648438, -13.450000762939453)
2024/05/03/12:49:09.493982;76237;1714765749;513561424;;['BL_Position', 'BL_Wheel', 'BR_Position', 'BR_Wheel', 'FL_Position', 'FL_Wheel', 'FR_Position', 'FR_Wheel'];(1.5707963705062866, 951.5651245117188, 1.5707963705062866, 949.4221801757812, 1.572330355644226, 949.5095825195312, 1.5692623853683472, 954.05322265625);(0.0, 0.0, 0.0, 0.0, 0.0, 0.0, 0.0, 0.0);(0.0, 29.59000015258789, 0.0, 0.0, 0.0, 0.0, 13.450000762939453, -13.450000762939453)
2024/05/03/12:49:09.513115;76238;1714765749;529588144;;['BL_Position', 'BL_Wheel', 'BR_Position', 'BR_Wheel', 'FL_Position', 'FL_Wheel', 'FR_Position', 'FR_Wheel'];(1.5707963705062866, 951.5651245117188, 1.5707963705062866, 949.4221801757812, 1.572330355644226, 949.508056640625, 1.5692623853683472, 954.05322265625);(0.0, 0.0, 0.0, 0.0, 0.0, 0.0, 0.0, 0.0);(0.0, 29.59000015258789, 0.0, 0.0, 0.0, 0.0, 13.450000762939453, -13.450000762939453)
2024/05/03/12:49:09.524418;76239;1714765749;545597679;;['BL_Position', 'BL_Wheel', 'BR_Position', 'BR_Wheel', 'FL_Position', 'FL_Wheel', 'FR_Position', 'FR_Wheel'];(1.5707963705062866, 951.5728149414062, 1.5707963705062866, 949.4252319335938, 1.572330355644226, 949.5172729492188, 1.5692623853683472, 954.057861328125);(0.0, 0.0, 0.0, 0.0, 0.0, 0.0, 0.0, 0.0);(0.0, 188.3000030517578, 0.0, 134.5, 0.0, 150.63999938964844, 13.450000762939453, 150.63999938964844)
2024/05/03/12:49:09.542143;76240;1714765749;561612288;;['BL_Position', 'BL_Wheel', 'BR_Position', 'BR_Wheel', 'FL_Position', 'FL_Wheel', 'FR_Position', 'FR_Wheel'];(1.5707963705062866, 951.5942993164062, 1.5707963705062866, 949.4451904296875, 1.572330355644226, 949.540283203125, 1.5692623853683472, 954.07470703125);(0.0, 0.16786576807498932, 0.0, 0.0959232971072197, 0.0, 0.16786576807498932, 0.0, 0.0959232971072197);(0.0, 204.44000244140625, 0.0, 139.8800048828125, 0.0, 153.3300018310547, 13.450000762939453, 142.57000732421875)
2024/05/03/12:49:09.557372;76241;1714765749;577644341;;['BL_Position', 'BL_Wheel', 'BR_Position', 'BR_Wheel', 'FL_Position', 'FL_Wheel', 'FR_Position', 'FR_Wheel'];(1.5707963705062866, 951.6279907226562, 1.572330355644226, 949.4819946289062, 1.5707963705062866, 949.5770874023438, 1.5692623853683472, 954.1099853515625);(0.0, 0.4796164929866791, 0.0, 0.40767401456832886, 0.0, 0.5275781154632568, 0.0, 0.3836931884288788);(0.0, 207.1300048828125, 0.0, 139.8800048828125, 0.0, 153.3300018310547, 13.450000762939453, 123.74000549316406)
2024/05/03/12:49:09.584867;76242;1714765749;593575135;;['BL_Position', 'BL_Wheel', 'BR_Position', 'BR_Wheel', 'FL_Position', 'FL_Wheel', 'FR_Position', 'FR_Wheel'];(1.5707963705062866, 951.6786499023438, 1.5707963705062866, 949.5341186523438, 1.572330355644226, 949.6246337890625, 1.5692623853683472, 954.1590576171875);(0.0, 1.0311754941940308, 0.0, 0.9352521300315857, 0.0, 1.0311754941940308, 0.0, 0.911271333694458);(0.0, 169.47000122070312, 0.0, 123.74000549316406, 0.0, 126.43000030517578, 13.450000762939453, 91.45999908447266)
2024/05/03/12:49:09.590405;76243;1714765749;609697595;;['BL_Position', 'BL_Wheel', 'BR_Position', 'BR_Wheel', 'FL_Position', 'FL_Wheel', 'FR_Position', 'FR_Wheel'];(1.5707963705062866, 951.7369384765625, 1.5707963705062866, 949.5955200195312, 1.572330355644226, 949.6844482421875, 1.5692623853683472, 954.2189331054688);(0.0, 1.7266193628311157, 0.0, 1.6786576509475708, 0.0, 1.7506002187728882, 0.0, 1.6306960582733154);(0.0, 147.9499969482422, 0.0, 107.60000610351562, 0.0, 96.84000396728516, 13.450000762939453, 59.18000030517578)
2024/05/03/12:49:09.614502;76244;1714765749;625588667;;['BL_Position', 'BL_Wheel', 'BR_Position', 'BR_Wheel', 'FL_Position', 'FL_Wheel', 'FR_Position', 'FR_Wheel'];(1.5707963705062866, 951.804443359375, 1.5707963705062866, 949.6629638671875, 1.572330355644226, 949.7534790039062, 1.5692623853683472, 954.286376953125);(0.0, 2.470024824142456, 0.0, 2.517986536026001, 0.0, 2.517986536026001, 0.0, 2.4460439682006836);(0.0, 123.74000549316406, 0.0, 96.84000396728516, 0.0, 80.70000457763672, 16.139999389648438, 59.18000030517578)
2024/05/03/12:49:09.621106;76245;1714765749;641645961;;['BL_Position', 'BL_Wheel', 'BR_Position', 'BR_Wheel', 'FL_Position', 'FL_Wheel', 'FR_Position', 'FR_Wheel'];(1.5707963705062866, 951.8765258789062, 1.5707963705062866, 949.735107421875, 1.572330355644226, 949.8302001953125, 1.5692623853683472, 954.3585205078125);(0.0, 3.117507219314575, 0.0, 3.2374112606048584, 0.0, 3.213430404663086, 0.0, 3.1414880752563477);(0.0, 94.1500015258789, 0.0, 96.84000396728516, 0.0, 59.18000030517578, 13.450000762939453, 40.35000228881836)
2024/05/03/12:49:09.637850;76246;1714765749;657622051;;['BL_Position', 'BL_Wheel', 'BR_Position', 'BR_Wheel', 'FL_Position', 'FL_Wheel', 'FR_Position', 'FR_Wheel'];(1.5707963705062866, 951.9532470703125, 1.5707963705062866, 949.8132934570312, 1.5707963705062866, 949.908447265625, 1.5692623853683472, 954.4367065429688);(0.0, 3.693047046661377, 0.0, 3.8369319438934326, 0.0, 3.81295108795166, 0.0, 3.7649893760681152);(0.0, 83.38999938964844, 0.0, 83.38999938964844, -10.760000228881836, 37.65999984741211, 13.450000762939453, 21.520000457763672)
2024/05/03/12:49:09.653264;76247;1714765749;673532919;;['BL_Position', 'BL_Wheel', 'BR_Position', 'BR_Wheel', 'FL_Position', 'FL_Wheel', 'FR_Position', 'FR_Wheel'];(1.5707963705062866, 952.0360717773438, 1.572330355644226, 949.8992309570312, 1.572330355644226, 949.9943237304688, 1.5692623853683472, 954.5256958007812);(0.0, 4.17266321182251, 0.0, 4.292567729949951, 0.0, 4.292567729949951, 0.0, 4.292567729949951);(0.0, 75.31999969482422, 0.0, 75.31999969482422, 0.0, 26.900001525878906, 13.450000762939453, 13.450000762939453)
2024/05/03/12:49:09.669456;76248;1714765749;689619676;;['BL_Position', 'BL_Wheel', 'BR_Position', 'BR_Wheel', 'FL_Position', 'FL_Wheel', 'FR_Position', 'FR_Wheel'];(1.5707963705062866, 952.1035766601562, 1.572330355644226, 949.9713134765625, 1.572330355644226, 950.06640625, 1.5692623853683472, 954.5977783203125);(0.0, 4.412471771240234, 0.0, 4.556356430053711, 0.0, 4.5803375244140625, 0.0, 4.5803375244140625);(0.0, 69.94000244140625, 0.0, 72.6300048828125, 0.0, 26.900001525878906, 16.139999389648438, 10.760000228881836)
2024/05/03/12:49:09.687984;76249;1714765749;707252988;;['BL_Position', 'BL_Wheel', 'BR_Position', 'BR_Wheel', 'FL_Position', 'FL_Wheel', 'FR_Position', 'FR_Wheel'];(1.5707963705062866, 952.1802368164062, 1.5707963705062866, 950.049560546875, 1.572330355644226, 950.1461791992188, 1.5692623853683472, 954.6729736328125);(0.0, 4.5803375244140625, 0.0, 4.748203277587891, 0.0, 4.772183895111084, 0.0, 4.772183895111084);(0.0, 67.25, 0.0, 78.01000213623047, 0.0, 26.900001525878906, 13.450000762939453, 10.760000228881836)
2024/05/03/12:49:09.701483;76250;1714765749;721571542;;['BL_Position', 'BL_Wheel', 'BR_Position', 'BR_Wheel', 'FL_Position', 'FL_Wheel', 'FR_Position', 'FR_Wheel'];(1.5707963705062866, 952.2646484375, 1.5707963705062866, 950.1385498046875, 1.572330355644226, 950.2351684570312, 1.5692623853683472, 954.7604370117188);(0.0, 4.676260948181152, 0.0, 4.8441267013549805, 0.0, 4.868107318878174, 0.0, 4.868107318878174);(0.0, 67.25, 0.0, 80.70000457763672, -16.139999389648438, 29.59000015258789, 13.450000762939453, 10.760000228881836)
2024/05/03/12:49:09.721032;76251;1714765749;738079817;;['BL_Position', 'BL_Wheel', 'BR_Position', 'BR_Wheel', 'FL_Position', 'FL_Wheel', 'FR_Position', 'FR_Wheel'];(1.5707963705062866, 952.3336791992188, 1.572330355644226, 950.2091064453125, 1.572330355644226, 950.3057250976562, 1.5692623853683472, 954.8340454101562);(0.0, 4.700241565704346, 0.0, 4.868107318878174, 0.0, 4.916069030761719, 0.0, 4.916069030761719);(-2.690000057220459, 64.55999755859375, 0.0, 78.01000213623047, -16.139999389648438, 29.59000015258789, 13.450000762939453, 10.760000228881836)
2024/05/03/12:49:09.731611;76252;1714765749;753559796;;['BL_Position', 'BL_Wheel', 'BR_Position', 'BR_Wheel', 'FL_Position', 'FL_Wheel', 'FR_Position', 'FR_Wheel'];(1.5707963705062866, 952.4103393554688, 1.5707963705062866, 950.2857666015625, 1.572330355644226, 950.3839721679688, 1.5692623853683472, 954.9122924804688);(0.0, 4.724222183227539, 0.0, 4.892087936401367, 0.0, 4.940049648284912, 0.0, 4.916069030761719);(-2.690000057220459, 67.25, 0.0, 75.31999969482422, -16.139999389648438, 26.900001525878906, 13.450000762939453, 10.760000228881836)
2024/05/03/12:49:09.751694;76253;1714765749;771484571;;['BL_Position', 'BL_Wheel', 'BR_Position', 'BR_Wheel', 'FL_Position', 'FL_Wheel', 'FR_Position', 'FR_Wheel'];(1.5707963705062866, 952.487060546875, 1.5707963705062866, 950.3655395507812, 1.572330355644226, 950.4622192382812, 1.5692623853683472, 954.990478515625);(0.0, 4.724222183227539, 0.0, 4.892087936401367, 0.0, 4.940049648284912, 0.0, 4.940049648284912);(-2.690000057220459, 75.31999969482422, 0.0, 75.31999969482422, -13.450000762939453, 21.520000457763672, 13.450000762939453, 2.690000057220459)
2024/05/03/12:49:09.765180;76254;1714765749;785508365;;['BL_Position', 'BL_Wheel', 'BR_Position', 'BR_Wheel', 'FL_Position', 'FL_Wheel', 'FR_Position', 'FR_Wheel'];(1.5707963705062866, 952.568359375, 1.5707963705062866, 950.449951171875, 1.5707963705062866, 950.5465698242188, 1.5692623853683472, 955.0779418945312);(0.0, 4.724222183227539, 0.0, 4.892087936401367, 0.0, 4.916069030761719, 0.0, 4.916069030761719);(-10.760000228881836, 64.55999755859375, 0.0, 56.4900016784668, -32.279998779296875, 2.690000057220459, 13.450000762939453, -26.900001525878906)
2024/05/03/12:49:09.789766;76255;1714765749;801602215;;['BL_Position', 'BL_Wheel', 'BR_Position', 'BR_Wheel', 'FL_Position', 'FL_Wheel', 'FR_Position', 'FR_Wheel'];(1.5707963705062866, 952.6327514648438, 1.572330355644226, 950.5128173828125, 1.5707963705062866, 950.6156005859375, 1.5692623853683472, 955.1408081054688);(0.0, 4.700241565704346, 0.0, 4.868107318878174, 0.0, 4.892087936401367, 0.0, 4.892087936401367);(-10.760000228881836, 59.18000030517578, 0.0, 48.42000198364258, -29.59000015258789, 0.0, 13.450000762939453, -37.65999984741211)
2024/05/03/12:49:09.796930;76256;1714765749;817550786;;['BL_Position', 'BL_Wheel', 'BR_Position', 'BR_Wheel', 'FL_Position', 'FL_Wheel', 'FR_Position', 'FR_Wheel'];(1.5707963705062866, 952.7033081054688, 1.572330355644226, 950.5833740234375, 1.572330355644226, 950.6876831054688, 1.5692623853683472, 955.2129516601562);(0.0, 4.652279853820801, 0.0, 4.7961649894714355, 0.0, 4.820145606994629, 0.0, 4.8441267013549805);(-10.760000228881836, 53.80000305175781, 2.690000057220459, 29.59000015258789, -29.59000015258789, 0.0, 29.59000015258789, -45.72999954223633)
2024/05/03/12:49:09.820317;76257;1714765749;833532914;;['BL_Position', 'BL_Wheel', 'BR_Position', 'BR_Wheel', 'FL_Position', 'FL_Wheel', 'FR_Position', 'FR_Wheel'];(1.5707963705062866, 952.769287109375, 1.572330355644226, 950.6524047851562, 1.572330355644226, 950.753662109375, 1.5692623853683472, 955.2804565429688);(0.0, 4.556356430053711, 0.0, 4.676260948181152, 0.0, 4.676260948181152, 0.0, 4.724222183227539);(-24.21000099182129, 59.18000030517578, 2.690000057220459, 18.829999923706055, -43.040000915527344, -2.690000057220459, 32.279998779296875, -45.72999954223633)
2024/05/03/12:49:09.829113;76258;1714765749;849536948;;['BL_Position', 'BL_Wheel', 'BR_Position', 'BR_Wheel', 'FL_Position', 'FL_Wheel', 'FR_Position', 'FR_Wheel'];(1.5707963705062866, 952.8322143554688, 1.572330355644226, 950.7168579101562, 1.5707963705062866, 950.8165283203125, 1.5692623853683472, 955.3463745117188);(0.0, 4.412471771240234, 0.0, 4.532375812530518, 0.0, 4.508395195007324, 0.0, 4.556356430053711);(-32.279998779296875, 59.18000030517578, 8.069999694824219, 8.069999694824219, -45.72999954223633, -8.069999694824219, 32.279998779296875, -53.80000305175781)
2024/05/03/12:49:09.845094;76259;1714765749;865503020;;['BL_Position', 'BL_Wheel', 'BR_Position', 'BR_Wheel', 'FL_Position', 'FL_Wheel', 'FR_Position', 'FR_Wheel'];(1.5707963705062866, 952.8905029296875, 1.572330355644226, 950.775146484375, 1.5707963705062866, 950.8779296875, 1.5692623853683472, 955.4046630859375);(0.0, 4.244606018066406, 0.0, 4.3165483474731445, 0.0, 4.292567729949951, 0.0, 4.340528964996338);(-34.970001220703125, 67.25, 10.760000228881836, 8.069999694824219, -45.72999954223633, -5.380000114440918, 32.279998779296875, -40.35000228881836)
2024/05/03/12:49:09.861130;76260;1714765749;881553962;;['BL_Position', 'BL_Wheel', 'BR_Position', 'BR_Wheel', 'FL_Position', 'FL_Wheel', 'FR_Position', 'FR_Wheel'];(1.5707963705062866, 952.9456787109375, 1.5707963705062866, 950.8319091796875, 1.5707963705062866, 950.93310546875, 1.5692623853683472, 955.4598999023438);(0.0, 4.028778553009033, 0.0, 4.1007208824157715, 0.0, 4.076740264892578, 0.0, 4.124701976776123);(-48.42000198364258, 64.55999755859375, 8.069999694824219, 5.380000114440918, -59.18000030517578, -8.069999694824219, 45.72999954223633, -34.970001220703125)
2024/05/03/12:49:09.876944;76261;1714765749;897538960;;['BL_Position', 'BL_Wheel', 'BR_Position', 'BR_Wheel', 'FL_Position', 'FL_Wheel', 'FR_Position', 'FR_Wheel'];(1.5692623853683472, 952.996337890625, 1.572330355644226, 950.884033203125, 1.5707963705062866, 950.9852905273438, 1.5692623853683472, 955.510498046875);(0.0, 3.81295108795166, 0.0, 3.8848934173583984, 0.0, 3.8369319438934326, 0.0, 3.860912799835205);(-59.18000030517578, 69.94000244140625, 10.760000228881836, 2.690000057220459, -75.31999969482422, -10.760000228881836, 51.11000061035156, -32.279998779296875)
2024/05/03/12:49:09.893502;76262;1714765749;913560828;;['BL_Position', 'BL_Wheel', 'BR_Position', 'BR_Wheel', 'FL_Position', 'FL_Wheel', 'FR_Position', 'FR_Wheel'];(1.5692623853683472, 953.0423583984375, 1.572330355644226, 950.9315795898438, 1.5707963705062866, 951.0328369140625, 1.5692623853683472, 955.5565185546875);(0.0, 3.5731427669525146, 0.0, 3.645085334777832, 0.0, 3.597123622894287, 0.0, 3.597123622894287);(-61.87000274658203, 69.94000244140625, 2.690000057220459, 2.690000057220459, -80.70000457763672, -5.380000114440918, 67.25, -18.829999923706055)
2024/05/03/12:49:09.914370;76263;1714765749;929687603;;['BL_Position', 'BL_Wheel', 'BR_Position', 'BR_Wheel', 'FL_Position', 'FL_Wheel', 'FR_Position', 'FR_Wheel'];(1.5692623853683472, 953.0868530273438, 1.572330355644226, 950.9776000976562, 1.5707963705062866, 951.0773315429688, 1.5692623853683472, 955.5994873046875);(0.0, 3.3333346843719482, 0.0, 3.4052770137786865, 0.0, 3.3573153018951416, 0.0, 3.3333346843719482);(-75.31999969482422, 67.25, 13.450000762939453, 2.690000057220459, -94.1500015258789, -5.380000114440918, 69.94000244140625, -18.829999923706055)
2024/05/03/12:49:09.925440;76264;1714765749;945580656;;['BL_Position', 'BL_Wheel', 'BR_Position', 'BR_Wheel', 'FL_Position', 'FL_Wheel', 'FR_Position', 'FR_Wheel'];(1.5692623853683472, 953.13134765625, 1.572330355644226, 951.01904296875, 1.5692623853683472, 951.1187133789062, 1.5692623853683472, 955.6409301757812);(0.0, 3.0695455074310303, 0.0, 3.165468692779541, 0.0, 3.117507219314575, 0.0, 3.0695455074310303);(-86.08000183105469, 72.6300048828125, 18.829999923706055, 5.380000114440918, -115.67000579833984, 0.0, 64.55999755859375, -10.760000228881836)
2024/05/03/12:49:09.941575;76265;1714765749;961566913;;['BL_Position', 'BL_Wheel', 'BR_Position', 'BR_Wheel', 'FL_Position', 'FL_Wheel', 'FR_Position', 'FR_Wheel'];(1.5692623853683472, 953.1666259765625, 1.572330355644226, 951.0558471679688, 1.5692623853683472, 951.1555786132812, 1.5692623853683472, 955.677734375);(0.0, 2.8776988983154297, 0.0, 2.9256606101989746, 0.0, 2.8776988983154297, 0.0, 2.8297371864318848);(-99.52999877929688, 75.31999969482422, 34.970001220703125, 5.380000114440918, -112.9800033569336, -2.690000057220459, 83.38999938964844, -10.760000228881836)
2024/05/03/12:49:09.957237;76266;1714765749;977767226;;['BL_Position', 'BL_Wheel', 'BR_Position', 'BR_Wheel', 'FL_Position', 'FL_Wheel', 'FR_Position', 'FR_Wheel'];(1.5692623853683472, 953.201904296875, 1.572330355644226, 951.089599609375, 1.5692623853683472, 951.1908569335938, 1.5707963705062866, 955.7130126953125);(0.0, 2.6618714332580566, 0.0, 2.7098331451416016, 0.0, 2.6618714332580566, 0.0, 2.637890577316284);(-115.67000579833984, 78.01000213623047, 45.72999954223633, 2.690000057220459, -123.74000549316406, -2.690000057220459, 80.70000457763672, -10.760000228881836)
2024/05/03/12:49:09.973919;76267;1714765749;993580371;;['BL_Position', 'BL_Wheel', 'BR_Position', 'BR_Wheel', 'FL_Position', 'FL_Wheel', 'FR_Position', 'FR_Wheel'];(1.5692623853683472, 953.2356567382812, 1.572330355644226, 951.1233520507812, 1.5692623853683472, 951.2230224609375, 1.5707963705062866, 955.7452392578125);(0.0, 2.470024824142456, 0.0, 2.4940056800842285, 0.0, 2.470024824142456, 0.0, 2.4460439682006836);(-118.36000061035156, 83.38999938964844, 51.11000061035156, 5.380000114440918, -129.1199951171875, 0.0, 75.31999969482422, -5.380000114440918)
2024/05/03/12:49:09.994239;76268;1714765750;9536850;;['BL_Position', 'BL_Wheel', 'BR_Position', 'BR_Wheel', 'FL_Position', 'FL_Wheel', 'FR_Position', 'FR_Wheel'];(1.5677284002304077, 953.2647705078125, 1.572330355644226, 951.1539916992188, 1.5692623853683472, 951.2537231445312, 1.5707963705062866, 955.77587890625);(0.0, 2.302159070968628, 0.0, 2.3261399269104004, 0.0, 2.2781782150268555, 0.0, 2.254197597503662);(-115.67000579833984, 88.77000427246094, 53.80000305175781, 8.069999694824219, -142.57000732421875, 0.0, 75.31999969482422, -2.690000057220459)
2024/05/03/12:49:10.005797;76269;1714765750;25557107;;['BL_Position', 'BL_Wheel', 'BR_Position', 'BR_Wheel', 'FL_Position', 'FL_Wheel', 'FR_Position', 'FR_Wheel'];(1.5677284002304077, 953.2923583984375, 1.572330355644226, 951.181640625, 1.5692623853683472, 951.2828979492188, 1.5707963705062866, 955.802001953125);(0.0, 2.1342933177948, 0.0, 2.1582741737365723, 0.0, 2.1342933177948, 0.0, 2.1103124618530273);(-137.19000244140625, 86.08000183105469, 53.80000305175781, 8.069999694824219, -139.8800048828125, 0.0, 78.01000213623047, 0.0)
2024/05/03/12:49:10.027999;76270;1714765750;41541309;;['BL_Position', 'BL_Wheel', 'BR_Position', 'BR_Wheel', 'FL_Position', 'FL_Wheel', 'FR_Position', 'FR_Wheel'];(1.5692623853683472, 953.3184814453125, 1.572330355644226, 951.209228515625, 1.5692623853683472, 951.3089599609375, 1.5707963705062866, 955.82958984375);(0.0, 1.9904084205627441, 0.0, 2.0143892765045166, 0.0, 1.9904084205627441, 0.0, 1.9664275646209717);(-137.19000244140625, 86.08000183105469, 56.4900016784668, 10.760000228881836, -139.8800048828125, 0.0, 78.01000213623047, 0.0)
2024/05/03/12:49:10.037159;76271;1714765750;57657677;;['BL_Position', 'BL_Wheel', 'BR_Position', 'BR_Wheel', 'FL_Position', 'FL_Wheel', 'FR_Position', 'FR_Wheel'];(1.5677284002304077, 953.343017578125, 1.572330355644226, 951.2337646484375, 1.5677284002304077, 951.33349609375, 1.5707963705062866, 955.8541259765625);(0.0, 1.8465235233306885, 0.0, 1.8705042600631714, 0.0, 1.8465235233306885, 0.0, 1.8465235233306885);(-137.19000244140625, 91.45999908447266, 53.80000305175781, 13.450000762939453, -139.8800048828125, 0.0, 78.01000213623047, 0.0)
2024/05/03/12:49:10.053421;76272;1714765750;73566970;;['BL_Position', 'BL_Wheel', 'BR_Position', 'BR_Wheel', 'FL_Position', 'FL_Wheel', 'FR_Position', 'FR_Wheel'];(1.5677284002304077, 953.3675537109375, 1.572330355644226, 951.25830078125, 1.5692623853683472, 951.3580322265625, 1.5707963705062866, 955.878662109375);(0.0, 1.7266193628311157, 0.0, 1.7506002187728882, 0.0, 1.7266193628311157, 0.0, 1.7266193628311157);(-137.19000244140625, 96.84000396728516, 56.4900016784668, 16.139999389648438, -139.8800048828125, 0.0, 75.31999969482422, 2.690000057220459)
2024/05/03/12:49:10.069310;76273;1714765750;89553561;;['BL_Position', 'BL_Wheel', 'BR_Position', 'BR_Wheel', 'FL_Position', 'FL_Wheel', 'FR_Position', 'FR_Wheel'];(1.5677284002304077, 953.3890380859375, 1.572330355644226, 951.2828979492188, 1.5692623853683472, 951.382568359375, 1.5707963705062866, 955.9016723632812);(0.0, 1.6306960582733154, 0.0, 1.654676914215088, 0.0, 1.6306960582733154, 0.0, 1.6306960582733154);(-137.19000244140625, 102.22000122070312, 53.80000305175781, 18.829999923706055, -139.8800048828125, 0.0, 75.31999969482422, 5.380000114440918)
2024/05/03/12:49:10.096626;76274;1714765750;105616262;;['BL_Position', 'BL_Wheel', 'BR_Position', 'BR_Wheel', 'FL_Position', 'FL_Wheel', 'FR_Position', 'FR_Wheel'];(1.5677284002304077, 953.4105224609375, 1.572330355644226, 951.305908203125, 1.5692623853683472, 951.4055786132812, 1.5707963705062866, 955.9246826171875);(0.0, 1.5347727537155151, 0.0, 1.5587536096572876, 0.0, 1.5587536096572876, 0.0, 1.5587536096572876);(-115.67000579833984, 102.22000122070312, 40.35000228881836, 18.829999923706055, -139.8800048828125, 0.0, 56.4900016784668, 8.069999694824219)
2024/05/03/12:49:10.101900;76275;1714765750;121558149;;['BL_Position', 'BL_Wheel', 'BR_Position', 'BR_Wheel', 'FL_Position', 'FL_Wheel', 'FR_Position', 'FR_Wheel'];(1.5692623853683472, 953.4335327148438, 1.572330355644226, 951.3273315429688, 1.5692623853683472, 951.4270629882812, 1.5707963705062866, 955.9476928710938);(0.0, 1.4628303050994873, 0.0, 1.5107918977737427, 0.0, 1.4868111610412598, 0.0, 1.4868111610412598);(-112.9800033569336, 104.91000366210938, 40.35000228881836, 21.520000457763672, -139.8800048828125, 0.0, 56.4900016784668, 8.069999694824219)
2024/05/03/12:49:10.120560;76276;1714765750;137587720;;['BL_Position', 'BL_Wheel', 'BR_Position', 'BR_Wheel', 'FL_Position', 'FL_Wheel', 'FR_Position', 'FR_Wheel'];(1.5677284002304077, 953.4550170898438, 1.572330355644226, 951.350341796875, 1.5692623853683472, 951.4485473632812, 1.5707963705062866, 955.9676513671875);(0.0, 1.4148685932159424, 0.0, 1.4628303050994873, 0.0, 1.4388494491577148, 0.0, 1.4388494491577148);(-112.9800033569336, 104.91000366210938, 40.35000228881836, 24.21000099182129, -110.29000091552734, 2.690000057220459, 53.80000305175781, 10.760000228881836)
2024/05/03/12:49:10.133976;76277;1714765750;153584773;;['BL_Position', 'BL_Wheel', 'BR_Position', 'BR_Wheel', 'FL_Position', 'FL_Wheel', 'FR_Position', 'FR_Wheel'];(1.5692623853683472, 953.47802734375, 1.572330355644226, 951.371826171875, 1.5677284002304077, 951.4700317382812, 1.5707963705062866, 955.9921875);(0.0, 1.3908878564834595, 0.0, 1.4148685932159424, 0.0, 1.4148685932159424, 0.0, 1.3908878564834595);(-118.36000061035156, 107.60000610351562, 40.35000228881836, 24.21000099182129, -118.36000061035156, 2.690000057220459, 56.4900016784668, 13.450000762939453)
2024/05/03/12:49:10.149113;76278;1714765750;169544308;;['BL_Position', 'BL_Wheel', 'BR_Position', 'BR_Wheel', 'FL_Position', 'FL_Wheel', 'FR_Position', 'FR_Wheel'];(1.5677284002304077, 953.5010375976562, 1.572330355644226, 951.3948364257812, 1.5677284002304077, 951.4930419921875, 1.5707963705062866, 956.013671875);(0.0, 1.366907000541687, 0.0, 1.3908878564834595, 0.0, 1.366907000541687, 0.0, 1.366907000541687);(-115.67000579833984, 107.60000610351562, 40.35000228881836, 26.900001525878906, -121.05000305175781, 5.380000114440918, 56.4900016784668, 13.450000762939453)
2024/05/03/12:49:10.165287;76279;1714765750;185543509;;['BL_Position', 'BL_Wheel', 'BR_Position', 'BR_Wheel', 'FL_Position', 'FL_Wheel', 'FR_Position', 'FR_Wheel'];(1.5692623853683472, 953.5224609375, 1.572330355644226, 951.4163208007812, 1.5692623853683472, 951.5145263671875, 1.5707963705062866, 956.0366821289062);(0.0, 1.366907000541687, 0.0, 1.3908878564834595, 0.0, 1.366907000541687, 0.0, 1.366907000541687);(-115.67000579833984, 112.9800033569336, 37.65999984741211, 29.59000015258789, -115.67000579833984, 5.380000114440918, 59.18000030517578, 13.450000762939453)
2024/05/03/12:49:10.181194;76280;1714765750;201530081;;['BL_Position', 'BL_Wheel', 'BR_Position', 'BR_Wheel', 'FL_Position', 'FL_Wheel', 'FR_Position', 'FR_Wheel'];(1.5692623853683472, 953.5454711914062, 1.572330355644226, 951.4393310546875, 1.5692623853683472, 951.5375366210938, 1.5707963705062866, 956.0581665039062);(0.0, 1.3908878564834595, 0.0, 1.3908878564834595, 0.0, 1.366907000541687, 0.0, 1.366907000541687);(-112.9800033569336, 115.67000579833984, 18.829999923706055, 29.59000015258789, -107.60000610351562, 5.380000114440918, 53.80000305175781, 16.139999389648438)
2024/05/03/12:49:10.199683;76281;1714765750;217561782;;['BL_Position', 'BL_Wheel', 'BR_Position', 'BR_Wheel', 'FL_Position', 'FL_Wheel', 'FR_Position', 'FR_Wheel'];(1.5677284002304077, 953.5684814453125, 1.572330355644226, 951.4623413085938, 1.5692623853683472, 951.5620727539062, 1.5707963705062866, 956.0811767578125);(0.0, 1.3908878564834595, 0.0, 1.3908878564834595, 0.0, 1.3908878564834595, 0.0, 1.366907000541687);(-96.84000396728516, 118.36000061035156, 16.139999389648438, 32.279998779296875, -96.84000396728516, 8.069999694824219, 34.970001220703125, 13.450000762939453)
2024/05/03/12:49:10.213355;76282;1714765750;233481873;;['BL_Position', 'BL_Wheel', 'BR_Position', 'BR_Wheel', 'FL_Position', 'FL_Wheel', 'FR_Position', 'FR_Wheel'];(1.5692623853683472, 953.593017578125, 1.572330355644226, 951.4868774414062, 1.5692623853683472, 951.5866088867188, 1.5707963705062866, 956.1041870117188);(0.0, 1.4148685932159424, 0.0, 1.4148685932159424, 0.0, 1.4148685932159424, 0.0, 1.3908878564834595);(-96.84000396728516, 118.36000061035156, 16.139999389648438, 34.970001220703125, -94.1500015258789, 8.069999694824219, 34.970001220703125, 16.139999389648438)
2024/05/03/12:49:10.231790;76283;1714765750;249501815;;['BL_Position', 'BL_Wheel', 'BR_Position', 'BR_Wheel', 'FL_Position', 'FL_Wheel', 'FR_Position', 'FR_Wheel'];(1.5692623853683472, 953.6176147460938, 1.572330355644226, 951.5114135742188, 1.5692623853683472, 951.6111450195312, 1.5707963705062866, 956.1287231445312);(0.0, 1.4388494491577148, 0.0, 1.4388494491577148, 0.0, 1.4388494491577148, 0.0, 1.4148685932159424);(-91.45999908447266, 112.9800033569336, 16.139999389648438, 34.970001220703125, -99.52999877929688, 8.069999694824219, 32.279998779296875, 13.450000762939453)
2024/05/03/12:49:10.247838;76284;1714765750;265528368;;['BL_Position', 'BL_Wheel', 'BR_Position', 'BR_Wheel', 'FL_Position', 'FL_Wheel', 'FR_Position', 'FR_Wheel'];(1.5692623853683472, 953.6421508789062, 1.572330355644226, 951.5359497070312, 1.5677284002304077, 951.6356811523438, 1.5692623853683472, 956.15478515625);(0.0, 1.4628303050994873, 0.0, 1.4868111610412598, 0.0, 1.4868111610412598, 0.0, 1.4628303050994873);(-91.45999908447266, 115.67000579833984, 16.139999389648438, 37.65999984741211, -94.1500015258789, 10.760000228881836, 37.65999984741211, 13.450000762939453)
2024/05/03/12:49:10.261583;76285;1714765750;281581995;;['BL_Position', 'BL_Wheel', 'BR_Position', 'BR_Wheel', 'FL_Position', 'FL_Wheel', 'FR_Position', 'FR_Wheel'];(1.5692623853683472, 953.6712646484375, 1.572330355644226, 951.5651245117188, 1.5692623853683472, 951.6632690429688, 1.5707963705062866, 956.1839599609375);(0.0, 1.5347727537155151, 0.0, 1.5347727537155151, 0.0, 1.5107918977737427, 0.0, 1.5107918977737427);(-91.45999908447266, 118.36000061035156, 16.139999389648438, 34.970001220703125, -99.52999877929688, 8.069999694824219, 34.970001220703125, 8.069999694824219)
2024/05/03/12:49:10.278075;76286;1714765750;298221326;;['BL_Position', 'BL_Wheel', 'BR_Position', 'BR_Wheel', 'FL_Position', 'FL_Wheel', 'FR_Position', 'FR_Wheel'];(1.5677284002304077, 953.6973876953125, 1.572330355644226, 951.5927124023438, 1.5677284002304077, 951.69091796875, 1.5707963705062866, 956.2100219726562);(0.0, 1.5827343463897705, 0.0, 1.5827343463897705, 0.0, 1.5587536096572876, 0.0, 1.5587536096572876);(-75.31999969482422, 121.05000305175781, 8.069999694824219, 34.970001220703125, -78.01000213623047, 8.069999694824219, 21.520000457763672, 10.760000228881836)
2024/05/03/12:49:10.302526;76287;1714765750;313787638;;['BL_Position', 'BL_Wheel', 'BR_Position', 'BR_Wheel', 'FL_Position', 'FL_Wheel', 'FR_Position', 'FR_Wheel'];(1.5692623853683472, 953.7265014648438, 1.572330355644226, 951.6234130859375, 1.5692623853683472, 951.7200317382812, 1.5692623853683472, 956.2391357421875);(0.0, 1.6306960582733154, 0.0, 1.6306960582733154, 0.0, 1.6306960582733154, 0.0, 1.606715202331543);(-69.94000244140625, 118.36000061035156, 8.069999694824219, 34.970001220703125, -78.01000213623047, 8.069999694824219, 16.139999389648438, 10.760000228881836)
2024/05/03/12:49:10.308058;76288;1714765750;329535840;;['BL_Position', 'BL_Wheel', 'BR_Position', 'BR_Wheel', 'FL_Position', 'FL_Wheel', 'FR_Position', 'FR_Wheel'];(1.5677284002304077, 953.7540893554688, 1.572330355644226, 951.6494750976562, 1.5692623853683472, 951.7476806640625, 1.5707963705062866, 956.2652587890625);(0.0, 1.6786576509475708, 0.0, 1.6786576509475708, 0.0, 1.654676914215088, 0.0, 1.654676914215088);(-75.31999969482422, 118.36000061035156, 5.380000114440918, 34.970001220703125, -72.6300048828125, 8.069999694824219, 21.520000457763672, 8.069999694824219)
2024/05/03/12:49:10.327223;76289;1714765750;345549893;;['BL_Position', 'BL_Wheel', 'BR_Position', 'BR_Wheel', 'FL_Position', 'FL_Wheel', 'FR_Position', 'FR_Wheel'];(1.5692623853683472, 953.7832641601562, 1.572330355644226, 951.6771240234375, 1.5677284002304077, 951.7752685546875, 1.5707963705062866, 956.2943725585938);(0.0, 1.7026385068893433, 0.0, 1.7266193628311157, 0.0, 1.7026385068893433, 0.0, 1.7026385068893433);(-67.25, 115.67000579833984, 2.690000057220459, 34.970001220703125, -78.01000213623047, 8.069999694824219, 18.829999923706055, 8.069999694824219)
2024/05/03/12:49:10.341101;76290;1714765750;361569409;;['BL_Position', 'BL_Wheel', 'BR_Position', 'BR_Wheel', 'FL_Position', 'FL_Wheel', 'FR_Position', 'FR_Wheel'];(1.5677284002304077, 953.81396484375, 1.572330355644226, 951.707763671875, 1.5692623853683472, 951.804443359375, 1.5707963705062866, 956.3250732421875);(0.0, 1.7506002187728882, 0.0, 1.7506002187728882, 0.0, 1.7506002187728882, 0.0, 1.7266193628311157);(-75.31999969482422, 118.36000061035156, 2.690000057220459, 34.970001220703125, -78.01000213623047, 8.069999694824219, 24.21000099182129, 8.069999694824219)
2024/05/03/12:49:10.357151;76291;1714765750;377524296;;['BL_Position', 'BL_Wheel', 'BR_Position', 'BR_Wheel', 'FL_Position', 'FL_Wheel', 'FR_Position', 'FR_Wheel'];(1.5677284002304077, 953.8430786132812, 1.572330355644226, 951.7384643554688, 1.5677284002304077, 951.8335571289062, 1.5692623853683472, 956.3557739257812);(0.0, 1.7985618114471436, 0.0, 1.7985618114471436, 0.0, 1.774580955505371, 0.0, 1.774580955505371);(-56.4900016784668, 118.36000061035156, 2.690000057220459, 34.970001220703125, -56.4900016784668, 5.380000114440918, 16.139999389648438, 8.069999694824219)
2024/05/03/12:49:10.373723;76292;1714765750;393544497;;['BL_Position', 'BL_Wheel', 'BR_Position', 'BR_Wheel', 'FL_Position', 'FL_Wheel', 'FR_Position', 'FR_Wheel'];(1.5692623853683472, 953.8768310546875, 1.572330355644226, 951.772216796875, 1.5692623853683472, 951.8657836914062, 1.5707963705062866, 956.3864135742188);(0.0, 1.822542667388916, 0.0, 1.8465235233306885, 0.0, 1.822542667388916, 0.0, 1.822542667388916);(-51.11000061035156, 118.36000061035156, 2.690000057220459, 34.970001220703125, -56.4900016784668, 5.380000114440918, 18.829999923706055, 8.069999694824219)
2024/05/03/12:49:10.389284;76293;1714765750;409594680;;['BL_Position', 'BL_Wheel', 'BR_Position', 'BR_Wheel', 'FL_Position', 'FL_Wheel', 'FR_Position', 'FR_Wheel'];(1.5677284002304077, 953.906005859375, 1.572330355644226, 951.8013305664062, 1.5692623853683472, 951.8980102539062, 1.5692623853683472, 956.4155883789062);(0.0, 1.8705042600631714, 0.0, 1.8705042600631714, 0.0, 1.8705042600631714, 0.0, 1.8705042600631714);(-53.80000305175781, 118.36000061035156, 2.690000057220459, 34.970001220703125, -56.4900016784668, 5.380000114440918, 16.139999389648438, 8.069999694824219)
2024/05/03/12:49:10.405807;76294;1714765750;425522066;;['BL_Position', 'BL_Wheel', 'BR_Position', 'BR_Wheel', 'FL_Position', 'FL_Wheel', 'FR_Position', 'FR_Wheel'];(1.5692623853683472, 953.9381713867188, 1.572330355644226, 951.8335571289062, 1.5677284002304077, 951.9286499023438, 1.5707963705062866, 956.4478149414062);(0.0, 1.8944851160049438, 0.0, 1.9184659719467163, 0.0, 1.8944851160049438, 0.0, 1.8944851160049438);(-51.11000061035156, 121.05000305175781, 0.0, 34.970001220703125, -59.18000030517578, 5.380000114440918, 24.21000099182129, 5.380000114440918)
2024/05/03/12:49:10.426364;76295;1714765750;441597619;;['BL_Position', 'BL_Wheel', 'BR_Position', 'BR_Wheel', 'FL_Position', 'FL_Wheel', 'FR_Position', 'FR_Wheel'];(1.5677284002304077, 953.9703979492188, 1.572330355644226, 951.8657836914062, 1.5692623853683472, 951.9608764648438, 1.5692623853683472, 956.47998046875);(0.0, 1.9424467086791992, 0.0, 1.9424467086791992, 0.0, 1.9424467086791992, 0.0, 1.9424467086791992);(-53.80000305175781, 121.05000305175781, 0.0, 34.970001220703125, -56.4900016784668, 5.380000114440918, 8.069999694824219, 10.760000228881836)
2024/05/03/12:49:10.441293;76296;1714765750;457565395;;['BL_Position', 'BL_Wheel', 'BR_Position', 'BR_Wheel', 'FL_Position', 'FL_Wheel', 'FR_Position', 'FR_Wheel'];(1.5692623853683472, 954.004150390625, 1.572330355644226, 951.8980102539062, 1.5692623853683472, 951.99462890625, 1.5707963705062866, 956.51220703125);(0.0, 1.9664275646209717, 0.0, 1.9664275646209717, 0.0, 1.9664275646209717, 0.0, 1.9664275646209717);(-48.42000198364258, 118.36000061035156, 0.0, 32.279998779296875, -53.80000305175781, 2.690000057220459, 5.380000114440918, 5.380000114440918)
2024/05/03/12:49:10.453240;76297;1714765750;473514633;;['BL_Position', 'BL_Wheel', 'BR_Position', 'BR_Wheel', 'FL_Position', 'FL_Wheel', 'FR_Position', 'FR_Wheel'];(1.5692623853683472, 954.036376953125, 1.572330355644226, 951.9317626953125, 1.5692623853683472, 952.02685546875, 1.5707963705062866, 956.5429077148438);(0.0, 1.9904084205627441, 0.0, 1.9904084205627441, 0.0, 1.9904084205627441, 0.0, 1.9664275646209717);(-56.4900016784668, 121.05000305175781, 0.0, 32.279998779296875, -56.4900016784668, 2.690000057220459, 5.380000114440918, 5.380000114440918)
2024/05/03/12:49:10.469351;76298;1714765750;489660297;;['BL_Position', 'BL_Wheel', 'BR_Position', 'BR_Wheel', 'FL_Position', 'FL_Wheel', 'FR_Position', 'FR_Wheel'];(1.5692623853683472, 954.0701293945312, 1.572330355644226, 951.9685668945312, 1.5692623853683472, 952.05908203125, 1.5692623853683472, 956.5781860351562);(0.0, 2.0143892765045166, 0.0, 2.038370132446289, 0.0, 2.0143892765045166, 0.0, 1.9904084205627441);(-53.80000305175781, 123.74000549316406, 0.0, 32.279998779296875, -48.42000198364258, 0.0, 10.760000228881836, 8.069999694824219)
2024/05/03/12:49:10.485352;76299;1714765750;505679165;;['BL_Position', 'BL_Wheel', 'BR_Position', 'BR_Wheel', 'FL_Position', 'FL_Wheel', 'FR_Position', 'FR_Wheel'];(1.5692623853683472, 954.1023559570312, 1.5707963705062866, 952.0007934570312, 1.5692623853683472, 952.0928344726562, 1.5692623853683472, 956.6104125976562);(0.0, 2.038370132446289, 0.0, 2.0623509883880615, 0.0, 2.038370132446289, 0.0, 2.0143892765045166);(-37.65999984741211, 123.74000549316406, 0.0, 32.279998779296875, -59.18000030517578, 0.0, 5.380000114440918, 5.380000114440918)
2024/05/03/12:49:10.507568;76300;1714765750;522330681;;['BL_Position', 'BL_Wheel', 'BR_Position', 'BR_Wheel', 'FL_Position', 'FL_Wheel', 'FR_Position', 'FR_Wheel'];(1.5692623853683472, 954.1376342773438, 1.572330355644226, 952.0360717773438, 1.5677284002304077, 952.125, 1.5692623853683472, 956.642578125);(0.0, 2.038370132446289, 0.0, 2.0623509883880615, 0.0, 2.038370132446289, 0.0, 2.0143892765045166);(-34.970001220703125, 121.05000305175781, 0.0, 29.59000015258789, -61.87000274658203, 0.0, 8.069999694824219, 5.380000114440918)
2024/05/03/12:49:10.517283;76301;1714765750;537522994;;['BL_Position', 'BL_Wheel', 'BR_Position', 'BR_Wheel', 'FL_Position', 'FL_Wheel', 'FR_Position', 'FR_Wheel'];(1.5692623853683472, 954.17138671875, 1.5707963705062866, 952.06982421875, 1.5677284002304077, 952.1603393554688, 1.5692623853683472, 956.6763305664062);(0.0, 2.0623509883880615, 0.0, 2.086331605911255, 0.0, 2.0623509883880615, 0.0, 2.038370132446289);(-34.970001220703125, 121.05000305175781, 0.0, 29.59000015258789, -34.970001220703125, 0.0, 5.380000114440918, 8.069999694824219)
2024/05/03/12:49:10.539422;76302;1714765750;553502769;;['BL_Position', 'BL_Wheel', 'BR_Position', 'BR_Wheel', 'FL_Position', 'FL_Wheel', 'FR_Position', 'FR_Wheel'];(1.5692623853683472, 954.2035522460938, 1.572330355644226, 952.1019897460938, 1.5692623853683472, 952.1925048828125, 1.5692623853683472, 956.70703125);(0.0, 2.0623509883880615, 0.0, 2.086331605911255, 0.0, 2.0623509883880615, 0.0, 2.038370132446289);(-34.970001220703125, 121.05000305175781, 0.0, 29.59000015258789, -34.970001220703125, 0.0, 5.380000114440918, 8.069999694824219)
2024/05/03/12:49:10.551705;76303;1714765750;569965637;;['BL_Position', 'BL_Wheel', 'BR_Position', 'BR_Wheel', 'FL_Position', 'FL_Wheel', 'FR_Position', 'FR_Wheel'];(1.5692623853683472, 954.2357788085938, 1.572330355644226, 952.1357421875, 1.5692623853683472, 952.2262573242188, 1.5707963705062866, 956.7407836914062);(0.0, 2.0623509883880615, 0.0, 2.086331605911255, 0.0, 2.086331605911255, 0.0, 2.0623509883880615);(-37.65999984741211, 129.1199951171875, 0.0, 26.900001525878906, -40.35000228881836, 0.0, 5.380000114440918, 5.380000114440918)
2024/05/03/12:49:10.565255;76304;1714765750;585541376;;['BL_Position', 'BL_Wheel', 'BR_Position', 'BR_Wheel', 'FL_Position', 'FL_Wheel', 'FR_Position', 'FR_Wheel'];(1.5692623853683472, 954.2710571289062, 1.572330355644226, 952.1694946289062, 1.5692623853683472, 952.2615356445312, 1.5692623853683472, 956.7760620117188);(0.0, 2.0623509883880615, 0.0, 2.086331605911255, 0.0, 2.086331605911255, 0.0, 2.0623509883880615);(-37.65999984741211, 126.43000030517578, 0.0, 26.900001525878906, -37.65999984741211, 0.0, 5.380000114440918, 5.380000114440918)
2024/05/03/12:49:10.581393;76305;1714765750;601533744;;['BL_Position', 'BL_Wheel', 'BR_Position', 'BR_Wheel', 'FL_Position', 'FL_Wheel', 'FR_Position', 'FR_Wheel'];(1.5692623853683472, 954.3032836914062, 1.572330355644226, 952.2032470703125, 1.5692623853683472, 952.2937622070312, 1.5692623853683472, 956.8082885742188);(0.0, 2.0623509883880615, 0.0, 2.1103124618530273, 0.0, 2.086331605911255, 0.0, 2.086331605911255);(-37.65999984741211, 123.74000549316406, 0.0, 26.900001525878906, -34.970001220703125, 0.0, 5.380000114440918, 8.069999694824219)
2024/05/03/12:49:10.608435;76306;1714765750;617639945;;['BL_Position', 'BL_Wheel', 'BR_Position', 'BR_Wheel', 'FL_Position', 'FL_Wheel', 'FR_Position', 'FR_Wheel'];(1.5692623853683472, 954.3370361328125, 1.572330355644226, 952.2369995117188, 1.5692623853683472, 952.3259887695312, 1.5692623853683472, 956.842041015625);(0.0, 2.0623509883880615, 0.0, 2.1103124618530273, 0.0, 2.086331605911255, 0.0, 2.086331605911255);(-34.970001220703125, 123.74000549316406, 0.0, 26.900001525878906, -37.65999984741211, 0.0, 5.380000114440918, 8.069999694824219)
2024/05/03/12:49:10.616101;76307;1714765750;633503313;;['BL_Position', 'BL_Wheel', 'BR_Position', 'BR_Wheel', 'FL_Position', 'FL_Wheel', 'FR_Position', 'FR_Wheel'];(1.5692623853683472, 954.3707885742188, 1.5707963705062866, 952.2692260742188, 1.5677284002304077, 952.3597412109375, 1.5692623853683472, 956.8757934570312);(0.0, 2.0623509883880615, 0.0, 2.1103124618530273, 0.0, 2.086331605911255, 0.0, 2.086331605911255);(-34.970001220703125, 129.1199951171875, 0.0, 26.900001525878906, -34.970001220703125, 0.0, 5.380000114440918, 8.069999694824219)
2024/05/03/12:49:10.629154;76308;1714765750;649533570;;['BL_Position', 'BL_Wheel', 'BR_Position', 'BR_Wheel', 'FL_Position', 'FL_Wheel', 'FR_Position', 'FR_Wheel'];(1.5692623853683472, 954.4030151367188, 1.572330355644226, 952.302978515625, 1.5692623853683472, 952.3919677734375, 1.5707963705062866, 956.907958984375);(0.0, 2.0623509883880615, 0.0, 2.086331605911255, 0.0, 2.086331605911255, 0.0, 2.086331605911255);(-34.970001220703125, 129.1199951171875, 0.0, 24.21000099182129, -40.35000228881836, 0.0, 5.380000114440918, 8.069999694824219)
2024/05/03/12:49:10.647308;76309;1714765750;665486605;;['BL_Position', 'BL_Wheel', 'BR_Position', 'BR_Wheel', 'FL_Position', 'FL_Wheel', 'FR_Position', 'FR_Wheel'];(1.5692623853683472, 954.4336547851562, 1.572330355644226, 952.335205078125, 1.5692623853683472, 952.4256591796875, 1.5692623853683472, 956.9417114257812);(0.0, 2.0623509883880615, 0.0, 2.086331605911255, 0.0, 2.086331605911255, 0.0, 2.086331605911255);(-34.970001220703125, 131.80999755859375, 0.0, 24.21000099182129, -37.65999984741211, 0.0, 8.069999694824219, 8.069999694824219)
2024/05/03/12:49:10.661687;76310;1714765750;681571361;;['BL_Position', 'BL_Wheel', 'BR_Position', 'BR_Wheel', 'FL_Position', 'FL_Wheel', 'FR_Position', 'FR_Wheel'];(1.5692623853683472, 954.4658813476562, 1.572330355644226, 952.3704833984375, 1.5692623853683472, 952.4563598632812, 1.5707963705062866, 956.9739379882812);(0.0, 2.038370132446289, 0.0, 2.086331605911255, 0.0, 2.0623509883880615, 0.0, 2.0623509883880615);(-37.65999984741211, 134.5, 0.0, 24.21000099182129, -37.65999984741211, 0.0, 8.069999694824219, 10.760000228881836)
2024/05/03/12:49:10.677330;76311;1714765750;697525415;;['BL_Position', 'BL_Wheel', 'BR_Position', 'BR_Wheel', 'FL_Position', 'FL_Wheel', 'FR_Position', 'FR_Wheel'];(1.5692623853683472, 954.4981079101562, 1.572330355644226, 952.4042358398438, 1.5692623853683472, 952.4901123046875, 1.5692623853683472, 957.0076904296875);(0.0, 2.038370132446289, 0.0, 2.0623509883880615, 0.0, 2.0623509883880615, 0.0, 2.0623509883880615);(-43.040000915527344, 139.8800048828125, 0.0, 24.21000099182129, -40.35000228881836, 0.0, 5.380000114440918, 10.760000228881836)
2024/05/03/12:49:10.693352;76312;1714765750;713492671;;['BL_Position', 'BL_Wheel', 'BR_Position', 'BR_Wheel', 'FL_Position', 'FL_Wheel', 'FR_Position', 'FR_Wheel'];(1.5692623853683472, 954.5303344726562, 1.572330355644226, 952.4364013671875, 1.5692623853683472, 952.5238647460938, 1.5707963705062866, 957.0399169921875);(0.0, 2.0143892765045166, 0.0, 2.0623509883880615, 0.0, 2.038370132446289, 0.0, 2.0623509883880615);(-43.040000915527344, 137.19000244140625, 0.0, 24.21000099182129, -40.35000228881836, 0.0, 8.069999694824219, 10.760000228881836)
2024/05/03/12:49:10.711055;76313;1714765750;729539317;;['BL_Position', 'BL_Wheel', 'BR_Position', 'BR_Wheel', 'FL_Position', 'FL_Wheel', 'FR_Position', 'FR_Wheel'];(1.5692623853683472, 954.5640869140625, 1.572330355644226, 952.4686279296875, 1.5692623853683472, 952.5545654296875, 1.5692623853683472, 957.070556640625);(0.0, 2.0143892765045166, 0.0, 2.0623509883880615, 0.0, 2.038370132446289, 0.0, 2.038370132446289);(-43.040000915527344, 131.80999755859375, 0.0, 24.21000099182129, -37.65999984741211, 0.0, 5.380000114440918, 10.760000228881836)
