time;.header.seq;.header.stamp.secs;.header.stamp.nsecs;.header.frame_id;.name;.position;.velocity;.effort
2024/05/03/12:41:20.397096;46917;1714765280;411065337;;['BL_Position', 'BL_Wheel', 'BR_Position', 'BR_Wheel', 'FL_Position', 'FL_Wheel', 'FR_Position', 'FR_Wheel'];(0.0, 475.6767272949219, 0.0015339808305725455, 473.3021240234375, 0.0, 473.6196594238281, 0.0, 478.0451965332031);(0.0, 0.0, 0.0, 0.0, 0.0, 0.0, 0.0, 0.0);(0.0, 64.55999755859375, 0.0, 5.380000114440918, 5.380000114440918, -10.760000228881836, 2.690000057220459, 0.0)
2024/05/03/12:41:20.416078;46918;1714765280;427087961;;['BL_Position', 'BL_Wheel', 'BR_Position', 'BR_Wheel', 'FL_Position', 'FL_Wheel', 'FR_Position', 'FR_Wheel'];(0.0, 475.6767272949219, 0.0015339808305725455, 473.3021240234375, 0.0, 473.6211853027344, 0.0, 478.0451965332031);(0.0, 0.0, 0.0, 0.0, 0.0, 0.0, 0.0, 0.0);(0.0, 64.55999755859375, 0.0, 5.380000114440918, 0.0, -10.760000228881836, 2.690000057220459, 0.0)
2024/05/03/12:41:20.428185;46919;1714765280;443067919;;['BL_Position', 'BL_Wheel', 'BR_Position', 'BR_Wheel', 'FL_Position', 'FL_Wheel', 'FR_Position', 'FR_Wheel'];(0.0, 475.6767272949219, 0.0015339808305725455, 473.3021240234375, 0.0, 473.6211853027344, 0.0, 478.04364013671875);(0.0, 0.0, 0.0, 0.0, 0.0, 0.0, 0.0, 0.0);(0.0, 64.55999755859375, 0.0, 5.380000114440918, 0.0, -10.760000228881836, 2.690000057220459, 0.0)
2024/05/03/12:41:20.445059;46920;1714765280;459051839;;['BL_Position', 'BL_Wheel', 'BR_Position', 'BR_Wheel', 'FL_Position', 'FL_Wheel', 'FR_Position', 'FR_Wheel'];(0.0, 475.6782531738281, 0.0015339808305725455, 473.3021240234375, 0.0, 473.6211853027344, 0.0, 478.0451965332031);(0.0, 0.0, 0.0, 0.0, 0.0, 0.0, 0.0, 0.0);(0.0, 64.55999755859375, 0.0, 5.380000114440918, 5.380000114440918, -10.760000228881836, 2.690000057220459, 0.0)
2024/05/03/12:41:20.461017;46921;1714765280;475042278;;['BL_Position', 'BL_Wheel', 'BR_Position', 'BR_Wheel', 'FL_Position', 'FL_Wheel', 'FR_Position', 'FR_Wheel'];(0.0, 475.6767272949219, 0.0015339808305725455, 473.3021240234375, 0.0, 473.6211853027344, 0.0, 478.0451965332031);(0.0, 0.0, 0.0, 0.0, 0.0, 0.0, 0.0, 0.0);(0.0, 64.55999755859375, 0.0, 5.380000114440918, 0.0, -10.760000228881836, 2.690000057220459, 0.0)
2024/05/03/12:41:20.485748;46922;1714765280;491063069;;['BL_Position', 'BL_Wheel', 'BR_Position', 'BR_Wheel', 'FL_Position', 'FL_Wheel', 'FR_Position', 'FR_Wheel'];(0.0, 475.6767272949219, 0.0015339808305725455, 473.3021240234375, 0.0, 473.6211853027344, 0.0, 478.04364013671875);(0.0, 0.0, 0.0, 0.0, 0.0, 0.0, 0.0, 0.0);(0.0, 64.55999755859375, 0.0, 5.380000114440918, 0.0, -10.760000228881836, 2.690000057220459, 0.0)
2024/05/03/12:41:20.495071;46923;1714765280;507428526;;['BL_Position', 'BL_Wheel', 'BR_Position', 'BR_Wheel', 'FL_Position', 'FL_Wheel', 'FR_Position', 'FR_Wheel'];(0.0, 475.6767272949219, 0.0015339808305725455, 473.3021240234375, 0.0, 473.6211853027344, 0.0, 478.0451965332031);(0.0, 0.0, 0.0, 0.0, 0.0, 0.0, 0.0, 0.0);(0.0, 64.55999755859375, 0.0, 5.380000114440918, 5.380000114440918, -10.760000228881836, 2.690000057220459, 0.0)
2024/05/03/12:41:20.516703;46924;1714765280;523092225;;['BL_Position', 'BL_Wheel', 'BR_Position', 'BR_Wheel', 'FL_Position', 'FL_Wheel', 'FR_Position', 'FR_Wheel'];(0.0, 475.6767272949219, 0.0015339808305725455, 473.3021240234375, 0.0, 473.6211853027344, 0.0, 478.0451965332031);(0.0, 0.0, 0.0, 0.0, 0.0, 0.0, 0.0, 0.0);(0.0, 64.55999755859375, 0.0, 5.380000114440918, 5.380000114440918, -10.760000228881836, 2.690000057220459, 0.0)
2024/05/03/12:41:20.525477;46925;1714765280;539253108;;['BL_Position', 'BL_Wheel', 'BR_Position', 'BR_Wheel', 'FL_Position', 'FL_Wheel', 'FR_Position', 'FR_Wheel'];(0.0, 475.6767272949219, 0.0015339808305725455, 473.3021240234375, 0.0, 473.6211853027344, 0.0, 478.0451965332031);(0.0, 0.0, 0.0, 0.0, 0.0, 0.0, 0.0, 0.0);(0.0, 64.55999755859375, 0.0, 5.380000114440918, 5.380000114440918, -10.760000228881836, 2.690000057220459, 0.0)
2024/05/03/12:41:20.541121;46926;1714765280;555114806;;['BL_Position', 'BL_Wheel', 'BR_Position', 'BR_Wheel', 'FL_Position', 'FL_Wheel', 'FR_Position', 'FR_Wheel'];(0.0, 475.6782531738281, 0.0015339808305725455, 473.3021240234375, 0.0, 473.6211853027344, 0.0, 478.0451965332031);(0.0, 0.0, 0.0, 0.0, 0.0, 0.0, 0.0, 0.0);(2.690000057220459, 64.55999755859375, 0.0, 5.380000114440918, 5.380000114440918, -10.760000228881836, 2.690000057220459, 0.0)
2024/05/03/12:41:20.557800;46927;1714765280;571118504;;['BL_Position', 'BL_Wheel', 'BR_Position', 'BR_Wheel', 'FL_Position', 'FL_Wheel', 'FR_Position', 'FR_Wheel'];(0.0, 475.6767272949219, 0.0015339808305725455, 473.3005676269531, 0.0, 473.6211853027344, 0.0, 478.0451965332031);(0.0, 0.0, 0.0, 0.0, 0.0, 0.0, 0.0, 0.0);(2.690000057220459, 64.55999755859375, 0.0, 5.380000114440918, 5.380000114440918, -10.760000228881836, 2.690000057220459, 0.0)
2024/05/03/12:41:20.572892;46928;1714765280;587074277;;['BL_Position', 'BL_Wheel', 'BR_Position', 'BR_Wheel', 'FL_Position', 'FL_Wheel', 'FR_Position', 'FR_Wheel'];(0.0, 475.6767272949219, 0.0015339808305725455, 473.3005676269531, 0.0, 473.6196594238281, 0.0, 478.0451965332031);(0.0, 0.0, 0.0, 0.0, 0.0, 0.0, 0.0, 0.0);(2.690000057220459, 64.55999755859375, 0.0, 5.380000114440918, 5.380000114440918, -10.760000228881836, 2.690000057220459, 0.0)
2024/05/03/12:41:20.588418;46929;1714765280;603117049;;['BL_Position', 'BL_Wheel', 'BR_Position', 'BR_Wheel', 'FL_Position', 'FL_Wheel', 'FR_Position', 'FR_Wheel'];(0.0, 475.6782531738281, 0.0015339808305725455, 473.3005676269531, 0.0, 473.6211853027344, 0.0, 478.0451965332031);(0.0, 0.0, 0.0, 0.0, 0.0, 0.0, 0.0, 0.0);(2.690000057220459, 64.55999755859375, 0.0, 5.380000114440918, 0.0, -10.760000228881836, 2.690000057220459, 0.0)
2024/05/03/12:41:20.606132;46930;1714765280;619123544;;['BL_Position', 'BL_Wheel', 'BR_Position', 'BR_Wheel', 'FL_Position', 'FL_Wheel', 'FR_Position', 'FR_Wheel'];(0.0, 475.6782531738281, 0.0015339808305725455, 473.3021240234375, 0.0, 473.6211853027344, 0.0, 478.0451965332031);(0.0, 0.0, 0.0, 0.0, 0.0, 0.0, 0.0, 0.0);(2.690000057220459, 64.55999755859375, 0.0, 5.380000114440918, 2.690000057220459, -10.760000228881836, 2.690000057220459, 0.0)
2024/05/03/12:41:20.625415;46931;1714765280;635155094;;['BL_Position', 'BL_Wheel', 'BR_Position', 'BR_Wheel', 'FL_Position', 'FL_Wheel', 'FR_Position', 'FR_Wheel'];(0.0, 475.6767272949219, 0.0015339808305725455, 473.3021240234375, 0.0, 473.6196594238281, 0.0, 478.0451965332031);(0.0, 0.0, 0.0, 0.0, 0.0, 0.0, 0.0, 0.0);(2.690000057220459, 64.55999755859375, 0.0, 5.380000114440918, 5.380000114440918, -10.760000228881836, 2.690000057220459, 0.0)
2024/05/03/12:41:20.639330;46932;1714765280;651192792;;['BL_Position', 'BL_Wheel', 'BR_Position', 'BR_Wheel', 'FL_Position', 'FL_Wheel', 'FR_Position', 'FR_Wheel'];(0.0, 475.6767272949219, 0.0015339808305725455, 473.3005676269531, -0.0015339808305725455, 473.6196594238281, 0.0, 478.0451965332031);(0.0, 0.0, 0.0, 0.0, 0.0, 0.0, 0.0, 0.0);(2.690000057220459, 64.55999755859375, 0.0, 5.380000114440918, 5.380000114440918, -10.760000228881836, 2.690000057220459, 0.0)
2024/05/03/12:41:20.654030;46933;1714765280;667214379;;['BL_Position', 'BL_Wheel', 'BR_Position', 'BR_Wheel', 'FL_Position', 'FL_Wheel', 'FR_Position', 'FR_Wheel'];(0.0, 475.6767272949219, 0.0015339808305725455, 473.3021240234375, -0.0015339808305725455, 473.6211853027344, 0.0, 478.0451965332031);(0.0, 0.0, 0.0, 0.0, 0.0, 0.0, 0.0, 0.0);(2.690000057220459, 64.55999755859375, 0.0, 5.380000114440918, 0.0, -10.760000228881836, 2.690000057220459, 0.0)
2024/05/03/12:41:20.669476;46934;1714765280;683172448;;['BL_Position', 'BL_Wheel', 'BR_Position', 'BR_Wheel', 'FL_Position', 'FL_Wheel', 'FR_Position', 'FR_Wheel'];(0.0, 475.6767272949219, 0.0, 473.3005676269531, 0.0, 473.6211853027344, 0.0, 478.0451965332031);(0.0, 0.0, 0.0, 0.0, 0.0, 0.0, 0.0, 0.0);(2.690000057220459, 64.55999755859375, 0.0, 5.380000114440918, 0.0, -10.760000228881836, 2.690000057220459, 0.0)
2024/05/03/12:41:20.685743;46935;1714765280;699080442;;['BL_Position', 'BL_Wheel', 'BR_Position', 'BR_Wheel', 'FL_Position', 'FL_Wheel', 'FR_Position', 'FR_Wheel'];(0.0, 475.6767272949219, 0.0015339808305725455, 473.3021240234375, 0.0, 473.6196594238281, 0.0, 478.0451965332031);(0.0, 0.0, 0.0, 0.0, 0.0, 0.0, 0.0, 0.0);(2.690000057220459, 64.55999755859375, 0.0, 5.380000114440918, 2.690000057220459, -10.760000228881836, 2.690000057220459, 0.0)
2024/05/03/12:41:20.702391;46936;1714765280;715242511;;['BL_Position', 'BL_Wheel', 'BR_Position', 'BR_Wheel', 'FL_Position', 'FL_Wheel', 'FR_Position', 'FR_Wheel'];(0.0, 475.6767272949219, 0.0015339808305725455, 473.3021240234375, 0.0, 473.6196594238281, 0.0, 478.0451965332031);(0.0, 0.0, 0.0, 0.0, 0.0, 0.0, 0.0, 0.0);(2.690000057220459, 64.55999755859375, 0.0, 5.380000114440918, 5.380000114440918, -10.760000228881836, 2.690000057220459, 0.0)
2024/05/03/12:41:20.726093;46937;1714765280;731162338;;['BL_Position', 'BL_Wheel', 'BR_Position', 'BR_Wheel', 'FL_Position', 'FL_Wheel', 'FR_Position', 'FR_Wheel'];(0.0, 475.6767272949219, 0.0015339808305725455, 473.3021240234375, 0.0, 473.6211853027344, 0.0, 478.0451965332031);(0.0, 0.0, 0.0, 0.0, 0.0, 0.0, 0.0, 0.0);(2.690000057220459, 64.55999755859375, 0.0, 5.380000114440918, 0.0, -10.760000228881836, 2.690000057220459, 0.0)
2024/05/03/12:41:20.733468;46938;1714765280;747092481;;['BL_Position', 'BL_Wheel', 'BR_Position', 'BR_Wheel', 'FL_Position', 'FL_Wheel', 'FR_Position', 'FR_Wheel'];(0.0, 475.6767272949219, 0.0, 473.3005676269531, 0.0, 473.6211853027344, 0.0, 478.0451965332031);(0.0, 0.0, 0.0, 0.0, 0.0, 0.0, 0.0, 0.0);(2.690000057220459, 64.55999755859375, 0.0, 5.380000114440918, 10.760000228881836, -8.069999694824219, 2.690000057220459, 0.0)
2024/05/03/12:41:20.749030;46939;1714765280;763098272;;['BL_Position', 'BL_Wheel', 'BR_Position', 'BR_Wheel', 'FL_Position', 'FL_Wheel', 'FR_Position', 'FR_Wheel'];(0.0, 475.6767272949219, 0.0015339808305725455, 473.3021240234375, 0.0, 473.6211853027344, 0.0, 478.0451965332031);(0.0, 0.0, 0.0, 0.0, 0.0, 0.0, 0.0, 0.0);(2.690000057220459, 64.55999755859375, 0.0, 5.380000114440918, 5.380000114440918, -10.760000228881836, 2.690000057220459, 0.0)
2024/05/03/12:41:20.765249;46940;1714765280;779166711;;['BL_Position', 'BL_Wheel', 'BR_Position', 'BR_Wheel', 'FL_Position', 'FL_Wheel', 'FR_Position', 'FR_Wheel'];(0.0, 475.6767272949219, 0.0015339808305725455, 473.3021240234375, 0.0, 473.6196594238281, 0.0, 478.0451965332031);(0.0, 0.0, 0.0, 0.0, 0.0, 0.0, 0.0, 0.0);(2.690000057220459, 64.55999755859375, 0.0, 5.380000114440918, 0.0, -10.760000228881836, 2.690000057220459, 0.0)
2024/05/03/12:41:20.794313;46941;1714765280;795104335;;['BL_Position', 'BL_Wheel', 'BR_Position', 'BR_Wheel', 'FL_Position', 'FL_Wheel', 'FR_Position', 'FR_Wheel'];(0.0, 475.6767272949219, 0.0, 473.3021240234375, 0.0, 473.6196594238281, 0.0, 478.0451965332031);(0.0, 0.0, 0.0, 0.0, 0.0, 0.0, 0.0, 0.0);(2.690000057220459, 64.55999755859375, 0.0, 5.380000114440918, 2.690000057220459, -8.069999694824219, 2.690000057220459, 0.0)
2024/05/03/12:41:20.799722;46942;1714765280;811091274;;['BL_Position', 'BL_Wheel', 'BR_Position', 'BR_Wheel', 'FL_Position', 'FL_Wheel', 'FR_Position', 'FR_Wheel'];(0.0, 475.6767272949219, 0.0015339808305725455, 473.3021240234375, 0.0, 473.6211853027344, 0.0, 478.0451965332031);(0.0, 0.0, 0.0, 0.0, 0.0, 0.0, 0.0, 0.0);(2.690000057220459, 64.55999755859375, 0.0, 5.380000114440918, 5.380000114440918, -10.760000228881836, 2.690000057220459, 0.0)
2024/05/03/12:41:20.813105;46943;1714765280;827102509;;['BL_Position', 'BL_Wheel', 'BR_Position', 'BR_Wheel', 'FL_Position', 'FL_Wheel', 'FR_Position', 'FR_Wheel'];(0.0, 475.6767272949219, 0.0, 473.3021240234375, 0.0, 473.6196594238281, 0.0, 478.0451965332031);(0.0, 0.0, 0.0, 0.0, 0.0, 0.0, 0.0, 0.0);(2.690000057220459, 64.55999755859375, 0.0, 5.380000114440918, 5.380000114440918, -10.760000228881836, 2.690000057220459, 0.0)
2024/05/03/12:41:20.831410;46944;1714765280;843042374;;['BL_Position', 'BL_Wheel', 'BR_Position', 'BR_Wheel', 'FL_Position', 'FL_Wheel', 'FR_Position', 'FR_Wheel'];(0.0, 475.6767272949219, 0.0015339808305725455, 473.3021240234375, 0.0, 473.6196594238281, 0.0, 478.0451965332031);(0.0, 0.0, 0.0, 0.0, 0.0, 0.0, 0.0, 0.0);(2.690000057220459, 64.55999755859375, 0.0, 5.380000114440918, 5.380000114440918, -10.760000228881836, 2.690000057220459, 0.0)
2024/05/03/12:41:20.845004;46945;1714765280;859071109;;['BL_Position', 'BL_Wheel', 'BR_Position', 'BR_Wheel', 'FL_Position', 'FL_Wheel', 'FR_Position', 'FR_Wheel'];(0.0, 475.6767272949219, 0.0, 473.3021240234375, 0.0, 473.6211853027344, 0.0, 478.0451965332031);(0.0, 0.0, 0.0, 0.0, 0.0, 0.0, 0.0, 0.0);(2.690000057220459, 64.55999755859375, 0.0, 5.380000114440918, 5.380000114440918, -8.069999694824219, 2.690000057220459, 0.0)
2024/05/03/12:41:20.861749;46946;1714765280;875085234;;['BL_Position', 'BL_Wheel', 'BR_Position', 'BR_Wheel', 'FL_Position', 'FL_Wheel', 'FR_Position', 'FR_Wheel'];(0.0, 475.6782531738281, 0.0015339808305725455, 473.3021240234375, 0.0, 473.6211853027344, 0.0, 478.0451965332031);(0.0, 0.0, 0.0, 0.0, 0.0, 0.0, 0.0, 0.0);(2.690000057220459, 64.55999755859375, 0.0, 5.380000114440918, 0.0, -10.760000228881836, 2.690000057220459, 0.0)
2024/05/03/12:41:20.877540;46947;1714765280;891042673;;['BL_Position', 'BL_Wheel', 'BR_Position', 'BR_Wheel', 'FL_Position', 'FL_Wheel', 'FR_Position', 'FR_Wheel'];(0.0, 475.6782531738281, 0.0015339808305725455, 473.3021240234375, 0.0, 473.6211853027344, 0.0, 478.04364013671875);(0.0, 0.0, 0.0, 0.0, 0.0, 0.0, 0.0, 0.0);(2.690000057220459, 64.55999755859375, 0.0, 5.380000114440918, 5.380000114440918, -10.760000228881836, 2.690000057220459, 0.0)
2024/05/03/12:41:20.895679;46948;1714765280;907077519;;['BL_Position', 'BL_Wheel', 'BR_Position', 'BR_Wheel', 'FL_Position', 'FL_Wheel', 'FR_Position', 'FR_Wheel'];(0.0, 475.6767272949219, 0.0015339808305725455, 473.3021240234375, 0.0, 473.6196594238281, 0.0, 478.0451965332031);(0.0, 0.0, 0.0, 0.0, 0.0, 0.0, 0.0, 0.0);(2.690000057220459, 64.55999755859375, 0.0, 5.380000114440918, 5.380000114440918, -10.760000228881836, 2.690000057220459, 0.0)
2024/05/03/12:41:20.909626;46949;1714765280;923138976;;['BL_Position', 'BL_Wheel', 'BR_Position', 'BR_Wheel', 'FL_Position', 'FL_Wheel', 'FR_Position', 'FR_Wheel'];(0.0, 475.6767272949219, 0.0, 473.3005676269531, 0.0, 473.6211853027344, 0.0, 478.0451965332031);(0.0, 0.0, 0.0, 0.0, 0.0, 0.0, 0.0, 0.0);(2.690000057220459, 64.55999755859375, 0.0, 5.380000114440918, 5.380000114440918, -10.760000228881836, 2.690000057220459, 0.0)
2024/05/03/12:41:20.932742;46950;1714765280;939086360;;['BL_Position', 'BL_Wheel', 'BR_Position', 'BR_Wheel', 'FL_Position', 'FL_Wheel', 'FR_Position', 'FR_Wheel'];(0.0, 475.6767272949219, 0.0, 473.3021240234375, 0.0, 473.6211853027344, 0.0, 478.0451965332031);(0.0, 0.0, 0.0, 0.0, 0.0, 0.0, 0.0, 0.0);(2.690000057220459, 64.55999755859375, 0.0, 5.380000114440918, 8.069999694824219, -10.760000228881836, 2.690000057220459, 0.0)
2024/05/03/12:41:20.941754;46951;1714765280;955032336;;['BL_Position', 'BL_Wheel', 'BR_Position', 'BR_Wheel', 'FL_Position', 'FL_Wheel', 'FR_Position', 'FR_Wheel'];(0.0, 475.6767272949219, 0.0015339808305725455, 473.3021240234375, 0.0, 473.6211853027344, 0.0, 478.0451965332031);(0.0, 0.0, 0.0, 0.0, 0.0, 0.0, 0.0, 0.0);(2.690000057220459, 64.55999755859375, 0.0, 5.380000114440918, 2.690000057220459, -10.760000228881836, 2.690000057220459, 0.0)
2024/05/03/12:41:20.956885;46952;1714765280;971049349;;['BL_Position', 'BL_Wheel', 'BR_Position', 'BR_Wheel', 'FL_Position', 'FL_Wheel', 'FR_Position', 'FR_Wheel'];(0.0, 475.6782531738281, 0.0015339808305725455, 473.3005676269531, 0.0, 473.6211853027344, 0.0, 478.0451965332031);(0.0, 0.0, 0.0, 0.0, 0.0, 0.0, 0.0, 0.0);(2.690000057220459, 64.55999755859375, 0.0, 5.380000114440918, 2.690000057220459, -10.760000228881836, 2.690000057220459, 0.0)
2024/05/03/12:41:20.973366;46953;1714765280;987068732;;['BL_Position', 'BL_Wheel', 'BR_Position', 'BR_Wheel', 'FL_Position', 'FL_Wheel', 'FR_Position', 'FR_Wheel'];(0.0, 475.6767272949219, 0.0, 473.3021240234375, 0.0, 473.6211853027344, 0.0, 478.0451965332031);(0.0, 0.0, 0.0, 0.0, 0.0, 0.0, 0.0, 0.0);(0.0, 64.55999755859375, 0.0, 5.380000114440918, 0.0, -10.760000228881836, 2.690000057220459, 0.0)
2024/05/03/12:41:20.997871;46954;1714765281;3070838;;['BL_Position', 'BL_Wheel', 'BR_Position', 'BR_Wheel', 'FL_Position', 'FL_Wheel', 'FR_Position', 'FR_Wheel'];(0.0015339808305725455, 475.6767272949219, 0.0, 473.3021240234375, 0.0, 473.6196594238281, 0.0, 478.0451965332031);(0.0, 0.0, 0.0, 0.0, 0.0, 0.0, 0.0, 0.0);(0.0, 64.55999755859375, 0.0, 5.380000114440918, 0.0, -10.760000228881836, 2.690000057220459, 0.0)
2024/05/03/12:41:21.005186;46955;1714765281;19081499;;['BL_Position', 'BL_Wheel', 'BR_Position', 'BR_Wheel', 'FL_Position', 'FL_Wheel', 'FR_Position', 'FR_Wheel'];(0.0, 475.6767272949219, 0.0015339808305725455, 473.3021240234375, 0.0, 473.6211853027344, 0.0, 478.0451965332031);(0.0, 0.0, 0.0, 0.0, 0.0, 0.0, 0.0, 0.0);(0.0, 64.55999755859375, 0.0, 5.380000114440918, 0.0, -8.069999694824219, 2.690000057220459, 0.0)
2024/05/03/12:41:21.031143;46956;1714765281;35063383;;['BL_Position', 'BL_Wheel', 'BR_Position', 'BR_Wheel', 'FL_Position', 'FL_Wheel', 'FR_Position', 'FR_Wheel'];(0.0, 475.6767272949219, 0.0015339808305725455, 473.3005676269531, 0.0, 473.6196594238281, 0.0, 478.0451965332031);(0.0, 0.0, 0.0, 0.0, 0.0, 0.0, 0.0, 0.0);(0.0, 64.55999755859375, 0.0, 5.380000114440918, 0.0, -10.760000228881836, 2.690000057220459, 0.0)
2024/05/03/12:41:21.037049;46957;1714765281;51031544;;['BL_Position', 'BL_Wheel', 'BR_Position', 'BR_Wheel', 'FL_Position', 'FL_Wheel', 'FR_Position', 'FR_Wheel'];(0.0, 475.6782531738281, 0.0015339808305725455, 473.3021240234375, 0.0, 473.6211853027344, 0.0, 478.0451965332031);(0.0, 0.0, 0.0, 0.0, 0.0, 0.0, 0.0, 0.0);(0.0, 64.55999755859375, 0.0, 5.380000114440918, 5.380000114440918, -10.760000228881836, 2.690000057220459, 0.0)
2024/05/03/12:41:21.052863;46958;1714765281;67043390;;['BL_Position', 'BL_Wheel', 'BR_Position', 'BR_Wheel', 'FL_Position', 'FL_Wheel', 'FR_Position', 'FR_Wheel'];(0.0, 475.6767272949219, 0.0015339808305725455, 473.3021240234375, 0.0, 473.6211853027344, 0.0, 478.04364013671875);(0.0, 0.0, 0.0, 0.0, 0.0, 0.0, 0.0, 0.0);(0.0, 64.55999755859375, 0.0, 5.380000114440918, 5.380000114440918, -8.069999694824219, 2.690000057220459, 0.0)
2024/05/03/12:41:21.068388;46959;1714765281;83051496;;['BL_Position', 'BL_Wheel', 'BR_Position', 'BR_Wheel', 'FL_Position', 'FL_Wheel', 'FR_Position', 'FR_Wheel'];(0.0, 475.6767272949219, 0.0, 473.3021240234375, 0.0, 473.6211853027344, 0.0, 478.0451965332031);(0.0, 0.0, 0.0, 0.0, 0.0, 0.0, 0.0, 0.0);(0.0, 64.55999755859375, 0.0, 5.380000114440918, 5.380000114440918, -10.760000228881836, 2.690000057220459, 0.0)
2024/05/03/12:41:21.084473;46960;1714765281;99079231;;['BL_Position', 'BL_Wheel', 'BR_Position', 'BR_Wheel', 'FL_Position', 'FL_Wheel', 'FR_Position', 'FR_Wheel'];(0.0, 475.6767272949219, 0.0015339808305725455, 473.3021240234375, 0.0, 473.6196594238281, 0.0, 478.0451965332031);(0.0, 0.0, 0.0, 0.0, 0.0, 0.0, 0.0, 0.0);(0.0, 64.55999755859375, 0.0, 5.380000114440918, 5.380000114440918, -10.760000228881836, 0.0, 0.0)
2024/05/03/12:41:21.101500;46961;1714765281;115072800;;['BL_Position', 'BL_Wheel', 'BR_Position', 'BR_Wheel', 'FL_Position', 'FL_Wheel', 'FR_Position', 'FR_Wheel'];(0.0, 475.6767272949219, 0.0, 473.3021240234375, 0.0, 473.6196594238281, 0.0, 478.0451965332031);(0.0, 0.0, 0.0, 0.0, 0.0, 0.0, 0.0, 0.0);(0.0, 64.55999755859375, 0.0, 5.380000114440918, 0.0, -10.760000228881836, 0.0, 0.0)
2024/05/03/12:41:21.117181;46962;1714765281;131110813;;['BL_Position', 'BL_Wheel', 'BR_Position', 'BR_Wheel', 'FL_Position', 'FL_Wheel', 'FR_Position', 'FR_Wheel'];(0.0, 475.6782531738281, 0.0015339808305725455, 473.3021240234375, 0.0, 473.6211853027344, 0.0, 478.0451965332031);(0.0, 0.0, 0.0, 0.0, 0.0, 0.0, 0.0, 0.0);(0.0, 64.55999755859375, 0.0, 5.380000114440918, 0.0, -10.760000228881836, 0.0, 0.0)
2024/05/03/12:41:21.138694;46963;1714765281;147000215;;['BL_Position', 'BL_Wheel', 'BR_Position', 'BR_Wheel', 'FL_Position', 'FL_Wheel', 'FR_Position', 'FR_Wheel'];(0.0, 475.6782531738281, 0.0015339808305725455, 473.3021240234375, 0.0, 473.6196594238281, 0.0, 478.0451965332031);(0.0, 0.0, 0.0, 0.0, 0.0, 0.0, 0.0, 0.0);(0.0, 64.55999755859375, 0.0, 5.380000114440918, 2.690000057220459, -10.760000228881836, 0.0, 0.0)
2024/05/03/12:41:21.151189;46964;1714765281;163065320;;['BL_Position', 'BL_Wheel', 'BR_Position', 'BR_Wheel', 'FL_Position', 'FL_Wheel', 'FR_Position', 'FR_Wheel'];(0.0, 475.6767272949219, 0.0015339808305725455, 473.3021240234375, 0.0, 473.6196594238281, 0.0, 478.0451965332031);(0.0, 0.0, 0.0, 0.0, 0.0, 0.0, 0.0, 0.0);(0.0, 64.55999755859375, 0.0, 5.380000114440918, 0.0, -10.760000228881836, 0.0, 0.0)
2024/05/03/12:41:21.164076;46965;1714765281;179026759;;['BL_Position', 'BL_Wheel', 'BR_Position', 'BR_Wheel', 'FL_Position', 'FL_Wheel', 'FR_Position', 'FR_Wheel'];(0.0, 475.6782531738281, 0.0015339808305725455, 473.3021240234375, 0.0, 473.6196594238281, 0.0, 478.0451965332031);(0.0, 0.0, 0.0, 0.0, 0.0, 0.0, 0.0, 0.0);(0.0, 64.55999755859375, 0.0, 5.380000114440918, 0.0, -10.760000228881836, 0.0, 0.0)
2024/05/03/12:41:21.180979;46966;1714765281;195072457;;['BL_Position', 'BL_Wheel', 'BR_Position', 'BR_Wheel', 'FL_Position', 'FL_Wheel', 'FR_Position', 'FR_Wheel'];(0.0, 475.6767272949219, 0.0015339808305725455, 473.3021240234375, 0.0, 473.6196594238281, 0.0, 478.0451965332031);(0.0, 0.0, 0.0, 0.0, 0.0, 0.0, 0.0, 0.0);(0.0, 64.55999755859375, 0.0, 5.380000114440918, 0.0, -10.760000228881836, 0.0, 0.0)
2024/05/03/12:41:21.202504;46967;1714765281;211054137;;['BL_Position', 'BL_Wheel', 'BR_Position', 'BR_Wheel', 'FL_Position', 'FL_Wheel', 'FR_Position', 'FR_Wheel'];(0.0, 475.6767272949219, 0.0015339808305725455, 473.3021240234375, 0.0, 473.6211853027344, 0.0, 478.0451965332031);(0.0, 0.0, 0.0, 0.0, 0.0, 0.0, 0.0, 0.0);(0.0, 64.55999755859375, 0.0, 5.380000114440918, 5.380000114440918, -10.760000228881836, 0.0, 0.0)
2024/05/03/12:41:21.213201;46968;1714765281;227100835;;['BL_Position', 'BL_Wheel', 'BR_Position', 'BR_Wheel', 'FL_Position', 'FL_Wheel', 'FR_Position', 'FR_Wheel'];(0.0, 475.6767272949219, 0.0015339808305725455, 473.3021240234375, 0.0, 473.6211853027344, 0.0, 478.0451965332031);(0.0, 0.0, 0.0, 0.0, 0.0, 0.0, 0.0, 0.0);(0.0, 64.55999755859375, 0.0, 5.380000114440918, 5.380000114440918, -10.760000228881836, 0.0, 0.0)
2024/05/03/12:41:21.239566;46969;1714765281;243015200;;['BL_Position', 'BL_Wheel', 'BR_Position', 'BR_Wheel', 'FL_Position', 'FL_Wheel', 'FR_Position', 'FR_Wheel'];(0.0, 475.6767272949219, 0.0, 473.3021240234375, 0.0, 473.6211853027344, 0.0, 478.0451965332031);(0.0, 0.0, 0.0, 0.0, 0.0, 0.0, 0.0, 0.0);(0.0, 64.55999755859375, 0.0, 5.380000114440918, 5.380000114440918, -10.760000228881836, 0.0, 0.0)
2024/05/03/12:41:21.244928;46970;1714765281;259046861;;['BL_Position', 'BL_Wheel', 'BR_Position', 'BR_Wheel', 'FL_Position', 'FL_Wheel', 'FR_Position', 'FR_Wheel'];(0.0, 475.6767272949219, 0.0015339808305725455, 473.3021240234375, -0.0015339808305725455, 473.6196594238281, 0.0, 478.04364013671875);(0.0, 0.0, 0.0, 0.0, 0.0, 0.0, 0.0, 0.0);(0.0, 64.55999755859375, 0.0, 5.380000114440918, 5.380000114440918, -10.760000228881836, 0.0, 0.0)
2024/05/03/12:41:21.261325;46971;1714765281;275055708;;['BL_Position', 'BL_Wheel', 'BR_Position', 'BR_Wheel', 'FL_Position', 'FL_Wheel', 'FR_Position', 'FR_Wheel'];(0.0, 475.6767272949219, 0.0, 473.3021240234375, 0.0, 473.6211853027344, 0.0, 478.0451965332031);(0.0, 0.0, 0.0, 0.0, 0.0, 0.0, 0.0, 0.0);(0.0, 64.55999755859375, 0.0, 5.380000114440918, 16.139999389648438, -10.760000228881836, 0.0, 0.0)
2024/05/03/12:41:21.277210;46972;1714765281;291091647;;['BL_Position', 'BL_Wheel', 'BR_Position', 'BR_Wheel', 'FL_Position', 'FL_Wheel', 'FR_Position', 'FR_Wheel'];(0.0, 475.6767272949219, 0.0, 473.3021240234375, 0.0, 473.6196594238281, 0.0, 478.0451965332031);(0.0, 0.0, 0.0, 0.0, 0.0, 0.0, 0.0, 0.0);(0.0, 64.55999755859375, 0.0, 5.380000114440918, 5.380000114440918, -10.760000228881836, 0.0, 0.0)
2024/05/03/12:41:21.304908;46973;1714765281;307076901;;['BL_Position', 'BL_Wheel', 'BR_Position', 'BR_Wheel', 'FL_Position', 'FL_Wheel', 'FR_Position', 'FR_Wheel'];(0.0, 475.6782531738281, 0.0015339808305725455, 473.3021240234375, 0.0, 473.6211853027344, 0.0, 478.0451965332031);(0.0, 0.0, 0.0, 0.0, 0.0, 0.0, 0.0, 0.0);(0.0, 64.55999755859375, 0.0, 5.380000114440918, 5.380000114440918, -10.760000228881836, 0.0, 0.0)
2024/05/03/12:41:21.309667;46974;1714765281;323082914;;['BL_Position', 'BL_Wheel', 'BR_Position', 'BR_Wheel', 'FL_Position', 'FL_Wheel', 'FR_Position', 'FR_Wheel'];(0.0, 475.6767272949219, 0.0015339808305725455, 473.3021240234375, 0.0, 473.6196594238281, 0.0, 478.0451965332031);(0.0, 0.0, 0.0, 0.0, 0.0, 0.0, 0.0, 0.0);(0.0, 64.55999755859375, 0.0, 5.380000114440918, 0.0, -8.069999694824219, 0.0, 0.0)
2024/05/03/12:41:21.335603;46975;1714765281;339068316;;['BL_Position', 'BL_Wheel', 'BR_Position', 'BR_Wheel', 'FL_Position', 'FL_Wheel', 'FR_Position', 'FR_Wheel'];(0.0, 475.6767272949219, 0.0015339808305725455, 473.3021240234375, 0.0, 473.6196594238281, 0.0, 478.0451965332031);(0.0, 0.0, 0.0, 0.0, 0.0, 0.0, 0.0, 0.0);(0.0, 64.55999755859375, 0.0, 5.380000114440918, 5.380000114440918, -8.069999694824219, 0.0, 0.0)
2024/05/03/12:41:21.341019;46976;1714765281;355004884;;['BL_Position', 'BL_Wheel', 'BR_Position', 'BR_Wheel', 'FL_Position', 'FL_Wheel', 'FR_Position', 'FR_Wheel'];(0.0, 475.6767272949219, 0.0015339808305725455, 473.3021240234375, 0.0, 473.6196594238281, 0.0, 478.0451965332031);(0.0, 0.0, 0.0, 0.0, 0.0, 0.0, 0.0, 0.0);(0.0, 64.55999755859375, 0.0, 5.380000114440918, 5.380000114440918, -8.069999694824219, 0.0, 0.0)
2024/05/03/12:41:21.356993;46977;1714765281;371036675;;['BL_Position', 'BL_Wheel', 'BR_Position', 'BR_Wheel', 'FL_Position', 'FL_Wheel', 'FR_Position', 'FR_Wheel'];(0.0, 475.6767272949219, 0.0015339808305725455, 473.3021240234375, 0.0, 473.6211853027344, 0.0, 478.0451965332031);(0.0, 0.0, 0.0, 0.0, 0.0, 0.0, 0.0, 0.0);(0.0, 64.55999755859375, 0.0, 5.380000114440918, 2.690000057220459, -10.760000228881836, 0.0, 0.0)
2024/05/03/12:41:21.373102;46978;1714765281;387023929;;['BL_Position', 'BL_Wheel', 'BR_Position', 'BR_Wheel', 'FL_Position', 'FL_Wheel', 'FR_Position', 'FR_Wheel'];(0.0, 475.6767272949219, 0.0015339808305725455, 473.3005676269531, 0.0, 473.6196594238281, 0.0, 478.0451965332031);(0.0, 0.0, 0.0, 0.0, 0.0, 0.0, 0.0, 0.0);(0.0, 64.55999755859375, 0.0, 5.380000114440918, 10.760000228881836, -10.760000228881836, 0.0, 0.0)
2024/05/03/12:41:21.389030;46979;1714765281;403056405;;['BL_Position', 'BL_Wheel', 'BR_Position', 'BR_Wheel', 'FL_Position', 'FL_Wheel', 'FR_Position', 'FR_Wheel'];(0.0, 475.6767272949219, 0.0015339808305725455, 473.3021240234375, 0.0, 473.6196594238281, 0.0, 478.0451965332031);(0.0, 0.0, 0.0, 0.0, 0.0, 0.0, 0.0, 0.0);(0.0, 64.55999755859375, 0.0, 5.380000114440918, 0.0, -10.760000228881836, 0.0, 0.0)
2024/05/03/12:41:21.407076;46980;1714765281;419037122;;['BL_Position', 'BL_Wheel', 'BR_Position', 'BR_Wheel', 'FL_Position', 'FL_Wheel', 'FR_Position', 'FR_Wheel'];(0.0, 475.6767272949219, 0.0, 473.3021240234375, 0.0, 473.6196594238281, 0.0, 478.0451965332031);(0.0, 0.0, 0.0, 0.0, 0.0, 0.0, 0.0, 0.0);(0.0, 64.55999755859375, 0.0, 5.380000114440918, 5.380000114440918, -10.760000228881836, 0.0, 0.0)
2024/05/03/12:41:21.421453;46981;1714765281;435105431;;['BL_Position', 'BL_Wheel', 'BR_Position', 'BR_Wheel', 'FL_Position', 'FL_Wheel', 'FR_Position', 'FR_Wheel'];(0.0, 475.6782531738281, 0.0, 473.3021240234375, 0.0, 473.6196594238281, 0.0, 478.0451965332031);(0.0, 0.0, 0.0, 0.0, 0.0, 0.0, 0.0, 0.0);(0.0, 64.55999755859375, 0.0, 5.380000114440918, 5.380000114440918, -10.760000228881836, 0.0, 0.0)
2024/05/03/12:41:21.442773;46982;1714765281;451090018;;['BL_Position', 'BL_Wheel', 'BR_Position', 'BR_Wheel', 'FL_Position', 'FL_Wheel', 'FR_Position', 'FR_Wheel'];(0.0, 475.6767272949219, 0.0, 473.3021240234375, 0.0, 473.6211853027344, 0.0, 478.0451965332031);(0.0, 0.0, 0.0, 0.0, 0.0, 0.0, 0.0, 0.0);(0.0, 64.55999755859375, 0.0, 5.380000114440918, 5.380000114440918, -10.760000228881836, 0.0, 0.0)
2024/05/03/12:41:21.453270;46983;1714765281;466988827;;['BL_Position', 'BL_Wheel', 'BR_Position', 'BR_Wheel', 'FL_Position', 'FL_Wheel', 'FR_Position', 'FR_Wheel'];(0.0, 475.6767272949219, 0.0015339808305725455, 473.3021240234375, 0.0, 473.6196594238281, 0.0, 478.0451965332031);(0.0, 0.0, 0.0, 0.0, 0.0, 0.0, 0.0, 0.0);(0.0, 64.55999755859375, 0.0, 5.380000114440918, 5.380000114440918, -10.760000228881836, 0.0, 0.0)
2024/05/03/12:41:21.468881;46984;1714765281;483023563;;['BL_Position', 'BL_Wheel', 'BR_Position', 'BR_Wheel', 'FL_Position', 'FL_Wheel', 'FR_Position', 'FR_Wheel'];(0.0, 475.6767272949219, 0.0, 473.3005676269531, 0.0, 473.6196594238281, 0.0, 478.0451965332031);(0.0, 0.0, 0.0, 0.0, 0.0, 0.0, 0.0, 0.0);(0.0, 64.55999755859375, 0.0, 5.380000114440918, 5.380000114440918, -10.760000228881836, 0.0, 0.0)
2024/05/03/12:41:21.485094;46985;1714765281;498994409;;['BL_Position', 'BL_Wheel', 'BR_Position', 'BR_Wheel', 'FL_Position', 'FL_Wheel', 'FR_Position', 'FR_Wheel'];(0.0, 475.6767272949219, 0.0015339808305725455, 473.3021240234375, 0.0, 473.6196594238281, 0.0, 478.0451965332031);(0.0, 0.0, 0.0, 0.0, 0.0, 0.0, 0.0, 0.0);(0.0, 64.55999755859375, 0.0, 5.380000114440918, 5.380000114440918, -10.760000228881836, 0.0, 0.0)
2024/05/03/12:41:21.509689;46986;1714765281;515031996;;['BL_Position', 'BL_Wheel', 'BR_Position', 'BR_Wheel', 'FL_Position', 'FL_Wheel', 'FR_Position', 'FR_Wheel'];(0.0, 475.6767272949219, 0.0015339808305725455, 473.3021240234375, 0.0, 473.6196594238281, 0.0, 478.0451965332031);(0.0, 0.0, 0.0, 0.0, 0.0, 0.0, 0.0, 0.0);(0.0, 64.55999755859375, 0.0, 5.380000114440918, 0.0, -10.760000228881836, 0.0, 0.0)
2024/05/03/12:41:21.517079;46987;1714765281;531063046;;['BL_Position', 'BL_Wheel', 'BR_Position', 'BR_Wheel', 'FL_Position', 'FL_Wheel', 'FR_Position', 'FR_Wheel'];(0.0, 475.6782531738281, 0.0, 473.3021240234375, 0.0, 473.6196594238281, 0.0, 478.0451965332031);(0.0, 0.0, 0.0, 0.0, 0.0, 0.0, 0.0, 0.0);(0.0, 64.55999755859375, 0.0, 5.380000114440918, 5.380000114440918, -10.760000228881836, 0.0, 0.0)
2024/05/03/12:41:21.544286;46988;1714765281;546991430;;['BL_Position', 'BL_Wheel', 'BR_Position', 'BR_Wheel', 'FL_Position', 'FL_Wheel', 'FR_Position', 'FR_Wheel'];(0.0, 475.6767272949219, 0.0015339808305725455, 473.3021240234375, 0.0, 473.6196594238281, 0.0, 478.0451965332031);(0.0, 0.0, 0.0, 0.0, 0.0, 0.0, 0.0, 0.0);(0.0, 64.55999755859375, 0.0, 5.380000114440918, 5.380000114440918, -10.760000228881836, 0.0, 0.0)
2024/05/03/12:41:21.549108;46989;1714765281;563059109;;['BL_Position', 'BL_Wheel', 'BR_Position', 'BR_Wheel', 'FL_Position', 'FL_Wheel', 'FR_Position', 'FR_Wheel'];(0.0, 475.6767272949219, 0.0015339808305725455, 473.3021240234375, 0.0, 473.6196594238281, 0.0, 478.0451965332031);(0.0, 0.0, 0.0, 0.0, 0.0, 0.0, 0.0, 0.0);(0.0, 64.55999755859375, 0.0, 5.380000114440918, 5.380000114440918, -10.760000228881836, 0.0, 0.0)
2024/05/03/12:41:21.565365;46990;1714765281;579016511;;['BL_Position', 'BL_Wheel', 'BR_Position', 'BR_Wheel', 'FL_Position', 'FL_Wheel', 'FR_Position', 'FR_Wheel'];(0.0, 475.6767272949219, 0.0, 473.3021240234375, 0.0, 473.6211853027344, 0.0, 478.0451965332031);(0.0, 0.0, 0.0, 0.0, 0.0, 0.0, 0.0, 0.0);(0.0, 64.55999755859375, 0.0, 5.380000114440918, 5.380000114440918, -10.760000228881836, 0.0, 0.0)
2024/05/03/12:41:21.581083;46991;1714765281;595038080;;['BL_Position', 'BL_Wheel', 'BR_Position', 'BR_Wheel', 'FL_Position', 'FL_Wheel', 'FR_Position', 'FR_Wheel'];(0.0, 475.6767272949219, 0.0, 473.3005676269531, 0.0, 473.6196594238281, 0.0, 478.0451965332031);(0.0, 0.0, 0.0, 0.0, 0.0, 0.0, 0.0, 0.0);(0.0, 64.55999755859375, 0.0, 5.380000114440918, 2.690000057220459, -10.760000228881836, 2.690000057220459, 0.0)
2024/05/03/12:41:21.596996;46992;1714765281;611036908;;['BL_Position', 'BL_Wheel', 'BR_Position', 'BR_Wheel', 'FL_Position', 'FL_Wheel', 'FR_Position', 'FR_Wheel'];(0.0, 475.6767272949219, 0.0015339808305725455, 473.3021240234375, 0.0, 473.6196594238281, 0.0, 478.0451965332031);(0.0, 0.0, 0.0, 0.0, 0.0, 0.0, 0.0, 0.0);(0.0, 64.55999755859375, 0.0, 5.380000114440918, 5.380000114440918, -10.760000228881836, 2.690000057220459, 0.0)
2024/05/03/12:41:21.613839;46993;1714765281;627055013;;['BL_Position', 'BL_Wheel', 'BR_Position', 'BR_Wheel', 'FL_Position', 'FL_Wheel', 'FR_Position', 'FR_Wheel'];(0.0, 475.6767272949219, 0.0, 473.3021240234375, 0.0, 473.6211853027344, 0.0, 478.0451965332031);(0.0, 0.0, 0.0, 0.0, 0.0, 0.0, 0.0, 0.0);(0.0, 64.55999755859375, 0.0, 5.380000114440918, 5.380000114440918, -10.760000228881836, 2.690000057220459, 0.0)
2024/05/03/12:41:21.629207;46994;1714765281;643011897;;['BL_Position', 'BL_Wheel', 'BR_Position', 'BR_Wheel', 'FL_Position', 'FL_Wheel', 'FR_Position', 'FR_Wheel'];(0.0, 475.6767272949219, 0.0, 473.3021240234375, 0.0, 473.6211853027344, 0.0, 478.0451965332031);(0.0, 0.0, 0.0, 0.0, 0.0, 0.0, 0.0, 0.0);(0.0, 64.55999755859375, 0.0, 5.380000114440918, 5.380000114440918, -10.760000228881836, 2.690000057220459, 0.0)
2024/05/03/12:41:21.652895;46995;1714765281;659018280;;['BL_Position', 'BL_Wheel', 'BR_Position', 'BR_Wheel', 'FL_Position', 'FL_Wheel', 'FR_Position', 'FR_Wheel'];(0.0, 475.6767272949219, 0.0015339808305725455, 473.3005676269531, -0.0015339808305725455, 473.6211853027344, 0.0, 478.0451965332031);(0.0, 0.0, 0.0, 0.0, 0.0, 0.0, 0.0, 0.0);(0.0, 64.55999755859375, 0.0, 5.380000114440918, 0.0, -10.760000228881836, 2.690000057220459, 0.0)
2024/05/03/12:41:21.664616;46996;1714765281;675012960;;['BL_Position', 'BL_Wheel', 'BR_Position', 'BR_Wheel', 'FL_Position', 'FL_Wheel', 'FR_Position', 'FR_Wheel'];(0.0, 475.6782531738281, 0.0015339808305725455, 473.3021240234375, 0.0, 473.6196594238281, 0.0, 478.0451965332031);(0.0, 0.0, 0.0, 0.0, 0.0, 0.0, 0.0, 0.0);(0.0, 64.55999755859375, 0.0, 5.380000114440918, 5.380000114440918, -10.760000228881836, 2.690000057220459, 0.0)
2024/05/03/12:41:21.675576;46997;1714765281;691061343;;['BL_Position', 'BL_Wheel', 'BR_Position', 'BR_Wheel', 'FL_Position', 'FL_Wheel', 'FR_Position', 'FR_Wheel'];(0.0, 475.6767272949219, 0.0, 473.3021240234375, 0.0, 473.6211853027344, 0.0, 478.0451965332031);(0.0, 0.0, 0.0, 0.0, 0.0, 0.0, 0.0, 0.0);(0.0, 64.55999755859375, 0.0, 5.380000114440918, 5.380000114440918, -10.760000228881836, 2.690000057220459, 0.0)
2024/05/03/12:41:21.693569;46998;1714765281;707027634;;['BL_Position', 'BL_Wheel', 'BR_Position', 'BR_Wheel', 'FL_Position', 'FL_Wheel', 'FR_Position', 'FR_Wheel'];(0.0, 475.6767272949219, 0.0015339808305725455, 473.3021240234375, 0.0, 473.6211853027344, 0.0, 478.0451965332031);(0.0, 0.0, 0.0, 0.0, 0.0, 0.0, 0.0, 0.0);(0.0, 64.55999755859375, 0.0, 5.380000114440918, 5.380000114440918, -10.760000228881836, 2.690000057220459, 0.0)
2024/05/03/12:41:21.714467;46999;1714765281;723025795;;['BL_Position', 'BL_Wheel', 'BR_Position', 'BR_Wheel', 'FL_Position', 'FL_Wheel', 'FR_Position', 'FR_Wheel'];(0.0, 475.6767272949219, 0.0015339808305725455, 473.3021240234375, 0.0, 473.6196594238281, 0.0, 478.04364013671875);(0.0, 0.0, 0.0, 0.0, 0.0, 0.0, 0.0, 0.0);(0.0, 64.55999755859375, 0.0, 5.380000114440918, 5.380000114440918, -10.760000228881836, 2.690000057220459, 0.0)
2024/05/03/12:41:21.724778;47000;1714765281;738978457;;['BL_Position', 'BL_Wheel', 'BR_Position', 'BR_Wheel', 'FL_Position', 'FL_Wheel', 'FR_Position', 'FR_Wheel'];(0.0, 475.6782531738281, 0.0015339808305725455, 473.3021240234375, 0.0, 473.6211853027344, 0.0, 478.04364013671875);(0.0, 0.0, 0.0, 0.0, 0.0, 0.0, 0.0, 0.0);(0.0, 64.55999755859375, 0.0, 5.380000114440918, 5.380000114440918, -10.760000228881836, 2.690000057220459, 0.0)
2024/05/03/12:41:21.741842;47001;1714765281;755100007;;['BL_Position', 'BL_Wheel', 'BR_Position', 'BR_Wheel', 'FL_Position', 'FL_Wheel', 'FR_Position', 'FR_Wheel'];(0.0, 475.6767272949219, 0.0015339808305725455, 473.3021240234375, 0.0, 473.6196594238281, 0.0, 478.0451965332031);(0.0, 0.0, 0.0, 0.0, 0.0, 0.0, 0.0, 0.0);(0.0, 64.55999755859375, 0.0, 5.380000114440918, 5.380000114440918, -10.760000228881836, 2.690000057220459, 0.0)
2024/05/03/12:41:21.757368;47002;1714765281;771070557;;['BL_Position', 'BL_Wheel', 'BR_Position', 'BR_Wheel', 'FL_Position', 'FL_Wheel', 'FR_Position', 'FR_Wheel'];(0.0, 475.6782531738281, 0.0015339808305725455, 473.3005676269531, 0.0, 473.6211853027344, 0.0, 478.0451965332031);(0.0, 0.0, 0.0, 0.0, 0.0, 0.0, 0.0, 0.0);(0.0, 64.55999755859375, 0.0, 5.380000114440918, 8.069999694824219, -10.760000228881836, 2.690000057220459, 0.0)
2024/05/03/12:41:21.773067;47003;1714765281;787240533;;['BL_Position', 'BL_Wheel', 'BR_Position', 'BR_Wheel', 'FL_Position', 'FL_Wheel', 'FR_Position', 'FR_Wheel'];(0.0, 475.6767272949219, 0.0, 473.3021240234375, 0.0, 473.6196594238281, 0.0, 478.0451965332031);(0.0, 0.0, 0.0, 0.0, 0.0, 0.0, 0.0, 0.0);(0.0, 64.55999755859375, 0.0, 5.380000114440918, 5.380000114440918, -10.760000228881836, 2.690000057220459, 0.0)
2024/05/03/12:41:21.788423;47004;1714765281;803045990;;['BL_Position', 'BL_Wheel', 'BR_Position', 'BR_Wheel', 'FL_Position', 'FL_Wheel', 'FR_Position', 'FR_Wheel'];(0.0, 475.6782531738281, 0.0, 473.3005676269531, 0.0, 473.6196594238281, 0.0, 478.0451965332031);(0.0, 0.0, 0.0, 0.0, 0.0, 0.0, 0.0, 0.0);(0.0, 64.55999755859375, 0.0, 5.380000114440918, 5.380000114440918, -10.760000228881836, 2.690000057220459, 0.0)
2024/05/03/12:41:21.817496;47005;1714765281;819144281;;['BL_Position', 'BL_Wheel', 'BR_Position', 'BR_Wheel', 'FL_Position', 'FL_Wheel', 'FR_Position', 'FR_Wheel'];(0.0, 475.6767272949219, 0.0015339808305725455, 473.3021240234375, 0.0, 473.6211853027344, 0.0, 478.0451965332031);(0.0, 0.0, 0.0, 0.0, 0.0, 0.0, 0.0, 0.0);(0.0, 64.55999755859375, 0.0, 5.380000114440918, 5.380000114440918, -10.760000228881836, 2.690000057220459, 0.0)
2024/05/03/12:41:21.822308;47006;1714765281;835088794;;['BL_Position', 'BL_Wheel', 'BR_Position', 'BR_Wheel', 'FL_Position', 'FL_Wheel', 'FR_Position', 'FR_Wheel'];(0.0, 475.6767272949219, 0.0015339808305725455, 473.3005676269531, 0.0, 473.6196594238281, 0.0, 478.0451965332031);(0.0, 0.0, 0.0, 0.0, 0.0, 0.0, 0.0, 0.0);(0.0, 64.55999755859375, 0.0, 5.380000114440918, 0.0, -10.760000228881836, 2.690000057220459, 0.0)
2024/05/03/12:41:21.857803;47007;1714765281;851130400;;['BL_Position', 'BL_Wheel', 'BR_Position', 'BR_Wheel', 'FL_Position', 'FL_Wheel', 'FR_Position', 'FR_Wheel'];(0.0, 475.6767272949219, 0.0015339808305725455, 473.3005676269531, 0.0, 473.6211853027344, 0.0, 478.04364013671875);(0.0, 0.0, 0.0, 0.0, 0.0, 0.0, 0.0, 0.0);(0.0, 64.55999755859375, 0.0, 5.380000114440918, 5.380000114440918, -10.760000228881836, 2.690000057220459, 0.0)
2024/05/03/12:41:21.862974;47008;1714765281;867044579;;['BL_Position', 'BL_Wheel', 'BR_Position', 'BR_Wheel', 'FL_Position', 'FL_Wheel', 'FR_Position', 'FR_Wheel'];(0.0, 475.6767272949219, 0.0, 473.3021240234375, 0.0, 473.6196594238281, 0.0, 478.0451965332031);(0.0, 0.0, 0.0, 0.0, 0.0, 0.0, 0.0, 0.0);(0.0, 64.55999755859375, 0.0, 5.380000114440918, 5.380000114440918, -10.760000228881836, 2.690000057220459, 0.0)
2024/05/03/12:41:21.867680;47009;1714765281;883145074;;['BL_Position', 'BL_Wheel', 'BR_Position', 'BR_Wheel', 'FL_Position', 'FL_Wheel', 'FR_Position', 'FR_Wheel'];(0.0, 475.6782531738281, 0.0015339808305725455, 473.3021240234375, 0.0, 473.6196594238281, 0.0, 478.0451965332031);(0.0, 0.0, 0.0, 0.0, 0.0, 0.0, 0.0, 0.0);(0.0, 64.55999755859375, 0.0, 5.380000114440918, 5.380000114440918, -8.069999694824219, 2.690000057220459, 0.0)
2024/05/03/12:41:21.884948;47010;1714765281;899011402;;['BL_Position', 'BL_Wheel', 'BR_Position', 'BR_Wheel', 'FL_Position', 'FL_Wheel', 'FR_Position', 'FR_Wheel'];(0.0, 475.6767272949219, 0.0, 473.3021240234375, 0.0, 473.6211853027344, 0.0, 478.0451965332031);(0.0, 0.0, 0.0, 0.0, 0.0, 0.0, 0.0, 0.0);(0.0, 64.55999755859375, 0.0, 5.380000114440918, 5.380000114440918, -8.069999694824219, 2.690000057220459, 0.0)
2024/05/03/12:41:21.901339;47011;1714765281;914980563;;['BL_Position', 'BL_Wheel', 'BR_Position', 'BR_Wheel', 'FL_Position', 'FL_Wheel', 'FR_Position', 'FR_Wheel'];(0.0, 475.6767272949219, 0.0015339808305725455, 473.3021240234375, 0.0, 473.6211853027344, 0.0, 478.0451965332031);(0.0, 0.0, 0.0, 0.0, 0.0, 0.0, 0.0, 0.0);(0.0, 64.55999755859375, 0.0, 5.380000114440918, 2.690000057220459, -8.069999694824219, 2.690000057220459, 0.0)
2024/05/03/12:41:21.919261;47012;1714765281;931088132;;['BL_Position', 'BL_Wheel', 'BR_Position', 'BR_Wheel', 'FL_Position', 'FL_Wheel', 'FR_Position', 'FR_Wheel'];(0.0, 475.6767272949219, 0.0015339808305725455, 473.3021240234375, -0.0015339808305725455, 473.6196594238281, 0.0, 478.0451965332031);(0.0, 0.0, 0.0, 0.0, 0.0, 0.0, 0.0, 0.0);(0.0, 64.55999755859375, 0.0, 5.380000114440918, 5.380000114440918, -8.069999694824219, 2.690000057220459, 0.0)
2024/05/03/12:41:21.933004;47013;1714765281;947036515;;['BL_Position', 'BL_Wheel', 'BR_Position', 'BR_Wheel', 'FL_Position', 'FL_Wheel', 'FR_Position', 'FR_Wheel'];(0.0, 475.6767272949219, 0.0, 473.3021240234375, 0.0, 473.6196594238281, 0.0, 478.0451965332031);(0.0, 0.0, 0.0, 0.0, 0.0, 0.0, 0.0, 0.0);(0.0, 64.55999755859375, 0.0, 5.380000114440918, 5.380000114440918, -8.069999694824219, 2.690000057220459, 0.0)
2024/05/03/12:41:21.957448;47014;1714765281;963003139;;['BL_Position', 'BL_Wheel', 'BR_Position', 'BR_Wheel', 'FL_Position', 'FL_Wheel', 'FR_Position', 'FR_Wheel'];(0.0, 475.6782531738281, 0.0015339808305725455, 473.3005676269531, 0.0, 473.6196594238281, 0.0, 478.0451965332031);(0.0, 0.0, 0.0, 0.0, 0.0, 0.0, 0.0, 0.0);(0.0, 64.55999755859375, 0.0, 5.380000114440918, 0.0, -8.069999694824219, 2.690000057220459, 0.0)
2024/05/03/12:41:21.965673;47015;1714765281;979032634;;['BL_Position', 'BL_Wheel', 'BR_Position', 'BR_Wheel', 'FL_Position', 'FL_Wheel', 'FR_Position', 'FR_Wheel'];(0.0, 475.6767272949219, 0.0015339808305725455, 473.3021240234375, 0.0, 473.6196594238281, 0.0, 478.0451965332031);(0.0, 0.0, 0.0, 0.0, 0.0, 0.0, 0.0, 0.0);(0.0, 64.55999755859375, 0.0, 5.380000114440918, 5.380000114440918, -8.069999694824219, 2.690000057220459, 0.0)
2024/05/03/12:41:21.981210;47016;1714765281;995069295;;['BL_Position', 'BL_Wheel', 'BR_Position', 'BR_Wheel', 'FL_Position', 'FL_Wheel', 'FR_Position', 'FR_Wheel'];(0.0, 475.6767272949219, 0.0, 473.3021240234375, 0.0, 473.6211853027344, 0.0, 478.0451965332031);(0.0, 0.0, 0.0, 0.0, 0.0, 0.0, 0.0, 0.0);(0.0, 64.55999755859375, 0.0, 5.380000114440918, 5.380000114440918, -8.069999694824219, 2.690000057220459, 0.0)
2024/05/03/12:41:21.997081;47017;1714765282;11081308;;['BL_Position', 'BL_Wheel', 'BR_Position', 'BR_Wheel', 'FL_Position', 'FL_Wheel', 'FR_Position', 'FR_Wheel'];(0.0, 475.6782531738281, 0.0015339808305725455, 473.3021240234375, 0.0, 473.6196594238281, 0.0, 478.0451965332031);(0.0, 0.0, 0.0, 0.0, 0.0, 0.0, 0.0, 0.0);(0.0, 64.55999755859375, 0.0, 5.380000114440918, 2.690000057220459, -8.069999694824219, 2.690000057220459, 0.0)
2024/05/03/12:41:22.022454;47018;1714765282;27072821;;['BL_Position', 'BL_Wheel', 'BR_Position', 'BR_Wheel', 'FL_Position', 'FL_Wheel', 'FR_Position', 'FR_Wheel'];(0.0, 475.6767272949219, 0.0015339808305725455, 473.3021240234375, 0.0, 473.6211853027344, 0.0, 478.0451965332031);(0.0, 0.0, 0.0, 0.0, 0.0, 0.0, 0.0, 0.0);(0.0, 64.55999755859375, 0.0, 5.380000114440918, 5.380000114440918, -8.069999694824219, 2.690000057220459, 0.0)
2024/05/03/12:41:22.029031;47019;1714765282;43083982;;['BL_Position', 'BL_Wheel', 'BR_Position', 'BR_Wheel', 'FL_Position', 'FL_Wheel', 'FR_Position', 'FR_Wheel'];(0.0, 475.6767272949219, 0.0015339808305725455, 473.3005676269531, 0.0, 473.6196594238281, -0.0015339808305725455, 478.0451965332031);(0.0, 0.0, 0.0, 0.0, 0.0, 0.0, 0.0, 0.0);(0.0, 64.55999755859375, 0.0, 5.380000114440918, 5.380000114440918, -8.069999694824219, 2.690000057220459, 0.0)
2024/05/03/12:41:22.045022;47020;1714765282;59162736;;['BL_Position', 'BL_Wheel', 'BR_Position', 'BR_Wheel', 'FL_Position', 'FL_Wheel', 'FR_Position', 'FR_Wheel'];(0.0, 475.6767272949219, 0.0, 473.3021240234375, 0.0, 473.6211853027344, 0.0, 478.0451965332031);(0.0, 0.0, 0.0, 0.0, 0.0, 0.0, 0.0, 0.0);(0.0, 64.55999755859375, 0.0, 5.380000114440918, 5.380000114440918, -8.069999694824219, 2.690000057220459, 0.0)
2024/05/03/12:41:22.062353;47021;1714765282;75093342;;['BL_Position', 'BL_Wheel', 'BR_Position', 'BR_Wheel', 'FL_Position', 'FL_Wheel', 'FR_Position', 'FR_Wheel'];(0.0, 475.6767272949219, 0.0015339808305725455, 473.3021240234375, 0.0, 473.6211853027344, 0.0, 478.0451965332031);(0.0, 0.0, 0.0, 0.0, 0.0, 0.0, 0.0, 0.0);(0.0, 64.55999755859375, 0.0, 5.380000114440918, 5.380000114440918, -8.069999694824219, 2.690000057220459, 0.0)
2024/05/03/12:41:22.077363;47022;1714765282;91009114;;['BL_Position', 'BL_Wheel', 'BR_Position', 'BR_Wheel', 'FL_Position', 'FL_Wheel', 'FR_Position', 'FR_Wheel'];(0.0, 475.6767272949219, 0.0015339808305725455, 473.3021240234375, 0.0, 473.6211853027344, 0.0, 478.0451965332031);(0.0, 0.0, 0.0, 0.0, 0.0, 0.0, 0.0, 0.0);(0.0, 64.55999755859375, 0.0, 5.380000114440918, 2.690000057220459, -8.069999694824219, 2.690000057220459, 0.0)
2024/05/03/12:41:22.093818;47023;1714765282;107939275;;['BL_Position', 'BL_Wheel', 'BR_Position', 'BR_Wheel', 'FL_Position', 'FL_Wheel', 'FR_Position', 'FR_Wheel'];(0.0, 475.6782531738281, 0.0015339808305725455, 473.3021240234375, 0.0, 473.6211853027344, 0.0, 478.04364013671875);(0.0, 0.0, 0.0, 0.0, 0.0, 0.0, 0.0, 0.0);(0.0, 64.55999755859375, 0.0, 5.380000114440918, 2.690000057220459, -8.069999694824219, 2.690000057220459, 0.0)
2024/05/03/12:41:22.109120;47024;1714765282;123109251;;['BL_Position', 'BL_Wheel', 'BR_Position', 'BR_Wheel', 'FL_Position', 'FL_Wheel', 'FR_Position', 'FR_Wheel'];(0.0, 475.6767272949219, 0.0015339808305725455, 473.3005676269531, 0.0, 473.6196594238281, 0.0, 478.0451965332031);(0.0, 0.0, 0.0, 0.0, 0.0, 0.0, 0.0, 0.0);(0.0, 64.55999755859375, 0.0, 5.380000114440918, 2.690000057220459, -5.380000114440918, 2.690000057220459, 0.0)
2024/05/03/12:41:22.124624;47025;1714765282;139068153;;['BL_Position', 'BL_Wheel', 'BR_Position', 'BR_Wheel', 'FL_Position', 'FL_Wheel', 'FR_Position', 'FR_Wheel'];(0.0, 475.6767272949219, 0.0015339808305725455, 473.3021240234375, 0.0, 473.6196594238281, 0.0, 478.0451965332031);(0.0, 0.0, 0.0, 0.0, 0.0, 0.0, 0.0, 0.0);(0.0, 64.55999755859375, 0.0, 5.380000114440918, 2.690000057220459, -8.069999694824219, 2.690000057220459, 0.0)
2024/05/03/12:41:22.141379;47026;1714765282;155074518;;['BL_Position', 'BL_Wheel', 'BR_Position', 'BR_Wheel', 'FL_Position', 'FL_Wheel', 'FR_Position', 'FR_Wheel'];(0.0, 475.6767272949219, 0.0015339808305725455, 473.3021240234375, 0.0, 473.6196594238281, 0.0, 478.0451965332031);(0.0, 0.0, 0.0, 0.0, 0.0, 0.0, 0.0, 0.0);(0.0, 64.55999755859375, 0.0, 5.380000114440918, 8.069999694824219, -8.069999694824219, 2.690000057220459, 0.0)
2024/05/03/12:41:22.160681;47027;1714765282;171103716;;['BL_Position', 'BL_Wheel', 'BR_Position', 'BR_Wheel', 'FL_Position', 'FL_Wheel', 'FR_Position', 'FR_Wheel'];(0.0, 475.6782531738281, 0.0015339808305725455, 473.3021240234375, 0.0, 473.6211853027344, 0.0, 478.0451965332031);(0.0, 0.0, 0.0, 0.0, 0.0, 0.0, 0.0, 0.0);(0.0, 64.55999755859375, 0.0, 5.380000114440918, 5.380000114440918, -8.069999694824219, 2.690000057220459, 0.0)
2024/05/03/12:41:22.175028;47028;1714765282;187048192;;['BL_Position', 'BL_Wheel', 'BR_Position', 'BR_Wheel', 'FL_Position', 'FL_Wheel', 'FR_Position', 'FR_Wheel'];(0.0, 475.6767272949219, 0.0, 473.3021240234375, -0.0015339808305725455, 473.6211853027344, 0.0, 478.0451965332031);(0.0, 0.0, 0.0, 0.0, 0.0, 0.0, 0.0, 0.0);(0.0, 64.55999755859375, 0.0, 5.380000114440918, 5.380000114440918, -8.069999694824219, 2.690000057220459, 0.0)
2024/05/03/12:41:22.189059;47029;1714765282;203101983;;['BL_Position', 'BL_Wheel', 'BR_Position', 'BR_Wheel', 'FL_Position', 'FL_Wheel', 'FR_Position', 'FR_Wheel'];(0.0, 475.6767272949219, 0.0015339808305725455, 473.3021240234375, 0.0, 473.6196594238281, 0.0, 478.0451965332031);(0.0, 0.0, 0.0, 0.0, 0.0, 0.0, 0.0, 0.0);(0.0, 64.55999755859375, 0.0, 5.380000114440918, 5.380000114440918, -8.069999694824219, 2.690000057220459, 0.0)
2024/05/03/12:41:22.204967;47030;1714765282;219022292;;['BL_Position', 'BL_Wheel', 'BR_Position', 'BR_Wheel', 'FL_Position', 'FL_Wheel', 'FR_Position', 'FR_Wheel'];(0.0, 475.6767272949219, 0.0015339808305725455, 473.3021240234375, -0.0015339808305725455, 473.6196594238281, 0.0, 478.0451965332031);(0.0, 0.0, 0.0, 0.0, 0.0, 0.0, 0.0, 0.0);(0.0, 64.55999755859375, 0.0, 5.380000114440918, 5.380000114440918, -8.069999694824219, 2.690000057220459, 0.0)
2024/05/03/12:41:22.226768;47031;1714765282;235002120;;['BL_Position', 'BL_Wheel', 'BR_Position', 'BR_Wheel', 'FL_Position', 'FL_Wheel', 'FR_Position', 'FR_Wheel'];(0.0, 475.6767272949219, 0.0015339808305725455, 473.3021240234375, 0.0, 473.6196594238281, 0.0, 478.0451965332031);(0.0, 0.0, 0.0, 0.0, 0.0, 0.0, 0.0, 0.0);(0.0, 64.55999755859375, 0.0, 5.380000114440918, 5.380000114440918, -8.069999694824219, 2.690000057220459, 0.0)
2024/05/03/12:41:22.236977;47032;1714765282;251030115;;['BL_Position', 'BL_Wheel', 'BR_Position', 'BR_Wheel', 'FL_Position', 'FL_Wheel', 'FR_Position', 'FR_Wheel'];(0.0, 475.6767272949219, 0.0, 473.3021240234375, 0.0, 473.6196594238281, 0.0, 478.0451965332031);(0.0, 0.0, 0.0, 0.0, 0.0, 0.0, 0.0, 0.0);(0.0, 64.55999755859375, 0.0, 5.380000114440918, 0.0, -8.069999694824219, 2.690000057220459, 0.0)
2024/05/03/12:41:22.259167;47033;1714765282;267021498;;['BL_Position', 'BL_Wheel', 'BR_Position', 'BR_Wheel', 'FL_Position', 'FL_Wheel', 'FR_Position', 'FR_Wheel'];(0.0, 475.6767272949219, 0.0015339808305725455, 473.3021240234375, 0.0, 473.6196594238281, 0.0, 478.04364013671875);(0.0, 0.0, 0.0, 0.0, 0.0, 0.0, 0.0, 0.0);(0.0, 64.55999755859375, 0.0, 5.380000114440918, 5.380000114440918, -8.069999694824219, 2.690000057220459, 0.0)
2024/05/03/12:41:22.269234;47034;1714765282;282986048;;['BL_Position', 'BL_Wheel', 'BR_Position', 'BR_Wheel', 'FL_Position', 'FL_Wheel', 'FR_Position', 'FR_Wheel'];(0.0, 475.6782531738281, 0.0015339808305725455, 473.3021240234375, 0.0, 473.6211853027344, 0.0, 478.0451965332031);(0.0, 0.0, 0.0, 0.0, 0.0, 0.0, 0.0, 0.0);(0.0, 64.55999755859375, 0.0, 5.380000114440918, 5.380000114440918, -8.069999694824219, 2.690000057220459, 0.0)
2024/05/03/12:41:22.285043;47035;1714765282;298988580;;['BL_Position', 'BL_Wheel', 'BR_Position', 'BR_Wheel', 'FL_Position', 'FL_Wheel', 'FR_Position', 'FR_Wheel'];(0.0, 475.6767272949219, 0.0015339808305725455, 473.3021240234375, 0.0, 473.6211853027344, 0.0, 478.0451965332031);(0.0, 0.0, 0.0, 0.0, 0.0, 0.0, 0.0, 0.0);(0.0, 64.55999755859375, 0.0, 5.380000114440918, 2.690000057220459, -8.069999694824219, 2.690000057220459, 0.0)
2024/05/03/12:41:22.301459;47036;1714765282;315054315;;['BL_Position', 'BL_Wheel', 'BR_Position', 'BR_Wheel', 'FL_Position', 'FL_Wheel', 'FR_Position', 'FR_Wheel'];(0.0, 475.6767272949219, 0.0015339808305725455, 473.3021240234375, 0.0, 473.6211853027344, 0.0, 478.0451965332031);(0.0, 0.0, 0.0, 0.0, 0.0, 0.0, 0.0, 0.0);(0.0, 64.55999755859375, 0.0, 5.380000114440918, 5.380000114440918, -8.069999694824219, 2.690000057220459, 0.0)
2024/05/03/12:41:22.329589;47037;1714765282;331219791;;['BL_Position', 'BL_Wheel', 'BR_Position', 'BR_Wheel', 'FL_Position', 'FL_Wheel', 'FR_Position', 'FR_Wheel'];(0.0, 475.6767272949219, 0.0015339808305725455, 473.3021240234375, 0.0, 473.6196594238281, 0.0, 478.0451965332031);(0.0, 0.0, 0.0, 0.0, 0.0, 0.0, 0.0, 0.0);(0.0, 64.55999755859375, 0.0, 5.380000114440918, 5.380000114440918, -8.069999694824219, 2.690000057220459, 0.0)
2024/05/03/12:41:22.334730;47038;1714765282;347518267;;['BL_Position', 'BL_Wheel', 'BR_Position', 'BR_Wheel', 'FL_Position', 'FL_Wheel', 'FR_Position', 'FR_Wheel'];(0.0, 475.6767272949219, 0.0, 473.3021240234375, -0.0015339808305725455, 473.6196594238281, 0.0, 478.0451965332031);(0.0, 0.0, 0.0, 0.0, 0.0, 0.0, 0.0, 0.0);(0.0, 64.55999755859375, 0.0, 5.380000114440918, 5.380000114440918, -8.069999694824219, 2.690000057220459, 0.0)
2024/05/03/12:41:22.352611;47039;1714765282;363130558;;['BL_Position', 'BL_Wheel', 'BR_Position', 'BR_Wheel', 'FL_Position', 'FL_Wheel', 'FR_Position', 'FR_Wheel'];(0.0, 475.6767272949219, 0.0015339808305725455, 473.3005676269531, 0.0, 473.6211853027344, 0.0, 478.0451965332031);(0.0, 0.0, 0.0, 0.0, 0.0, 0.0, 0.0, 0.0);(0.0, 64.55999755859375, 0.0, 5.380000114440918, 5.380000114440918, -8.069999694824219, 2.690000057220459, 0.0)
2024/05/03/12:41:22.365895;47040;1714765282;379029923;;['BL_Position', 'BL_Wheel', 'BR_Position', 'BR_Wheel', 'FL_Position', 'FL_Wheel', 'FR_Position', 'FR_Wheel'];(0.0, 475.6782531738281, 0.0015339808305725455, 473.3021240234375, 0.0, 473.6211853027344, 0.0, 478.0451965332031);(0.0, 0.0, 0.0, 0.0, 0.0, 0.0, 0.0, 0.0);(0.0, 64.55999755859375, 0.0, 5.380000114440918, 5.380000114440918, -8.069999694824219, 2.690000057220459, 0.0)
2024/05/03/12:41:22.379760;47041;1714765282;395034029;;['BL_Position', 'BL_Wheel', 'BR_Position', 'BR_Wheel', 'FL_Position', 'FL_Wheel', 'FR_Position', 'FR_Wheel'];(0.0, 475.6767272949219, 0.0015339808305725455, 473.3021240234375, 0.0, 473.6196594238281, 0.0, 478.0451965332031);(0.0, 0.0, 0.0, 0.0, 0.0, 0.0, 0.0, 0.0);(0.0, 64.55999755859375, 0.0, 5.380000114440918, 5.380000114440918, -8.069999694824219, 2.690000057220459, 0.0)
2024/05/03/12:41:22.397537;47042;1714765282;411065116;;['BL_Position', 'BL_Wheel', 'BR_Position', 'BR_Wheel', 'FL_Position', 'FL_Wheel', 'FR_Position', 'FR_Wheel'];(0.0, 475.6767272949219, 0.0015339808305725455, 473.3021240234375, 0.0, 473.6211853027344, 0.0, 478.0451965332031);(0.0, 0.0, 0.0, 0.0, 0.0, 0.0, 0.0, 0.0);(0.0, 64.55999755859375, 0.0, 5.380000114440918, 5.380000114440918, -8.069999694824219, 2.690000057220459, 0.0)
2024/05/03/12:41:22.411333;47043;1714765282;427027721;;['BL_Position', 'BL_Wheel', 'BR_Position', 'BR_Wheel', 'FL_Position', 'FL_Wheel', 'FR_Position', 'FR_Wheel'];(0.0, 475.6767272949219, 0.0, 473.3021240234375, -0.0015339808305725455, 473.6211853027344, 0.0, 478.0451965332031);(0.0, 0.0, 0.0, 0.0, 0.0, 0.0, 0.0, 0.0);(0.0, 64.55999755859375, 0.0, 5.380000114440918, 2.690000057220459, -8.069999694824219, 2.690000057220459, 0.0)
2024/05/03/12:41:22.431213;47044;1714765282;443074531;;['BL_Position', 'BL_Wheel', 'BR_Position', 'BR_Wheel', 'FL_Position', 'FL_Wheel', 'FR_Position', 'FR_Wheel'];(0.0, 475.6767272949219, 0.0015339808305725455, 473.3021240234375, 0.0, 473.6211853027344, 0.0, 478.0451965332031);(0.0, 0.0, 0.0, 0.0, 0.0, 0.0, 0.0, 0.0);(0.0, 64.55999755859375, 0.0, 5.380000114440918, 5.380000114440918, -8.069999694824219, 0.0, 0.0)
2024/05/03/12:41:22.445028;47045;1714765282;459051155;;['BL_Position', 'BL_Wheel', 'BR_Position', 'BR_Wheel', 'FL_Position', 'FL_Wheel', 'FR_Position', 'FR_Wheel'];(0.0, 475.6782531738281, 0.0, 473.3021240234375, 0.0, 473.6196594238281, 0.0, 478.0451965332031);(0.0, 0.0, 0.0, 0.0, 0.0, 0.0, 0.0, 0.0);(0.0, 64.55999755859375, 0.0, 5.380000114440918, 5.380000114440918, -8.069999694824219, 0.0, 0.0)
2024/05/03/12:41:22.465516;47046;1714765282;475083001;;['BL_Position', 'BL_Wheel', 'BR_Position', 'BR_Wheel', 'FL_Position', 'FL_Wheel', 'FR_Position', 'FR_Wheel'];(0.0, 475.6767272949219, 0.0015339808305725455, 473.3021240234375, 0.0, 473.6211853027344, 0.0, 478.0451965332031);(0.0, 0.0, 0.0, 0.0, 0.0, 0.0, 0.0, 0.0);(0.0, 64.55999755859375, 0.0, 5.380000114440918, 5.380000114440918, -8.069999694824219, 0.0, 0.0)
2024/05/03/12:41:22.476762;47047;1714765282;491001718;;['BL_Position', 'BL_Wheel', 'BR_Position', 'BR_Wheel', 'FL_Position', 'FL_Wheel', 'FR_Position', 'FR_Wheel'];(0.0, 475.6767272949219, 0.0015339808305725455, 473.3021240234375, 0.0, 473.6196594238281, 0.0, 478.0451965332031);(0.0, 0.0, 0.0, 0.0, 0.0, 0.0, 0.0, 0.0);(0.0, 64.55999755859375, 0.0, 5.380000114440918, 2.690000057220459, -8.069999694824219, 0.0, 0.0)
2024/05/03/12:41:22.493064;47048;1714765282;507035157;;['BL_Position', 'BL_Wheel', 'BR_Position', 'BR_Wheel', 'FL_Position', 'FL_Wheel', 'FR_Position', 'FR_Wheel'];(0.0, 475.6767272949219, 0.0015339808305725455, 473.3021240234375, 0.0, 473.6196594238281, 0.0, 478.0451965332031);(0.0, 0.0, 0.0, 0.0, 0.0, 0.0, 0.0, 0.0);(0.0, 64.55999755859375, 0.0, 5.380000114440918, 2.690000057220459, -8.069999694824219, 0.0, 0.0)
2024/05/03/12:41:22.509033;47049;1714765282;523070559;;['BL_Position', 'BL_Wheel', 'BR_Position', 'BR_Wheel', 'FL_Position', 'FL_Wheel', 'FR_Position', 'FR_Wheel'];(0.0, 475.6767272949219, 0.0015339808305725455, 473.3021240234375, 0.0, 473.6211853027344, 0.0, 478.04364013671875);(0.0, 0.0, 0.0, 0.0, 0.0, 0.0, 0.0, 0.0);(0.0, 64.55999755859375, 0.0, 5.380000114440918, 2.690000057220459, -8.069999694824219, 0.0, 0.0)
2024/05/03/12:41:22.533761;47050;1714765282;539328739;;['BL_Position', 'BL_Wheel', 'BR_Position', 'BR_Wheel', 'FL_Position', 'FL_Wheel', 'FR_Position', 'FR_Wheel'];(0.0, 475.6767272949219, 0.0015339808305725455, 473.3021240234375, 0.0, 473.6211853027344, 0.0, 478.0451965332031);(0.0, 0.0, 0.0, 0.0, 0.0, 0.0, 0.0, 0.0);(0.0, 64.55999755859375, 0.0, 5.380000114440918, 5.380000114440918, -8.069999694824219, 0.0, 0.0)
2024/05/03/12:41:22.541523;47051;1714765282;555030141;;['BL_Position', 'BL_Wheel', 'BR_Position', 'BR_Wheel', 'FL_Position', 'FL_Wheel', 'FR_Position', 'FR_Wheel'];(0.0, 475.6767272949219, 0.0, 473.3005676269531, 0.0, 473.6211853027344, 0.0, 478.0451965332031);(0.0, 0.0, 0.0, 0.0, 0.0, 0.0, 0.0, 0.0);(0.0, 64.55999755859375, 0.0, 5.380000114440918, 5.380000114440918, -8.069999694824219, 0.0, 0.0)
2024/05/03/12:41:22.561529;47052;1714765282;571026006;;['BL_Position', 'BL_Wheel', 'BR_Position', 'BR_Wheel', 'FL_Position', 'FL_Wheel', 'FR_Position', 'FR_Wheel'];(0.0, 475.6767272949219, 0.0015339808305725455, 473.3021240234375, 0.0, 473.6211853027344, 0.0, 478.0451965332031);(0.0, 0.0, 0.0, 0.0, 0.0, 0.0, 0.0, 0.0);(0.0, 64.55999755859375, 0.0, 5.380000114440918, 8.069999694824219, -8.069999694824219, 0.0, 0.0)
2024/05/03/12:41:22.572347;47053;1714765282;587701611;;['BL_Position', 'BL_Wheel', 'BR_Position', 'BR_Wheel', 'FL_Position', 'FL_Wheel', 'FR_Position', 'FR_Wheel'];(0.0, 475.6767272949219, 0.0015339808305725455, 473.3021240234375, 0.0, 473.6211853027344, 0.0, 478.0451965332031);(0.0, 0.0, 0.0, 0.0, 0.0, 0.0, 0.0, 0.0);(0.0, 64.55999755859375, 0.0, 5.380000114440918, 5.380000114440918, -8.069999694824219, 0.0, 0.0)
2024/05/03/12:41:22.589360;47054;1714765282;603131198;;['BL_Position', 'BL_Wheel', 'BR_Position', 'BR_Wheel', 'FL_Position', 'FL_Wheel', 'FR_Position', 'FR_Wheel'];(0.0, 475.6767272949219, 0.0015339808305725455, 473.3021240234375, 0.0, 473.6196594238281, 0.0, 478.04364013671875);(0.0, 0.0, 0.0, 0.0, 0.0, 0.0, 0.0, 0.0);(0.0, 64.55999755859375, 0.0, 5.380000114440918, 5.380000114440918, -8.069999694824219, 0.0, 0.0)
2024/05/03/12:41:22.605008;47055;1714765282;619065711;;['BL_Position', 'BL_Wheel', 'BR_Position', 'BR_Wheel', 'FL_Position', 'FL_Wheel', 'FR_Position', 'FR_Wheel'];(0.0, 475.6767272949219, 0.0015339808305725455, 473.3021240234375, 0.0, 473.6196594238281, 0.0, 478.0451965332031);(0.0, 0.0, 0.0, 0.0, 0.0, 0.0, 0.0, 0.0);(0.0, 64.55999755859375, 0.0, 5.380000114440918, 5.380000114440918, -8.069999694824219, 2.690000057220459, 0.0)
2024/05/03/12:41:22.621382;47056;1714765282;635012317;;['BL_Position', 'BL_Wheel', 'BR_Position', 'BR_Wheel', 'FL_Position', 'FL_Wheel', 'FR_Position', 'FR_Wheel'];(0.0, 475.6767272949219, 0.0015339808305725455, 473.3021240234375, 0.0, 473.6211853027344, 0.0, 478.04364013671875);(0.0, 0.0, 0.0, 0.0, 0.0, 0.0, 0.0, 0.0);(5.380000114440918, 64.55999755859375, 0.0, 5.380000114440918, 5.380000114440918, -8.069999694824219, 2.690000057220459, 0.0)
