time;.header.seq;.header.stamp.secs;.header.stamp.nsecs;.header.frame_id;.name;.position;.velocity;.effort
2024/05/03/13:07:02.808295;143322;1714766822;834458549;;['BL_Position', 'BL_Wheel', 'BR_Position', 'BR_Wheel', 'FL_Position', 'FL_Wheel', 'FR_Position', 'FR_Wheel'];(0.0015339808305725455, 1988.4779052734375, -0.006135923322290182, 2205.832275390625, 0.003067961661145091, 1986.65087890625, 0.0, 2210.2607421875);(0.0, 0.0, 0.0, 0.0, 0.0, 0.0, 0.0, 0.0);(0.0, 43.040000915527344, 75.31999969482422, 5.380000114440918, -18.829999923706055, 0.0, 2.690000057220459, 0.0)
2024/05/03/13:07:02.826761;143323;1714766822;850484604;;['BL_Position', 'BL_Wheel', 'BR_Position', 'BR_Wheel', 'FL_Position', 'FL_Wheel', 'FR_Position', 'FR_Wheel'];(0.0015339808305725455, 1988.4779052734375, -0.006135923322290182, 2205.833740234375, 0.003067961661145091, 1986.65087890625, 0.0, 2210.2607421875);(0.0, 0.0, 0.0, 0.0, 0.0, 0.0, 0.0, 0.0);(0.0, 43.040000915527344, 72.6300048828125, 5.380000114440918, -18.829999923706055, 0.0, 2.690000057220459, 0.0)
2024/05/03/13:07:02.841952;143324;1714766822;866438511;;['BL_Position', 'BL_Wheel', 'BR_Position', 'BR_Wheel', 'FL_Position', 'FL_Wheel', 'FR_Position', 'FR_Wheel'];(0.0015339808305725455, 1988.4779052734375, -0.006135923322290182, 2205.833740234375, 0.003067961661145091, 1986.65087890625, 0.0, 2210.262451171875);(0.0, 0.0, 0.0, 0.0, 0.0, 0.0, 0.0, 0.0);(0.0, 43.040000915527344, 75.31999969482422, 5.380000114440918, -18.829999923706055, 0.0, 2.690000057220459, 0.0)
2024/05/03/13:07:02.861236;143325;1714766822;882426807;;['BL_Position', 'BL_Wheel', 'BR_Position', 'BR_Wheel', 'FL_Position', 'FL_Wheel', 'FR_Position', 'FR_Wheel'];(0.0015339808305725455, 1988.4779052734375, -0.006135923322290182, 2205.832275390625, 0.003067961661145091, 1986.6494140625, 0.0, 2210.2607421875);(0.0, 0.0, 0.0, 0.0, 0.0, 0.0, 0.0, 0.0);(0.0, 43.040000915527344, 75.31999969482422, 5.380000114440918, -18.829999923706055, 0.0, 2.690000057220459, 0.0)
2024/05/03/13:07:02.873797;143326;1714766822;898422306;;['BL_Position', 'BL_Wheel', 'BR_Position', 'BR_Wheel', 'FL_Position', 'FL_Wheel', 'FR_Position', 'FR_Wheel'];(0.0015339808305725455, 1988.4779052734375, -0.006135923322290182, 2205.832275390625, 0.003067961661145091, 1986.65087890625, 0.0, 2210.2607421875);(0.0, 0.0, 0.0, 0.0, 0.0, 0.0, 0.0, 0.0);(0.0, 43.040000915527344, 78.01000213623047, 5.380000114440918, -18.829999923706055, 0.0, 2.690000057220459, 0.0)
2024/05/03/13:07:02.891945;143327;1714766822;914416695;;['BL_Position', 'BL_Wheel', 'BR_Position', 'BR_Wheel', 'FL_Position', 'FL_Wheel', 'FR_Position', 'FR_Wheel'];(0.0015339808305725455, 1988.4779052734375, -0.006135923322290182, 2205.833740234375, 0.003067961661145091, 1986.65087890625, 0.0, 2210.2607421875);(0.0, 0.0, 0.0, 0.0, 0.0, 0.0, 0.0, 0.0);(0.0, 43.040000915527344, 75.31999969482422, 5.380000114440918, -18.829999923706055, 0.0, 2.690000057220459, 0.0)
2024/05/03/13:07:02.907420;143328;1714766822;930414509;;['BL_Position', 'BL_Wheel', 'BR_Position', 'BR_Wheel', 'FL_Position', 'FL_Wheel', 'FR_Position', 'FR_Wheel'];(0.0015339808305725455, 1988.4779052734375, -0.006135923322290182, 2205.833740234375, 0.003067961661145091, 1986.65087890625, 0.0, 2210.2607421875);(0.0, 0.0, 0.0, 0.0, 0.0, 0.0, 0.0, 0.0);(0.0, 43.040000915527344, 75.31999969482422, 5.380000114440918, -18.829999923706055, 0.0, 2.690000057220459, 0.0)
2024/05/03/13:07:02.920091;143329;1714766822;946394805;;['BL_Position', 'BL_Wheel', 'BR_Position', 'BR_Wheel', 'FL_Position', 'FL_Wheel', 'FR_Position', 'FR_Wheel'];(0.0, 1988.4779052734375, -0.006135923322290182, 2205.833740234375, 0.003067961661145091, 1986.65087890625, 0.0, 2210.2607421875);(0.0, 0.0, 0.0, 0.0, 0.0, 0.0, 0.0, 0.0);(0.0, 43.040000915527344, 72.6300048828125, 5.380000114440918, -18.829999923706055, 0.0, 2.690000057220459, 0.0)
2024/05/03/13:07:02.938026;143330;1714766822;962436471;;['BL_Position', 'BL_Wheel', 'BR_Position', 'BR_Wheel', 'FL_Position', 'FL_Wheel', 'FR_Position', 'FR_Wheel'];(0.0015339808305725455, 1988.4779052734375, -0.004601942375302315, 2205.832275390625, 0.003067961661145091, 1986.65087890625, 0.0, 2210.262451171875);(0.0, 0.0, 0.0, 0.0, 0.0, 0.0, 0.0, 0.0);(0.0, 43.040000915527344, 78.01000213623047, 5.380000114440918, -18.829999923706055, 0.0, 2.690000057220459, 0.0)
2024/05/03/13:07:02.962871;143331;1714766822;978471933;;['BL_Position', 'BL_Wheel', 'BR_Position', 'BR_Wheel', 'FL_Position', 'FL_Wheel', 'FR_Position', 'FR_Wheel'];(0.0, 1988.4779052734375, -0.006135923322290182, 2205.832275390625, 0.003067961661145091, 1986.65087890625, 0.0, 2210.2607421875);(0.0, 0.0, 0.0, 0.0, 0.0, 0.0, 0.0, 0.0);(0.0, 43.040000915527344, 69.94000244140625, 5.380000114440918, -18.829999923706055, 0.0, 2.690000057220459, 0.0)
2024/05/03/13:07:02.969396;143332;1714766822;994408284;;['BL_Position', 'BL_Wheel', 'BR_Position', 'BR_Wheel', 'FL_Position', 'FL_Wheel', 'FR_Position', 'FR_Wheel'];(0.0015339808305725455, 1988.4779052734375, -0.006135923322290182, 2205.833740234375, 0.003067961661145091, 1986.65087890625, 0.0, 2210.2607421875);(0.0, 0.0, 0.0, 0.0, 0.0, 0.0, 0.0, 0.0);(0.0, 43.040000915527344, 75.31999969482422, 5.380000114440918, -18.829999923706055, 0.0, 2.690000057220459, 0.0)
2024/05/03/13:07:02.988875;143333;1714766823;10395580;;['BL_Position', 'BL_Wheel', 'BR_Position', 'BR_Wheel', 'FL_Position', 'FL_Wheel', 'FR_Position', 'FR_Wheel'];(0.0015339808305725455, 1988.4779052734375, -0.006135923322290182, 2205.832275390625, 0.003067961661145091, 1986.65087890625, 0.0, 2210.2607421875);(0.0, 0.0, 0.0, 0.0, 0.0, 0.0, 0.0, 0.0);(0.0, 43.040000915527344, 75.31999969482422, 5.380000114440918, -18.829999923706055, 0.0, 2.690000057220459, 0.0)
2024/05/03/13:07:03.002912;143334;1714766823;26423246;;['BL_Position', 'BL_Wheel', 'BR_Position', 'BR_Wheel', 'FL_Position', 'FL_Wheel', 'FR_Position', 'FR_Wheel'];(0.0015339808305725455, 1988.4779052734375, -0.006135923322290182, 2205.833740234375, 0.003067961661145091, 1986.65087890625, 0.0, 2210.2607421875);(0.0, 0.0, 0.0, 0.0, 0.0, 0.0, 0.0, 0.0);(0.0, 43.040000915527344, 75.31999969482422, 5.380000114440918, -18.829999923706055, 0.0, 2.690000057220459, 0.0)
2024/05/03/13:07:03.018375;143335;1714766823;42671746;;['BL_Position', 'BL_Wheel', 'BR_Position', 'BR_Wheel', 'FL_Position', 'FL_Wheel', 'FR_Position', 'FR_Wheel'];(0.0015339808305725455, 1988.4779052734375, -0.006135923322290182, 2205.832275390625, 0.003067961661145091, 1986.65087890625, 0.0, 2210.2607421875);(0.0, 0.0, 0.0, 0.0, 0.0, 0.0, 0.0, 0.0);(0.0, 43.040000915527344, 75.31999969482422, 5.380000114440918, -18.829999923706055, 0.0, 2.690000057220459, 0.0)
2024/05/03/13:07:03.037378;143336;1714766823;60715504;;['BL_Position', 'BL_Wheel', 'BR_Position', 'BR_Wheel', 'FL_Position', 'FL_Wheel', 'FR_Position', 'FR_Wheel'];(0.0015339808305725455, 1988.4779052734375, -0.006135923322290182, 2205.833740234375, 0.003067961661145091, 1986.65087890625, 0.0, 2210.262451171875);(0.0, 0.0, 0.0, 0.0, 0.0, 0.0, 0.0, 0.0);(0.0, 43.040000915527344, 78.01000213623047, 5.380000114440918, -18.829999923706055, 0.0, 2.690000057220459, 0.0)
2024/05/03/13:07:03.049605;143337;1714766823;74407707;;['BL_Position', 'BL_Wheel', 'BR_Position', 'BR_Wheel', 'FL_Position', 'FL_Wheel', 'FR_Position', 'FR_Wheel'];(0.0015339808305725455, 1988.4779052734375, -0.006135923322290182, 2205.833740234375, 0.003067961661145091, 1986.65087890625, 0.0, 2210.2607421875);(0.0, 0.0, 0.0, 0.0, 0.0, 0.0, 0.0, 0.0);(0.0, 43.040000915527344, 72.6300048828125, 5.380000114440918, -18.829999923706055, 0.0, 2.690000057220459, 0.0)
2024/05/03/13:07:03.065144;143338;1714766823;90448911;;['BL_Position', 'BL_Wheel', 'BR_Position', 'BR_Wheel', 'FL_Position', 'FL_Wheel', 'FR_Position', 'FR_Wheel'];(0.0015339808305725455, 1988.4779052734375, -0.006135923322290182, 2205.832275390625, 0.003067961661145091, 1986.65087890625, 0.0, 2210.262451171875);(0.0, 0.0, 0.0, 0.0, 0.0, 0.0, 0.0, 0.0);(0.0, 43.040000915527344, 75.31999969482422, 5.380000114440918, -16.139999389648438, 0.0, 2.690000057220459, 0.0)
2024/05/03/13:07:03.093623;143339;1714766823;106455169;;['BL_Position', 'BL_Wheel', 'BR_Position', 'BR_Wheel', 'FL_Position', 'FL_Wheel', 'FR_Position', 'FR_Wheel'];(0.0015339808305725455, 1988.4779052734375, -0.006135923322290182, 2205.832275390625, 0.003067961661145091, 1986.6494140625, 0.0, 2210.2607421875);(0.0, 0.0, 0.0, 0.0, 0.0, 0.0, 0.0, 0.0);(0.0, 43.040000915527344, 78.01000213623047, 5.380000114440918, -18.829999923706055, 0.0, 2.690000057220459, 0.0)
2024/05/03/13:07:03.100775;143340;1714766823;122437446;;['BL_Position', 'BL_Wheel', 'BR_Position', 'BR_Wheel', 'FL_Position', 'FL_Wheel', 'FR_Position', 'FR_Wheel'];(0.0015339808305725455, 1988.4779052734375, -0.006135923322290182, 2205.832275390625, 0.003067961661145091, 1986.65087890625, 0.0, 2210.2607421875);(0.0, 0.0, 0.0, 0.0, 0.0, 0.0, 0.0, 0.0);(0.0, 43.040000915527344, 75.31999969482422, 5.380000114440918, -21.520000457763672, 0.0, 2.690000057220459, 0.0)
2024/05/03/13:07:03.113387;143341;1714766823;138412612;;['BL_Position', 'BL_Wheel', 'BR_Position', 'BR_Wheel', 'FL_Position', 'FL_Wheel', 'FR_Position', 'FR_Wheel'];(0.0015339808305725455, 1988.4779052734375, -0.006135923322290182, 2205.832275390625, 0.003067961661145091, 1986.65087890625, 0.0, 2210.262451171875);(0.0, 0.0, 0.0, 0.0, 0.0, 0.0, 0.0, 0.0);(0.0, 43.040000915527344, 75.31999969482422, 5.380000114440918, -18.829999923706055, 0.0, 2.690000057220459, 0.0)
2024/05/03/13:07:03.129429;143342;1714766823;154415371;;['BL_Position', 'BL_Wheel', 'BR_Position', 'BR_Wheel', 'FL_Position', 'FL_Wheel', 'FR_Position', 'FR_Wheel'];(0.0015339808305725455, 1988.4779052734375, -0.006135923322290182, 2205.833740234375, 0.003067961661145091, 1986.65087890625, 0.0, 2210.2607421875);(0.0, 0.0, 0.0, 0.0, 0.0, 0.0, 0.0, 0.0);(0.0, 43.040000915527344, 69.94000244140625, 5.380000114440918, -18.829999923706055, 0.0, 2.690000057220459, 0.0)
2024/05/03/13:07:03.145923;143343;1714766823;170389204;;['BL_Position', 'BL_Wheel', 'BR_Position', 'BR_Wheel', 'FL_Position', 'FL_Wheel', 'FR_Position', 'FR_Wheel'];(0.0015339808305725455, 1988.4779052734375, -0.006135923322290182, 2205.833740234375, 0.003067961661145091, 1986.65087890625, 0.0, 2210.2607421875);(0.0, 0.0, 0.0, 0.0, 0.0, 0.0, 0.0, 0.0);(0.0, 43.040000915527344, 78.01000213623047, 5.380000114440918, -18.829999923706055, 0.0, 2.690000057220459, 0.0)
2024/05/03/13:07:03.168002;143344;1714766823;186455981;;['BL_Position', 'BL_Wheel', 'BR_Position', 'BR_Wheel', 'FL_Position', 'FL_Wheel', 'FR_Position', 'FR_Wheel'];(0.0015339808305725455, 1988.4779052734375, -0.006135923322290182, 2205.832275390625, 0.003067961661145091, 1986.65087890625, 0.0, 2210.2607421875);(0.0, 0.0, 0.0, 0.0, 0.0, 0.0, 0.0, 0.0);(0.0, 43.040000915527344, 75.31999969482422, 5.380000114440918, -18.829999923706055, 0.0, 2.690000057220459, 0.0)
2024/05/03/13:07:03.177352;143345;1714766823;202407888;;['BL_Position', 'BL_Wheel', 'BR_Position', 'BR_Wheel', 'FL_Position', 'FL_Wheel', 'FR_Position', 'FR_Wheel'];(0.0015339808305725455, 1988.4779052734375, -0.006135923322290182, 2205.833740234375, 0.003067961661145091, 1986.6494140625, 0.0, 2210.2607421875);(0.0, 0.0, 0.0, 0.0, 0.0, 0.0, 0.0, 0.0);(0.0, 43.040000915527344, 75.31999969482422, 5.380000114440918, -18.829999923706055, 0.0, 2.690000057220459, 0.0)
2024/05/03/13:07:03.194042;143346;1714766823;218382776;;['BL_Position', 'BL_Wheel', 'BR_Position', 'BR_Wheel', 'FL_Position', 'FL_Wheel', 'FR_Position', 'FR_Wheel'];(0.0015339808305725455, 1988.4779052734375, -0.004601942375302315, 2205.832275390625, 0.003067961661145091, 1986.65087890625, 0.0, 2210.262451171875);(0.0, 0.0, 0.0, 0.0, 0.0, 0.0, 0.0, 0.0);(0.0, 43.040000915527344, 75.31999969482422, 5.380000114440918, -18.829999923706055, 0.0, 2.690000057220459, 0.0)
2024/05/03/13:07:03.209666;143347;1714766823;234453091;;['BL_Position', 'BL_Wheel', 'BR_Position', 'BR_Wheel', 'FL_Position', 'FL_Wheel', 'FR_Position', 'FR_Wheel'];(0.0015339808305725455, 1988.4779052734375, -0.006135923322290182, 2205.832275390625, 0.003067961661145091, 1986.65087890625, 0.0, 2210.262451171875);(0.0, 0.0, 0.0, 0.0, 0.0, 0.0, 0.0, 0.0);(0.0, 43.040000915527344, 75.31999969482422, 5.380000114440918, -18.829999923706055, 0.0, 2.690000057220459, 0.0)
2024/05/03/13:07:03.225852;143348;1714766823;250417905;;['BL_Position', 'BL_Wheel', 'BR_Position', 'BR_Wheel', 'FL_Position', 'FL_Wheel', 'FR_Position', 'FR_Wheel'];(0.0015339808305725455, 1988.4779052734375, -0.006135923322290182, 2205.833740234375, 0.003067961661145091, 1986.65087890625, 0.0, 2210.2607421875);(0.0, 0.0, 0.0, 0.0, 0.0, 0.0, 0.0, 0.0);(0.0, 43.040000915527344, 72.6300048828125, 5.380000114440918, -18.829999923706055, 0.0, 2.690000057220459, 0.0)
2024/05/03/13:07:03.242279;143349;1714766823;266464404;;['BL_Position', 'BL_Wheel', 'BR_Position', 'BR_Wheel', 'FL_Position', 'FL_Wheel', 'FR_Position', 'FR_Wheel'];(0.0015339808305725455, 1988.4779052734375, -0.006135923322290182, 2205.832275390625, 0.003067961661145091, 1986.65087890625, 0.0, 2210.262451171875);(0.0, 0.0, 0.0, 0.0, 0.0, 0.0, 0.0, 0.0);(0.0, 43.040000915527344, 72.6300048828125, 5.380000114440918, -18.829999923706055, 0.0, 2.690000057220459, 0.0)
2024/05/03/13:07:03.270945;143350;1714766823;289110570;;['BL_Position', 'BL_Wheel', 'BR_Position', 'BR_Wheel', 'FL_Position', 'FL_Wheel', 'FR_Position', 'FR_Wheel'];(0.0015339808305725455, 1988.4779052734375, -0.006135923322290182, 2205.833740234375, 0.0015339808305725455, 1986.65087890625, 0.0, 2210.2607421875);(0.0, 0.0, 0.0, 0.0, 0.0, 0.0, 0.0, 0.0);(0.0, 43.040000915527344, 69.94000244140625, 5.380000114440918, -18.829999923706055, 0.0, 2.690000057220459, 0.0)
2024/05/03/13:07:03.275833;143351;1714766823;298364255;;['BL_Position', 'BL_Wheel', 'BR_Position', 'BR_Wheel', 'FL_Position', 'FL_Wheel', 'FR_Position', 'FR_Wheel'];(0.0015339808305725455, 1988.4779052734375, -0.006135923322290182, 2205.833740234375, 0.003067961661145091, 1986.65087890625, 0.0, 2210.2607421875);(0.0, 0.0, 0.0, 0.0, 0.0, 0.0, 0.0, 0.0);(0.0, 43.040000915527344, 72.6300048828125, 5.380000114440918, -18.829999923706055, 0.0, 2.690000057220459, 0.0)
2024/05/03/13:07:03.296018;143352;1714766823;317980587;;['BL_Position', 'BL_Wheel', 'BR_Position', 'BR_Wheel', 'FL_Position', 'FL_Wheel', 'FR_Position', 'FR_Wheel'];(0.0015339808305725455, 1988.4779052734375, -0.006135923322290182, 2205.833740234375, 0.003067961661145091, 1986.65087890625, 0.0, 2210.2607421875);(0.0, 0.0, 0.0, 0.0, 0.0, 0.0, 0.0, 0.0);(0.0, 43.040000915527344, 75.31999969482422, 5.380000114440918, -18.829999923706055, 0.0, 2.690000057220459, 0.0)
2024/05/03/13:07:03.306150;143353;1714766823;330370124;;['BL_Position', 'BL_Wheel', 'BR_Position', 'BR_Wheel', 'FL_Position', 'FL_Wheel', 'FR_Position', 'FR_Wheel'];(0.0015339808305725455, 1988.4779052734375, -0.006135923322290182, 2205.832275390625, 0.003067961661145091, 1986.65087890625, 0.0, 2210.2607421875);(0.0, 0.0, 0.0, 0.0, 0.0, 0.0, 0.0, 0.0);(0.0, 43.040000915527344, 69.94000244140625, 5.380000114440918, -18.829999923706055, 0.0, 2.690000057220459, 0.0)
2024/05/03/13:07:03.321423;143354;1714766823;346399123;;['BL_Position', 'BL_Wheel', 'BR_Position', 'BR_Wheel', 'FL_Position', 'FL_Wheel', 'FR_Position', 'FR_Wheel'];(0.0015339808305725455, 1988.4779052734375, -0.006135923322290182, 2205.833740234375, 0.003067961661145091, 1986.6494140625, 0.0, 2210.2607421875);(0.0, 0.0, 0.0, 0.0, 0.0, 0.0, 0.0, 0.0);(0.0, 43.040000915527344, 75.31999969482422, 5.380000114440918, -18.829999923706055, 0.0, 2.690000057220459, 0.0)
2024/05/03/13:07:03.337542;143355;1714766823;362372290;;['BL_Position', 'BL_Wheel', 'BR_Position', 'BR_Wheel', 'FL_Position', 'FL_Wheel', 'FR_Position', 'FR_Wheel'];(0.0015339808305725455, 1988.4779052734375, -0.006135923322290182, 2205.833740234375, 0.003067961661145091, 1986.65087890625, 0.0, 2210.2607421875);(0.0, 0.0, 0.0, 0.0, 0.0, 0.0, 0.0, 0.0);(0.0, 43.040000915527344, 78.01000213623047, 5.380000114440918, -18.829999923706055, 0.0, 2.690000057220459, 0.0)
2024/05/03/13:07:03.353997;143356;1714766823;378453641;;['BL_Position', 'BL_Wheel', 'BR_Position', 'BR_Wheel', 'FL_Position', 'FL_Wheel', 'FR_Position', 'FR_Wheel'];(0.0, 1988.4779052734375, -0.006135923322290182, 2205.833740234375, 0.003067961661145091, 1986.65087890625, 0.0, 2210.2607421875);(0.0, 0.0, 0.0, 0.0, 0.0, 0.0, 0.0, 0.0);(0.0, 43.040000915527344, 75.31999969482422, 5.380000114440918, -16.139999389648438, 0.0, 2.690000057220459, 0.0)
2024/05/03/13:07:03.372566;143357;1714766823;394555381;;['BL_Position', 'BL_Wheel', 'BR_Position', 'BR_Wheel', 'FL_Position', 'FL_Wheel', 'FR_Position', 'FR_Wheel'];(0.0015339808305725455, 1988.4793701171875, -0.004601942375302315, 2205.832275390625, 0.003067961661145091, 1986.65087890625, 0.0, 2210.2607421875);(0.0, 0.0, 0.0, 0.0, 0.0, 0.0, 0.0, 0.0);(0.0, 43.040000915527344, 72.6300048828125, 5.380000114440918, -18.829999923706055, 0.0, 2.690000057220459, 0.0)
2024/05/03/13:07:03.384802;143358;1714766823;410403936;;['BL_Position', 'BL_Wheel', 'BR_Position', 'BR_Wheel', 'FL_Position', 'FL_Wheel', 'FR_Position', 'FR_Wheel'];(0.0015339808305725455, 1988.4779052734375, -0.006135923322290182, 2205.833740234375, 0.003067961661145091, 1986.65087890625, 0.0, 2210.2607421875);(0.0, 0.0, 0.0, 0.0, 0.0, 0.0, 0.0, 0.0);(0.0, 43.040000915527344, 75.31999969482422, 5.380000114440918, -18.829999923706055, 0.0, 2.690000057220459, 0.0)
2024/05/03/13:07:03.409539;143359;1714766823;426354343;;['BL_Position', 'BL_Wheel', 'BR_Position', 'BR_Wheel', 'FL_Position', 'FL_Wheel', 'FR_Position', 'FR_Wheel'];(0.0015339808305725455, 1988.4779052734375, -0.006135923322290182, 2205.833740234375, 0.003067961661145091, 1986.6494140625, 0.0, 2210.262451171875);(0.0, 0.0, 0.0, 0.0, 0.0, 0.0, 0.0, 0.0);(0.0, 43.040000915527344, 75.31999969482422, 5.380000114440918, -18.829999923706055, 0.0, 2.690000057220459, 0.0)
2024/05/03/13:07:03.418698;143360;1714766823;442401361;;['BL_Position', 'BL_Wheel', 'BR_Position', 'BR_Wheel', 'FL_Position', 'FL_Wheel', 'FR_Position', 'FR_Wheel'];(0.0, 1988.4779052734375, -0.006135923322290182, 2205.833740234375, 0.003067961661145091, 1986.65087890625, 0.0, 2210.2607421875);(0.0, 0.0, 0.0, 0.0, 0.0, 0.0, 0.0, 0.0);(0.0, 43.040000915527344, 69.94000244140625, 5.380000114440918, -21.520000457763672, 0.0, 2.690000057220459, 0.0)
2024/05/03/13:07:03.433643;143361;1714766823;458378082;;['BL_Position', 'BL_Wheel', 'BR_Position', 'BR_Wheel', 'FL_Position', 'FL_Wheel', 'FR_Position', 'FR_Wheel'];(0.0015339808305725455, 1988.4779052734375, -0.006135923322290182, 2205.833740234375, 0.003067961661145091, 1986.65087890625, 0.0, 2210.2607421875);(0.0, 0.0, 0.0, 0.0, 0.0, 0.0, 0.0, 0.0);(0.0, 43.040000915527344, 75.31999969482422, 5.380000114440918, -21.520000457763672, 0.0, 2.690000057220459, 0.0)
2024/05/03/13:07:03.449924;143362;1714766823;474352137;;['BL_Position', 'BL_Wheel', 'BR_Position', 'BR_Wheel', 'FL_Position', 'FL_Wheel', 'FR_Position', 'FR_Wheel'];(0.0015339808305725455, 1988.4779052734375, -0.006135923322290182, 2205.833740234375, 0.003067961661145091, 1986.65087890625, 0.0, 2210.2607421875);(0.0, 0.0, 0.0, 0.0, 0.0, 0.0, 0.0, 0.0);(0.0, 43.040000915527344, 75.31999969482422, 5.380000114440918, -18.829999923706055, 0.0, 2.690000057220459, 0.0)
2024/05/03/13:07:03.475014;143363;1714766823;490466674;;['BL_Position', 'BL_Wheel', 'BR_Position', 'BR_Wheel', 'FL_Position', 'FL_Wheel', 'FR_Position', 'FR_Wheel'];(0.0015339808305725455, 1988.4779052734375, -0.006135923322290182, 2205.832275390625, 0.003067961661145091, 1986.65087890625, 0.0, 2210.2607421875);(0.0, 0.0, 0.0, 0.0, 0.0, 0.0, 0.0, 0.0);(0.0, 43.040000915527344, 75.31999969482422, 5.380000114440918, -18.829999923706055, 0.0, 2.690000057220459, 0.0)
2024/05/03/13:07:03.480447;143364;1714766823;506576321;;['BL_Position', 'BL_Wheel', 'BR_Position', 'BR_Wheel', 'FL_Position', 'FL_Wheel', 'FR_Position', 'FR_Wheel'];(0.0015339808305725455, 1988.4779052734375, -0.006135923322290182, 2205.833740234375, 0.003067961661145091, 1986.65087890625, 0.0, 2210.2607421875);(0.0, 0.0, 0.0, 0.0, 0.0, 0.0, 0.0, 0.0);(0.0, 43.040000915527344, 78.01000213623047, 5.380000114440918, -18.829999923706055, 0.0, 2.690000057220459, 0.0)
2024/05/03/13:07:03.500449;143365;1714766823;522415839;;['BL_Position', 'BL_Wheel', 'BR_Position', 'BR_Wheel', 'FL_Position', 'FL_Wheel', 'FR_Position', 'FR_Wheel'];(0.0015339808305725455, 1988.4779052734375, -0.006135923322290182, 2205.833740234375, 0.003067961661145091, 1986.6494140625, 0.0, 2210.2607421875);(0.0, 0.0, 0.0, 0.0, 0.0, 0.0, 0.0, 0.0);(0.0, 43.040000915527344, 72.6300048828125, 5.380000114440918, -18.829999923706055, 0.0, 2.690000057220459, 0.0)
2024/05/03/13:07:03.513521;143366;1714766823;538419987;;['BL_Position', 'BL_Wheel', 'BR_Position', 'BR_Wheel', 'FL_Position', 'FL_Wheel', 'FR_Position', 'FR_Wheel'];(0.0015339808305725455, 1988.4779052734375, -0.006135923322290182, 2205.832275390625, 0.003067961661145091, 1986.65087890625, 0.0, 2210.2607421875);(0.0, 0.0, 0.0, 0.0, 0.0, 0.0, 0.0, 0.0);(0.0, 43.040000915527344, 72.6300048828125, 5.380000114440918, -18.829999923706055, 0.0, 2.690000057220459, 0.0)
2024/05/03/13:07:03.529751;143367;1714766823;554362172;;['BL_Position', 'BL_Wheel', 'BR_Position', 'BR_Wheel', 'FL_Position', 'FL_Wheel', 'FR_Position', 'FR_Wheel'];(0.0015339808305725455, 1988.4779052734375, -0.006135923322290182, 2205.833740234375, 0.003067961661145091, 1986.65087890625, 0.0, 2210.2607421875);(0.0, 0.0, 0.0, 0.0, 0.0, 0.0, 0.0, 0.0);(0.0, 43.040000915527344, 72.6300048828125, 5.380000114440918, -18.829999923706055, 0.0, 2.690000057220459, 0.0)
2024/05/03/13:07:03.545598;143368;1714766823;570459041;;['BL_Position', 'BL_Wheel', 'BR_Position', 'BR_Wheel', 'FL_Position', 'FL_Wheel', 'FR_Position', 'FR_Wheel'];(0.0015339808305725455, 1988.4779052734375, -0.006135923322290182, 2205.833740234375, 0.003067961661145091, 1986.65087890625, 0.0, 2210.2607421875);(0.0, 0.0, 0.0, 0.0, 0.0, 0.0, 0.0, 0.0);(0.0, 43.040000915527344, 72.6300048828125, 5.380000114440918, -18.829999923706055, 0.0, 2.690000057220459, 0.0)
2024/05/03/13:07:03.561846;143369;1714766823;586461504;;['BL_Position', 'BL_Wheel', 'BR_Position', 'BR_Wheel', 'FL_Position', 'FL_Wheel', 'FR_Position', 'FR_Wheel'];(0.0015339808305725455, 1988.4779052734375, -0.006135923322290182, 2205.832275390625, 0.003067961661145091, 1986.6494140625, 0.0, 2210.2607421875);(0.0, 0.0, 0.0, 0.0, 0.0, 0.0, 0.0, 0.0);(0.0, 43.040000915527344, 69.94000244140625, 5.380000114440918, -18.829999923706055, 0.0, 2.690000057220459, 0.0)
2024/05/03/13:07:03.581388;143370;1714766823;602400392;;['BL_Position', 'BL_Wheel', 'BR_Position', 'BR_Wheel', 'FL_Position', 'FL_Wheel', 'FR_Position', 'FR_Wheel'];(0.0015339808305725455, 1988.4779052734375, -0.006135923322290182, 2205.832275390625, 0.003067961661145091, 1986.65087890625, 0.0, 2210.2607421875);(0.0, 0.0, 0.0, 0.0, 0.0, 0.0, 0.0, 0.0);(0.0, 43.040000915527344, 78.01000213623047, 5.380000114440918, -18.829999923706055, 0.0, 2.690000057220459, 0.0)
2024/05/03/13:07:03.606018;143371;1714766823;618437743;;['BL_Position', 'BL_Wheel', 'BR_Position', 'BR_Wheel', 'FL_Position', 'FL_Wheel', 'FR_Position', 'FR_Wheel'];(0.0, 1988.4779052734375, -0.006135923322290182, 2205.832275390625, 0.003067961661145091, 1986.65087890625, 0.0, 2210.2607421875);(0.0, 0.0, 0.0, 0.0, 0.0, 0.0, 0.0, 0.0);(0.0, 43.040000915527344, 75.31999969482422, 5.380000114440918, -18.829999923706055, 0.0, 2.690000057220459, 0.0)
2024/05/03/13:07:03.610906;143372;1714766823;634531669;;['BL_Position', 'BL_Wheel', 'BR_Position', 'BR_Wheel', 'FL_Position', 'FL_Wheel', 'FR_Position', 'FR_Wheel'];(0.0015339808305725455, 1988.4779052734375, -0.004601942375302315, 2205.832275390625, 0.003067961661145091, 1986.65087890625, 0.0, 2210.2607421875);(0.0, 0.0, 0.0, 0.0, 0.0, 0.0, 0.0, 0.0);(0.0, 43.040000915527344, 75.31999969482422, 5.380000114440918, -18.829999923706055, 0.0, 2.690000057220459, 0.0)
2024/05/03/13:07:03.625521;143373;1714766823;650461983;;['BL_Position', 'BL_Wheel', 'BR_Position', 'BR_Wheel', 'FL_Position', 'FL_Wheel', 'FR_Position', 'FR_Wheel'];(0.0015339808305725455, 1988.4779052734375, -0.006135923322290182, 2205.833740234375, 0.003067961661145091, 1986.65087890625, 0.0, 2210.2607421875);(0.0, 0.0, 0.0, 0.0, 0.0, 0.0, 0.0, 0.0);(0.0, 43.040000915527344, 75.31999969482422, 5.380000114440918, -18.829999923706055, 0.0, 2.690000057220459, 0.0)
2024/05/03/13:07:03.641238;143374;1714766823;666369501;;['BL_Position', 'BL_Wheel', 'BR_Position', 'BR_Wheel', 'FL_Position', 'FL_Wheel', 'FR_Position', 'FR_Wheel'];(0.0, 1988.4779052734375, -0.006135923322290182, 2205.832275390625, 0.003067961661145091, 1986.65087890625, 0.0, 2210.262451171875);(0.0, 0.0, 0.0, 0.0, 0.0, 0.0, 0.0, 0.0);(0.0, 43.040000915527344, 78.01000213623047, 5.380000114440918, -18.829999923706055, 0.0, 2.690000057220459, 0.0)
2024/05/03/13:07:03.657256;143375;1714766823;682413667;;['BL_Position', 'BL_Wheel', 'BR_Position', 'BR_Wheel', 'FL_Position', 'FL_Wheel', 'FR_Position', 'FR_Wheel'];(0.0, 1988.4779052734375, -0.006135923322290182, 2205.833740234375, 0.003067961661145091, 1986.65087890625, 0.0, 2210.2607421875);(0.0, 0.0, 0.0, 0.0, 0.0, 0.0, 0.0, 0.0);(0.0, 43.040000915527344, 75.31999969482422, 5.380000114440918, -18.829999923706055, 0.0, 2.690000057220459, 0.0)
2024/05/03/13:07:03.679929;143376;1714766823;698419333;;['BL_Position', 'BL_Wheel', 'BR_Position', 'BR_Wheel', 'FL_Position', 'FL_Wheel', 'FR_Position', 'FR_Wheel'];(0.0015339808305725455, 1988.4779052734375, -0.006135923322290182, 2205.832275390625, 0.003067961661145091, 1986.65087890625, 0.0, 2210.2607421875);(0.0, 0.0, 0.0, 0.0, 0.0, 0.0, 0.0, 0.0);(0.0, 43.040000915527344, 75.31999969482422, 5.380000114440918, -18.829999923706055, 0.0, 2.690000057220459, 0.0)
2024/05/03/13:07:03.689306;143377;1714766823;714438258;;['BL_Position', 'BL_Wheel', 'BR_Position', 'BR_Wheel', 'FL_Position', 'FL_Wheel', 'FR_Position', 'FR_Wheel'];(0.0015339808305725455, 1988.4779052734375, -0.006135923322290182, 2205.832275390625, 0.003067961661145091, 1986.65087890625, 0.0, 2210.2607421875);(0.0, 0.0, 0.0, 0.0, 0.0, 0.0, 0.0, 0.0);(0.0, 43.040000915527344, 72.6300048828125, 5.380000114440918, -18.829999923706055, 0.0, 2.690000057220459, 0.0)
2024/05/03/13:07:03.708848;143378;1714766823;732040795;;['BL_Position', 'BL_Wheel', 'BR_Position', 'BR_Wheel', 'FL_Position', 'FL_Wheel', 'FR_Position', 'FR_Wheel'];(0.0015339808305725455, 1988.4779052734375, -0.006135923322290182, 2205.833740234375, 0.003067961661145091, 1986.65087890625, 0.0, 2210.2607421875);(0.0, 0.0, 0.0, 0.0, 0.0, 0.0, 0.0, 0.0);(0.0, 43.040000915527344, 75.31999969482422, 5.380000114440918, -18.829999923706055, 0.0, 2.690000057220459, 0.0)
2024/05/03/13:07:03.721299;143379;1714766823;746408183;;['BL_Position', 'BL_Wheel', 'BR_Position', 'BR_Wheel', 'FL_Position', 'FL_Wheel', 'FR_Position', 'FR_Wheel'];(0.0, 1988.4779052734375, -0.006135923322290182, 2205.832275390625, 0.003067961661145091, 1986.6494140625, 0.0, 2210.262451171875);(0.0, 0.0, 0.0, 0.0, 0.0, 0.0, 0.0, 0.0);(0.0, 43.040000915527344, 72.6300048828125, 5.380000114440918, -18.829999923706055, 0.0, 2.690000057220459, 0.0)
2024/05/03/13:07:03.737413;143380;1714766823;762383923;;['BL_Position', 'BL_Wheel', 'BR_Position', 'BR_Wheel', 'FL_Position', 'FL_Wheel', 'FR_Position', 'FR_Wheel'];(0.0015339808305725455, 1988.4779052734375, -0.006135923322290182, 2205.833740234375, 0.003067961661145091, 1986.65087890625, 0.0, 2210.2607421875);(0.0, 0.0, 0.0, 0.0, 0.0, 0.0, 0.0, 0.0);(0.0, 43.040000915527344, 75.31999969482422, 5.380000114440918, -18.829999923706055, 0.0, 2.690000057220459, 0.0)
2024/05/03/13:07:03.753538;143381;1714766823;778384515;;['BL_Position', 'BL_Wheel', 'BR_Position', 'BR_Wheel', 'FL_Position', 'FL_Wheel', 'FR_Position', 'FR_Wheel'];(0.0015339808305725455, 1988.4779052734375, -0.006135923322290182, 2205.832275390625, 0.003067961661145091, 1986.65087890625, 0.0, 2210.262451171875);(0.0, 0.0, 0.0, 0.0, 0.0, 0.0, 0.0, 0.0);(0.0, 43.040000915527344, 75.31999969482422, 5.380000114440918, -16.139999389648438, 0.0, 2.690000057220459, 0.0)
2024/05/03/13:07:03.782030;143382;1714766823;794364774;;['BL_Position', 'BL_Wheel', 'BR_Position', 'BR_Wheel', 'FL_Position', 'FL_Wheel', 'FR_Position', 'FR_Wheel'];(0.0015339808305725455, 1988.4779052734375, -0.006135923322290182, 2205.833740234375, 0.003067961661145091, 1986.65087890625, 0.0, 2210.262451171875);(0.0, 0.0, 0.0, 0.0, 0.0, 0.0, 0.0, 0.0);(0.0, 43.040000915527344, 75.31999969482422, 5.380000114440918, -18.829999923706055, 0.0, 2.690000057220459, 0.0)
2024/05/03/13:07:03.787509;143383;1714766823;810427829;;['BL_Position', 'BL_Wheel', 'BR_Position', 'BR_Wheel', 'FL_Position', 'FL_Wheel', 'FR_Position', 'FR_Wheel'];(0.0015339808305725455, 1988.4779052734375, -0.006135923322290182, 2205.833740234375, 0.003067961661145091, 1986.65087890625, 0.0, 2210.262451171875);(0.0, 0.0, 0.0, 0.0, 0.0, 0.0, 0.0, 0.0);(0.0, 43.040000915527344, 78.01000213623047, 5.380000114440918, -18.829999923706055, 0.0, 2.690000057220459, 0.0)
2024/05/03/13:07:03.801785;143384;1714766823;826369643;;['BL_Position', 'BL_Wheel', 'BR_Position', 'BR_Wheel', 'FL_Position', 'FL_Wheel', 'FR_Position', 'FR_Wheel'];(0.0, 1988.4779052734375, -0.006135923322290182, 2205.833740234375, 0.003067961661145091, 1986.65087890625, 0.0, 2210.2607421875);(0.0, 0.0, 0.0, 0.0, 0.0, 0.0, 0.0, 0.0);(0.0, 43.040000915527344, 78.01000213623047, 5.380000114440918, -18.829999923706055, 0.0, 2.690000057220459, 0.0)
2024/05/03/13:07:03.821144;143385;1714766823;842391902;;['BL_Position', 'BL_Wheel', 'BR_Position', 'BR_Wheel', 'FL_Position', 'FL_Wheel', 'FR_Position', 'FR_Wheel'];(0.0015339808305725455, 1988.4779052734375, -0.006135923322290182, 2205.833740234375, 0.003067961661145091, 1986.65087890625, 0.0, 2210.2607421875);(0.0, 0.0, 0.0, 0.0, 0.0, 0.0, 0.0, 0.0);(0.0, 43.040000915527344, 67.25, 5.380000114440918, -18.829999923706055, 0.0, 2.690000057220459, 0.0)
2024/05/03/13:07:03.833166;143386;1714766823;858354846;;['BL_Position', 'BL_Wheel', 'BR_Position', 'BR_Wheel', 'FL_Position', 'FL_Wheel', 'FR_Position', 'FR_Wheel'];(0.0015339808305725455, 1988.4779052734375, -0.006135923322290182, 2205.832275390625, 0.003067961661145091, 1986.65087890625, 0.0, 2210.2607421875);(0.0, 0.0, 0.0, 0.0, 0.0, 0.0, 0.0, 0.0);(0.0, 43.040000915527344, 72.6300048828125, 5.380000114440918, -18.829999923706055, 0.0, 2.690000057220459, 0.0)
2024/05/03/13:07:03.849436;143387;1714766823;874351586;;['BL_Position', 'BL_Wheel', 'BR_Position', 'BR_Wheel', 'FL_Position', 'FL_Wheel', 'FR_Position', 'FR_Wheel'];(0.0, 1988.4779052734375, -0.006135923322290182, 2205.833740234375, 0.003067961661145091, 1986.65087890625, 0.0, 2210.2607421875);(0.0, 0.0, 0.0, 0.0, 0.0, 0.0, 0.0, 0.0);(0.0, 43.040000915527344, 75.31999969482422, 5.380000114440918, -18.829999923706055, 0.0, 2.690000057220459, 0.0)
2024/05/03/13:07:03.865432;143388;1714766823;890438141;;['BL_Position', 'BL_Wheel', 'BR_Position', 'BR_Wheel', 'FL_Position', 'FL_Wheel', 'FR_Position', 'FR_Wheel'];(0.0015339808305725455, 1988.4779052734375, -0.006135923322290182, 2205.833740234375, 0.003067961661145091, 1986.65087890625, 0.0, 2210.2607421875);(0.0, 0.0, 0.0, 0.0, 0.0, 0.0, 0.0, 0.0);(0.0, 43.040000915527344, 72.6300048828125, 5.380000114440918, -18.829999923706055, 0.0, 2.690000057220459, 0.0)
2024/05/03/13:07:03.884677;143389;1714766823;906631048;;['BL_Position', 'BL_Wheel', 'BR_Position', 'BR_Wheel', 'FL_Position', 'FL_Wheel', 'FR_Position', 'FR_Wheel'];(0.0015339808305725455, 1988.4779052734375, -0.006135923322290182, 2205.833740234375, 0.003067961661145091, 1986.65087890625, 0.0, 2210.2607421875);(0.0, 0.0, 0.0, 0.0, 0.0, 0.0, 0.0, 0.0);(0.0, 43.040000915527344, 78.01000213623047, 5.380000114440918, -18.829999923706055, 0.0, 2.690000057220459, 0.0)
2024/05/03/13:07:03.897890;143390;1714766823;922392029;;['BL_Position', 'BL_Wheel', 'BR_Position', 'BR_Wheel', 'FL_Position', 'FL_Wheel', 'FR_Position', 'FR_Wheel'];(0.0015339808305725455, 1988.4779052734375, -0.006135923322290182, 2205.833740234375, 0.003067961661145091, 1986.65087890625, 0.0, 2210.262451171875);(0.0, 0.0, 0.0, 0.0, 0.0, 0.0, 0.0, 0.0);(0.0, 43.040000915527344, 75.31999969482422, 5.380000114440918, -16.139999389648438, 0.0, 2.690000057220459, 0.0)
2024/05/03/13:07:03.914091;143391;1714766823;938353343;;['BL_Position', 'BL_Wheel', 'BR_Position', 'BR_Wheel', 'FL_Position', 'FL_Wheel', 'FR_Position', 'FR_Wheel'];(0.0015339808305725455, 1988.4779052734375, -0.006135923322290182, 2205.833740234375, 0.003067961661145091, 1986.65087890625, 0.0, 2210.2607421875);(0.0, 0.0, 0.0, 0.0, 0.0, 0.0, 0.0, 0.0);(0.0, 43.040000915527344, 75.31999969482422, 5.380000114440918, -18.829999923706055, 0.0, 2.690000057220459, 0.0)
2024/05/03/13:07:03.930852;143392;1714766823;954382268;;['BL_Position', 'BL_Wheel', 'BR_Position', 'BR_Wheel', 'FL_Position', 'FL_Wheel', 'FR_Position', 'FR_Wheel'];(0.0015339808305725455, 1988.4779052734375, -0.006135923322290182, 2205.832275390625, 0.003067961661145091, 1986.65087890625, 0.0, 2210.2607421875);(0.0, 0.0, 0.0, 0.0, 0.0, 0.0, 0.0, 0.0);(0.0, 43.040000915527344, 72.6300048828125, 5.380000114440918, -18.829999923706055, 0.0, 2.690000057220459, 0.0)
2024/05/03/13:07:03.945939;143393;1714766823;970438582;;['BL_Position', 'BL_Wheel', 'BR_Position', 'BR_Wheel', 'FL_Position', 'FL_Wheel', 'FR_Position', 'FR_Wheel'];(0.0015339808305725455, 1988.4779052734375, -0.006135923322290182, 2205.832275390625, 0.003067961661145091, 1986.65087890625, 0.0, 2210.2607421875);(0.0, 0.0, 0.0, 0.0, 0.0, 0.0, 0.0, 0.0);(0.0, 43.040000915527344, 72.6300048828125, 5.380000114440918, -18.829999923706055, 0.0, 2.690000057220459, 0.0)
2024/05/03/13:07:03.961532;143394;1714766823;986453471;;['BL_Position', 'BL_Wheel', 'BR_Position', 'BR_Wheel', 'FL_Position', 'FL_Wheel', 'FR_Position', 'FR_Wheel'];(0.0, 1988.4779052734375, -0.006135923322290182, 2205.833740234375, 0.003067961661145091, 1986.65087890625, 0.0, 2210.2607421875);(0.0, 0.0, 0.0, 0.0, 0.0, 0.0, 0.0, 0.0);(0.0, 43.040000915527344, 69.94000244140625, 5.380000114440918, -18.829999923706055, 0.0, 2.690000057220459, 0.0)
2024/05/03/13:07:03.986995;143395;1714766824;2418711;;['BL_Position', 'BL_Wheel', 'BR_Position', 'BR_Wheel', 'FL_Position', 'FL_Wheel', 'FR_Position', 'FR_Wheel'];(0.0, 1988.4779052734375, -0.004601942375302315, 2205.832275390625, 0.003067961661145091, 1986.6494140625, 0.0, 2210.2607421875);(0.0, 0.0, 0.0, 0.0, 0.0, 0.0, 0.0, 0.0);(0.0, 43.040000915527344, 72.6300048828125, 5.380000114440918, -18.829999923706055, 0.0, 2.690000057220459, 0.0)
2024/05/03/13:07:03.993304;143396;1714766824;18377044;;['BL_Position', 'BL_Wheel', 'BR_Position', 'BR_Wheel', 'FL_Position', 'FL_Wheel', 'FR_Position', 'FR_Wheel'];(0.0015339808305725455, 1988.4779052734375, -0.006135923322290182, 2205.833740234375, 0.003067961661145091, 1986.65087890625, 0.0, 2210.2607421875);(0.0, 0.0, 0.0, 0.0, 0.0, 0.0, 0.0, 0.0);(0.0, 43.040000915527344, 75.31999969482422, 5.380000114440918, -18.829999923706055, 0.0, 2.690000057220459, 0.0)
2024/05/03/13:07:04.013809;143397;1714766824;34406413;;['BL_Position', 'BL_Wheel', 'BR_Position', 'BR_Wheel', 'FL_Position', 'FL_Wheel', 'FR_Position', 'FR_Wheel'];(0.0015339808305725455, 1988.4779052734375, -0.006135923322290182, 2205.833740234375, 0.003067961661145091, 1986.65087890625, 0.0, 2210.262451171875);(0.0, 0.0, 0.0, 0.0, 0.0, 0.0, 0.0, 0.0);(0.0, 43.040000915527344, 75.31999969482422, 5.380000114440918, -18.829999923706055, 0.0, 2.690000057220459, 0.0)
2024/05/03/13:07:04.026234;143398;1714766824;50378691;;['BL_Position', 'BL_Wheel', 'BR_Position', 'BR_Wheel', 'FL_Position', 'FL_Wheel', 'FR_Position', 'FR_Wheel'];(0.0015339808305725455, 1988.4779052734375, -0.006135923322290182, 2205.832275390625, 0.003067961661145091, 1986.65087890625, 0.0, 2210.2607421875);(0.0, 0.0, 0.0, 0.0, 0.0, 0.0, 0.0, 0.0);(0.0, 43.040000915527344, 72.6300048828125, 5.380000114440918, -18.829999923706055, 0.0, 2.690000057220459, 0.0)
2024/05/03/13:07:04.041214;143399;1714766824;66389764;;['BL_Position', 'BL_Wheel', 'BR_Position', 'BR_Wheel', 'FL_Position', 'FL_Wheel', 'FR_Position', 'FR_Wheel'];(0.0015339808305725455, 1988.4779052734375, -0.006135923322290182, 2205.833740234375, 0.003067961661145091, 1986.65087890625, 0.0, 2210.2607421875);(0.0, 0.0, 0.0, 0.0, 0.0, 0.0, 0.0, 0.0);(0.0, 43.040000915527344, 78.01000213623047, 5.380000114440918, -18.829999923706055, 0.0, 2.690000057220459, 0.0)
2024/05/03/13:07:04.056999;143400;1714766824;82392782;;['BL_Position', 'BL_Wheel', 'BR_Position', 'BR_Wheel', 'FL_Position', 'FL_Wheel', 'FR_Position', 'FR_Wheel'];(0.0015339808305725455, 1988.4779052734375, -0.006135923322290182, 2205.832275390625, 0.003067961661145091, 1986.65087890625, 0.0, 2210.2607421875);(0.0, 0.0, 0.0, 0.0, 0.0, 0.0, 0.0, 0.0);(0.0, 43.040000915527344, 75.31999969482422, 5.380000114440918, -18.829999923706055, 0.0, 2.690000057220459, 0.0)
2024/05/03/13:07:04.073946;143401;1714766824;98416652;;['BL_Position', 'BL_Wheel', 'BR_Position', 'BR_Wheel', 'FL_Position', 'FL_Wheel', 'FR_Position', 'FR_Wheel'];(0.0015339808305725455, 1988.4779052734375, -0.006135923322290182, 2205.833740234375, 0.003067961661145091, 1986.6494140625, 0.0, 2210.2607421875);(0.0, 0.0, 0.0, 0.0, 0.0, 0.0, 0.0, 0.0);(0.0, 43.040000915527344, 75.31999969482422, 5.380000114440918, -18.829999923706055, 0.0, 2.690000057220459, 0.0)
2024/05/03/13:07:04.094338;143402;1714766824;119236984;;['BL_Position', 'BL_Wheel', 'BR_Position', 'BR_Wheel', 'FL_Position', 'FL_Wheel', 'FR_Position', 'FR_Wheel'];(0.0015339808305725455, 1988.4779052734375, -0.006135923322290182, 2205.832275390625, 0.003067961661145091, 1986.6494140625, 0.0, 2210.2607421875);(0.0, 0.0, 0.0, 0.0, 0.0, 0.0, 0.0, 0.0);(0.0, 43.040000915527344, 75.31999969482422, 5.380000114440918, -18.829999923706055, 0.0, 2.690000057220459, 0.0)
2024/05/03/13:07:04.117103;143403;1714766824;130446910;;['BL_Position', 'BL_Wheel', 'BR_Position', 'BR_Wheel', 'FL_Position', 'FL_Wheel', 'FR_Position', 'FR_Wheel'];(0.0, 1988.4779052734375, -0.006135923322290182, 2205.832275390625, 0.003067961661145091, 1986.65087890625, 0.0, 2210.2607421875);(0.0, 0.0, 0.0, 0.0, 0.0, 0.0, 0.0, 0.0);(0.0, 43.040000915527344, 75.31999969482422, 5.380000114440918, -18.829999923706055, 0.0, 2.690000057220459, 0.0)
2024/05/03/13:07:04.128022;143404;1714766824;146518854;;['BL_Position', 'BL_Wheel', 'BR_Position', 'BR_Wheel', 'FL_Position', 'FL_Wheel', 'FR_Position', 'FR_Wheel'];(0.0015339808305725455, 1988.4779052734375, -0.004601942375302315, 2205.833740234375, 0.003067961661145091, 1986.6494140625, 0.0, 2210.262451171875);(0.0, 0.0, 0.0, 0.0, 0.0, 0.0, 0.0, 0.0);(0.0, 43.040000915527344, 72.6300048828125, 5.380000114440918, -18.829999923706055, 0.0, 2.690000057220459, 0.0)
2024/05/03/13:07:04.135863;143405;1714766824;162384742;;['BL_Position', 'BL_Wheel', 'BR_Position', 'BR_Wheel', 'FL_Position', 'FL_Wheel', 'FR_Position', 'FR_Wheel'];(0.0015339808305725455, 1988.4779052734375, -0.006135923322290182, 2205.833740234375, 0.003067961661145091, 1986.65087890625, 0.0, 2210.2607421875);(0.0, 0.0, 0.0, 0.0, 0.0, 0.0, 0.0, 0.0);(0.0, 43.040000915527344, 75.31999969482422, 5.380000114440918, -18.829999923706055, 0.0, 2.690000057220459, 0.0)
2024/05/03/13:07:04.153405;143406;1714766824;178364112;;['BL_Position', 'BL_Wheel', 'BR_Position', 'BR_Wheel', 'FL_Position', 'FL_Wheel', 'FR_Position', 'FR_Wheel'];(0.0, 1988.4779052734375, -0.006135923322290182, 2205.833740234375, 0.003067961661145091, 1986.65087890625, 0.0, 2210.2607421875);(0.0, 0.0, 0.0, 0.0, 0.0, 0.0, 0.0, 0.0);(0.0, 43.040000915527344, 78.01000213623047, 5.380000114440918, -18.829999923706055, 0.0, 2.690000057220459, 0.0)
2024/05/03/13:07:04.169590;143407;1714766824;194360167;;['BL_Position', 'BL_Wheel', 'BR_Position', 'BR_Wheel', 'FL_Position', 'FL_Wheel', 'FR_Position', 'FR_Wheel'];(0.0015339808305725455, 1988.4779052734375, -0.006135923322290182, 2205.832275390625, 0.003067961661145091, 1986.65087890625, 0.0, 2210.2607421875);(0.0, 0.0, 0.0, 0.0, 0.0, 0.0, 0.0, 0.0);(0.0, 43.040000915527344, 72.6300048828125, 5.380000114440918, -18.829999923706055, 0.0, 2.690000057220459, 0.0)
2024/05/03/13:07:04.192105;143408;1714766824;210503611;;['BL_Position', 'BL_Wheel', 'BR_Position', 'BR_Wheel', 'FL_Position', 'FL_Wheel', 'FR_Position', 'FR_Wheel'];(0.0, 1988.4779052734375, -0.006135923322290182, 2205.832275390625, 0.003067961661145091, 1986.65087890625, 0.0, 2210.262451171875);(0.0, 0.0, 0.0, 0.0, 0.0, 0.0, 0.0, 0.0);(0.0, 43.040000915527344, 78.01000213623047, 5.380000114440918, -18.829999923706055, 0.0, 2.690000057220459, 0.0)
2024/05/03/13:07:04.202722;143409;1714766824;227332332;;['BL_Position', 'BL_Wheel', 'BR_Position', 'BR_Wheel', 'FL_Position', 'FL_Wheel', 'FR_Position', 'FR_Wheel'];(0.0015339808305725455, 1988.4779052734375, -0.006135923322290182, 2205.832275390625, 0.003067961661145091, 1986.65087890625, 0.0, 2210.2607421875);(0.0, 0.0, 0.0, 0.0, 0.0, 0.0, 0.0, 0.0);(0.0, 43.040000915527344, 72.6300048828125, 5.380000114440918, -18.829999923706055, 0.0, 2.690000057220459, 0.0)
2024/05/03/13:07:04.220622;143410;1714766824;242398813;;['BL_Position', 'BL_Wheel', 'BR_Position', 'BR_Wheel', 'FL_Position', 'FL_Wheel', 'FR_Position', 'FR_Wheel'];(0.0015339808305725455, 1988.4779052734375, -0.006135923322290182, 2205.832275390625, 0.003067961661145091, 1986.65087890625, 0.0, 2210.2607421875);(0.0, 0.0, 0.0, 0.0, 0.0, 0.0, 0.0, 0.0);(0.0, 43.040000915527344, 75.31999969482422, 5.380000114440918, -18.829999923706055, 0.0, 2.690000057220459, 0.0)
2024/05/03/13:07:04.234188;143411;1714766824;258466905;;['BL_Position', 'BL_Wheel', 'BR_Position', 'BR_Wheel', 'FL_Position', 'FL_Wheel', 'FR_Position', 'FR_Wheel'];(0.0015339808305725455, 1988.4779052734375, -0.006135923322290182, 2205.833740234375, 0.003067961661145091, 1986.65087890625, 0.0, 2210.262451171875);(0.0, 0.0, 0.0, 0.0, 0.0, 0.0, 0.0, 0.0);(0.0, 43.040000915527344, 69.94000244140625, 5.380000114440918, -18.829999923706055, 0.0, 2.690000057220459, 0.0)
2024/05/03/13:07:04.249321;143412;1714766824;274365534;;['BL_Position', 'BL_Wheel', 'BR_Position', 'BR_Wheel', 'FL_Position', 'FL_Wheel', 'FR_Position', 'FR_Wheel'];(0.0015339808305725455, 1988.4779052734375, -0.006135923322290182, 2205.833740234375, 0.003067961661145091, 1986.65087890625, 0.0, 2210.262451171875);(0.0, 0.0, 0.0, 0.0, 0.0, 0.0, 0.0, 0.0);(0.0, 43.040000915527344, 72.6300048828125, 5.380000114440918, -18.829999923706055, 0.0, 2.690000057220459, 0.0)
2024/05/03/13:07:04.265406;143413;1714766824;290416886;;['BL_Position', 'BL_Wheel', 'BR_Position', 'BR_Wheel', 'FL_Position', 'FL_Wheel', 'FR_Position', 'FR_Wheel'];(0.0015339808305725455, 1988.4779052734375, -0.006135923322290182, 2205.832275390625, 0.003067961661145091, 1986.65087890625, 0.0, 2210.262451171875);(0.0, 0.0, 0.0, 0.0, 0.0, 0.0, 0.0, 0.0);(0.0, 43.040000915527344, 75.31999969482422, 5.380000114440918, -18.829999923706055, 0.0, 2.690000057220459, 0.0)
2024/05/03/13:07:04.295072;143414;1714766824;306378422;;['BL_Position', 'BL_Wheel', 'BR_Position', 'BR_Wheel', 'FL_Position', 'FL_Wheel', 'FR_Position', 'FR_Wheel'];(0.0015339808305725455, 1988.4779052734375, -0.006135923322290182, 2205.832275390625, 0.003067961661145091, 1986.6494140625, 0.0, 2210.2607421875);(0.0, 0.0, 0.0, 0.0, 0.0, 0.0, 0.0, 0.0);(0.0, 43.040000915527344, 75.31999969482422, 5.380000114440918, -18.829999923706055, 0.0, 2.690000057220459, 0.0)
2024/05/03/13:07:04.301530;143415;1714766824;322360570;;['BL_Position', 'BL_Wheel', 'BR_Position', 'BR_Wheel', 'FL_Position', 'FL_Wheel', 'FR_Position', 'FR_Wheel'];(0.0015339808305725455, 1988.4779052734375, -0.006135923322290182, 2205.832275390625, 0.003067961661145091, 1986.65087890625, 0.0, 2210.2607421875);(0.0, 0.0, 0.0, 0.0, 0.0, 0.0, 0.0, 0.0);(0.0, 43.040000915527344, 78.01000213623047, 5.380000114440918, -18.829999923706055, 0.0, 2.690000057220459, 0.0)
2024/05/03/13:07:04.321095;143416;1714766824;338375180;;['BL_Position', 'BL_Wheel', 'BR_Position', 'BR_Wheel', 'FL_Position', 'FL_Wheel', 'FR_Position', 'FR_Wheel'];(0.0, 1988.4779052734375, -0.006135923322290182, 2205.833740234375, 0.003067961661145091, 1986.65087890625, 0.0, 2210.2607421875);(0.0, 0.0, 0.0, 0.0, 0.0, 0.0, 0.0, 0.0);(0.0, 43.040000915527344, 75.31999969482422, 5.380000114440918, -18.829999923706055, 0.0, 2.690000057220459, 0.0)
2024/05/03/13:07:04.330607;143417;1714766824;354439291;;['BL_Position', 'BL_Wheel', 'BR_Position', 'BR_Wheel', 'FL_Position', 'FL_Wheel', 'FR_Position', 'FR_Wheel'];(0.0015339808305725455, 1988.4779052734375, -0.006135923322290182, 2205.833740234375, 0.003067961661145091, 1986.65087890625, 0.0, 2210.2607421875);(0.0, 0.0, 0.0, 0.0, 0.0, 0.0, 0.0, 0.0);(0.0, 43.040000915527344, 75.31999969482422, 5.380000114440918, -18.829999923706055, 0.0, 2.690000057220459, 0.0)
2024/05/03/13:07:04.345785;143418;1714766824;370399272;;['BL_Position', 'BL_Wheel', 'BR_Position', 'BR_Wheel', 'FL_Position', 'FL_Wheel', 'FR_Position', 'FR_Wheel'];(0.0015339808305725455, 1988.4779052734375, -0.006135923322290182, 2205.832275390625, 0.003067961661145091, 1986.65087890625, 0.0, 2210.2607421875);(0.0, 0.0, 0.0, 0.0, 0.0, 0.0, 0.0, 0.0);(0.0, 43.040000915527344, 78.01000213623047, 5.380000114440918, -18.829999923706055, 0.0, 2.690000057220459, 0.0)
2024/05/03/13:07:04.361216;143419;1714766824;386473586;;['BL_Position', 'BL_Wheel', 'BR_Position', 'BR_Wheel', 'FL_Position', 'FL_Wheel', 'FR_Position', 'FR_Wheel'];(0.0015339808305725455, 1988.4779052734375, -0.006135923322290182, 2205.832275390625, 0.003067961661145091, 1986.65087890625, 0.0, 2210.2607421875);(0.0, 0.0, 0.0, 0.0, 0.0, 0.0, 0.0, 0.0);(0.0, 43.040000915527344, 72.6300048828125, 5.380000114440918, -18.829999923706055, 0.0, 2.690000057220459, 0.0)
2024/05/03/13:07:04.377111;143420;1714766824;402390234;;['BL_Position', 'BL_Wheel', 'BR_Position', 'BR_Wheel', 'FL_Position', 'FL_Wheel', 'FR_Position', 'FR_Wheel'];(0.0015339808305725455, 1988.4779052734375, -0.006135923322290182, 2205.832275390625, 0.003067961661145091, 1986.65087890625, 0.0, 2210.2607421875);(0.0, 0.0, 0.0, 0.0, 0.0, 0.0, 0.0, 0.0);(0.0, 43.040000915527344, 75.31999969482422, 5.380000114440918, -18.829999923706055, 0.0, 2.690000057220459, 0.0)
2024/05/03/13:07:04.394037;143421;1714766824;418807974;;['BL_Position', 'BL_Wheel', 'BR_Position', 'BR_Wheel', 'FL_Position', 'FL_Wheel', 'FR_Position', 'FR_Wheel'];(0.0015339808305725455, 1988.4779052734375, -0.006135923322290182, 2205.832275390625, 0.003067961661145091, 1986.65087890625, 0.0, 2210.262451171875);(0.0, 0.0, 0.0, 0.0, 0.0, 0.0, 0.0, 0.0);(0.0, 43.040000915527344, 75.31999969482422, 5.380000114440918, -18.829999923706055, 0.0, 2.690000057220459, 0.0)
2024/05/03/13:07:04.409117;143422;1714766824;434364769;;['BL_Position', 'BL_Wheel', 'BR_Position', 'BR_Wheel', 'FL_Position', 'FL_Wheel', 'FR_Position', 'FR_Wheel'];(0.0015339808305725455, 1988.4779052734375, -0.006135923322290182, 2205.833740234375, 0.003067961661145091, 1986.6494140625, 0.0, 2210.2607421875);(0.0, 0.0, 0.0, 0.0, 0.0, 0.0, 0.0, 0.0);(0.0, 43.040000915527344, 69.94000244140625, 5.380000114440918, -18.829999923706055, 0.0, 2.690000057220459, 0.0)
2024/05/03/13:07:04.427516;143423;1714766824;450415936;;['BL_Position', 'BL_Wheel', 'BR_Position', 'BR_Wheel', 'FL_Position', 'FL_Wheel', 'FR_Position', 'FR_Wheel'];(0.0015339808305725455, 1988.4779052734375, -0.006135923322290182, 2205.833740234375, 0.003067961661145091, 1986.65087890625, 0.0, 2210.2607421875);(0.0, 0.0, 0.0, 0.0, 0.0, 0.0, 0.0, 0.0);(0.0, 43.040000915527344, 75.31999969482422, 5.380000114440918, -18.829999923706055, 0.0, 2.690000057220459, 0.0)
2024/05/03/13:07:04.443404;143424;1714766824;466397676;;['BL_Position', 'BL_Wheel', 'BR_Position', 'BR_Wheel', 'FL_Position', 'FL_Wheel', 'FR_Position', 'FR_Wheel'];(0.0015339808305725455, 1988.4779052734375, -0.006135923322290182, 2205.833740234375, 0.003067961661145091, 1986.65087890625, 0.0, 2210.2607421875);(0.0, 0.0, 0.0, 0.0, 0.0, 0.0, 0.0, 0.0);(0.0, 43.040000915527344, 75.31999969482422, 5.380000114440918, -18.829999923706055, 0.0, 2.690000057220459, 0.0)
2024/05/03/13:07:04.458827;143425;1714766824;482972712;;['BL_Position', 'BL_Wheel', 'BR_Position', 'BR_Wheel', 'FL_Position', 'FL_Wheel', 'FR_Position', 'FR_Wheel'];(0.0015339808305725455, 1988.4779052734375, -0.004601942375302315, 2205.833740234375, 0.003067961661145091, 1986.6494140625, 0.0, 2210.2607421875);(0.0, 0.0, 0.0, 0.0, 0.0, 0.0, 0.0, 0.0);(0.0, 43.040000915527344, 72.6300048828125, 5.380000114440918, -18.829999923706055, 0.0, 2.690000057220459, 0.0)
2024/05/03/13:07:04.472795;143426;1714766824;498354545;;['BL_Position', 'BL_Wheel', 'BR_Position', 'BR_Wheel', 'FL_Position', 'FL_Wheel', 'FR_Position', 'FR_Wheel'];(0.0015339808305725455, 1988.4779052734375, -0.006135923322290182, 2205.832275390625, 0.003067961661145091, 1986.65087890625, 0.0, 2210.262451171875);(0.0, 0.0, 0.0, 0.0, 0.0, 0.0, 0.0, 0.0);(0.0, 43.040000915527344, 75.31999969482422, 5.380000114440918, -18.829999923706055, 0.0, 2.690000057220459, 0.0)
2024/05/03/13:07:04.499216;143427;1714766824;514450507;;['BL_Position', 'BL_Wheel', 'BR_Position', 'BR_Wheel', 'FL_Position', 'FL_Wheel', 'FR_Position', 'FR_Wheel'];(0.0015339808305725455, 1988.4779052734375, -0.006135923322290182, 2205.832275390625, 0.003067961661145091, 1986.65087890625, 0.0, 2210.2607421875);(0.0, 0.0, 0.0, 0.0, 0.0, 0.0, 0.0, 0.0);(0.0, 43.040000915527344, 69.94000244140625, 5.380000114440918, -18.829999923706055, 0.0, 2.690000057220459, 0.0)
2024/05/03/13:07:04.505871;143428;1714766824;530935173;;['BL_Position', 'BL_Wheel', 'BR_Position', 'BR_Wheel', 'FL_Position', 'FL_Wheel', 'FR_Position', 'FR_Wheel'];(0.0015339808305725455, 1988.4779052734375, -0.006135923322290182, 2205.832275390625, 0.003067961661145091, 1986.65087890625, 0.0, 2210.2607421875);(0.0, 0.0, 0.0, 0.0, 0.0, 0.0, 0.0, 0.0);(0.0, 43.040000915527344, 72.6300048828125, 5.380000114440918, -18.829999923706055, 0.0, 2.690000057220459, 0.0)
2024/05/03/13:07:04.526226;143429;1714766824;546323043;;['BL_Position', 'BL_Wheel', 'BR_Position', 'BR_Wheel', 'FL_Position', 'FL_Wheel', 'FR_Position', 'FR_Wheel'];(0.0, 1988.4779052734375, -0.006135923322290182, 2205.833740234375, 0.003067961661145091, 1986.65087890625, 0.0, 2210.2607421875);(0.0, 0.0, 0.0, 0.0, 0.0, 0.0, 0.0, 0.0);(0.0, 43.040000915527344, 75.31999969482422, 5.380000114440918, -18.829999923706055, 0.0, 2.690000057220459, 0.0)
2024/05/03/13:07:04.537446;143430;1714766824;562525950;;['BL_Position', 'BL_Wheel', 'BR_Position', 'BR_Wheel', 'FL_Position', 'FL_Wheel', 'FR_Position', 'FR_Wheel'];(0.0015339808305725455, 1988.4779052734375, -0.006135923322290182, 2205.832275390625, 0.003067961661145091, 1986.65087890625, 0.0, 2210.2607421875);(0.0, 0.0, 0.0, 0.0, 0.0, 0.0, 0.0, 0.0);(0.0, 43.040000915527344, 72.6300048828125, 5.380000114440918, -18.829999923706055, 0.0, 2.690000057220459, 0.0)
2024/05/03/13:07:04.552965;143431;1714766824;578381412;;['BL_Position', 'BL_Wheel', 'BR_Position', 'BR_Wheel', 'FL_Position', 'FL_Wheel', 'FR_Position', 'FR_Wheel'];(0.0015339808305725455, 1988.4779052734375, -0.006135923322290182, 2205.832275390625, 0.003067961661145091, 1986.6494140625, 0.0, 2210.262451171875);(0.0, 0.0, 0.0, 0.0, 0.0, 0.0, 0.0, 0.0);(0.0, 43.040000915527344, 75.31999969482422, 5.380000114440918, -21.520000457763672, 0.0, 2.690000057220459, 0.0)
2024/05/03/13:07:04.569302;143432;1714766824;594388560;;['BL_Position', 'BL_Wheel', 'BR_Position', 'BR_Wheel', 'FL_Position', 'FL_Wheel', 'FR_Position', 'FR_Wheel'];(0.0015339808305725455, 1988.4779052734375, -0.006135923322290182, 2205.832275390625, 0.003067961661145091, 1986.65087890625, 0.0, 2210.2607421875);(0.0, 0.0, 0.0, 0.0, 0.0, 0.0, 0.0, 0.0);(0.0, 43.040000915527344, 72.6300048828125, 5.380000114440918, -18.829999923706055, 0.0, 2.690000057220459, 0.0)
2024/05/03/13:07:04.585443;143433;1714766824;610329263;;['BL_Position', 'BL_Wheel', 'BR_Position', 'BR_Wheel', 'FL_Position', 'FL_Wheel', 'FR_Position', 'FR_Wheel'];(0.0, 1988.4779052734375, -0.006135923322290182, 2205.833740234375, 0.003067961661145091, 1986.65087890625, 0.0, 2210.262451171875);(0.0, 0.0, 0.0, 0.0, 0.0, 0.0, 0.0, 0.0);(0.0, 43.040000915527344, 75.31999969482422, 5.380000114440918, -18.829999923706055, 0.0, 2.690000057220459, 0.0)
2024/05/03/13:07:04.601226;143434;1714766824;626393244;;['BL_Position', 'BL_Wheel', 'BR_Position', 'BR_Wheel', 'FL_Position', 'FL_Wheel', 'FR_Position', 'FR_Wheel'];(0.0015339808305725455, 1988.4779052734375, -0.006135923322290182, 2205.833740234375, 0.003067961661145091, 1986.65087890625, 0.0, 2210.2607421875);(0.0, 0.0, 0.0, 0.0, 0.0, 0.0, 0.0, 0.0);(0.0, 43.040000915527344, 75.31999969482422, 5.380000114440918, -18.829999923706055, 0.0, 2.690000057220459, 0.0)
2024/05/03/13:07:04.625669;143435;1714766824;642399132;;['BL_Position', 'BL_Wheel', 'BR_Position', 'BR_Wheel', 'FL_Position', 'FL_Wheel', 'FR_Position', 'FR_Wheel'];(0.0015339808305725455, 1988.4779052734375, -0.004601942375302315, 2205.832275390625, 0.0015339808305725455, 1986.65087890625, 0.0, 2210.2607421875);(0.0, 0.0, 0.0, 0.0, 0.0, 0.0, 0.0, 0.0);(0.0, 43.040000915527344, 78.01000213623047, 5.380000114440918, -18.829999923706055, 0.0, 2.690000057220459, 0.0)
2024/05/03/13:07:04.633732;143436;1714766824;658372595;;['BL_Position', 'BL_Wheel', 'BR_Position', 'BR_Wheel', 'FL_Position', 'FL_Wheel', 'FR_Position', 'FR_Wheel'];(0.0015339808305725455, 1988.4779052734375, -0.006135923322290182, 2205.832275390625, 0.003067961661145091, 1986.65087890625, 0.0, 2210.2607421875);(0.0, 0.0, 0.0, 0.0, 0.0, 0.0, 0.0, 0.0);(0.0, 43.040000915527344, 69.94000244140625, 5.380000114440918, -18.829999923706055, 0.0, 2.690000057220459, 0.0)
2024/05/03/13:07:04.649425;143437;1714766824;674378835;;['BL_Position', 'BL_Wheel', 'BR_Position', 'BR_Wheel', 'FL_Position', 'FL_Wheel', 'FR_Position', 'FR_Wheel'];(0.0015339808305725455, 1988.4779052734375, -0.006135923322290182, 2205.832275390625, 0.003067961661145091, 1986.6494140625, 0.0, 2210.262451171875);(0.0, 0.0, 0.0, 0.0, 0.0, 0.0, 0.0, 0.0);(0.0, 43.040000915527344, 75.31999969482422, 5.380000114440918, -18.829999923706055, 0.0, 2.690000057220459, 0.0)
2024/05/03/13:07:04.665318;143438;1714766824;690314538;;['BL_Position', 'BL_Wheel', 'BR_Position', 'BR_Wheel', 'FL_Position', 'FL_Wheel', 'FR_Position', 'FR_Wheel'];(0.0015339808305725455, 1988.4779052734375, -0.006135923322290182, 2205.832275390625, 0.003067961661145091, 1986.65087890625, 0.0, 2210.2607421875);(0.0, 0.0, 0.0, 0.0, 0.0, 0.0, 0.0, 0.0);(0.0, 43.040000915527344, 78.01000213623047, 5.380000114440918, -18.829999923706055, 0.0, 2.690000057220459, 0.0)
2024/05/03/13:07:04.681328;143439;1714766824;706334167;;['BL_Position', 'BL_Wheel', 'BR_Position', 'BR_Wheel', 'FL_Position', 'FL_Wheel', 'FR_Position', 'FR_Wheel'];(0.0, 1988.4779052734375, -0.006135923322290182, 2205.832275390625, 0.003067961661145091, 1986.6494140625, 0.0, 2210.2607421875);(0.0, 0.0, 0.0, 0.0, 0.0, 0.0, 0.0, 0.0);(0.0, 43.040000915527344, 69.94000244140625, 5.380000114440918, -18.829999923706055, 0.0, 2.690000057220459, 0.0)
2024/05/03/13:07:04.706636;143440;1714766824;722318241;;['BL_Position', 'BL_Wheel', 'BR_Position', 'BR_Wheel', 'FL_Position', 'FL_Wheel', 'FR_Position', 'FR_Wheel'];(0.0015339808305725455, 1988.4779052734375, -0.006135923322290182, 2205.832275390625, 0.003067961661145091, 1986.65087890625, 0.0, 2210.2607421875);(0.0, 0.0, 0.0, 0.0, 0.0, 0.0, 0.0, 0.0);(0.0, 43.040000915527344, 72.6300048828125, 5.380000114440918, -18.829999923706055, 0.0, 2.690000057220459, 0.0)
2024/05/03/13:07:04.712351;143441;1714766824;738324536;;['BL_Position', 'BL_Wheel', 'BR_Position', 'BR_Wheel', 'FL_Position', 'FL_Wheel', 'FR_Position', 'FR_Wheel'];(0.0015339808305725455, 1988.4779052734375, -0.006135923322290182, 2205.832275390625, 0.003067961661145091, 1986.65087890625, 0.0, 2210.2607421875);(0.0, 0.0, 0.0, 0.0, 0.0, 0.0, 0.0, 0.0);(0.0, 43.040000915527344, 75.31999969482422, 5.380000114440918, -18.829999923706055, 0.0, 2.690000057220459, 0.0)
2024/05/03/13:07:04.731663;143442;1714766824;754334925;;['BL_Position', 'BL_Wheel', 'BR_Position', 'BR_Wheel', 'FL_Position', 'FL_Wheel', 'FR_Position', 'FR_Wheel'];(0.0015339808305725455, 1988.4779052734375, -0.006135923322290182, 2205.833740234375, 0.003067961661145091, 1986.65087890625, 0.0, 2210.2607421875);(0.0, 0.0, 0.0, 0.0, 0.0, 0.0, 0.0, 0.0);(0.0, 43.040000915527344, 75.31999969482422, 5.380000114440918, -18.829999923706055, 0.0, 2.690000057220459, 0.0)
2024/05/03/13:07:04.745758;143443;1714766824;770372091;;['BL_Position', 'BL_Wheel', 'BR_Position', 'BR_Wheel', 'FL_Position', 'FL_Wheel', 'FR_Position', 'FR_Wheel'];(0.0015339808305725455, 1988.4779052734375, -0.006135923322290182, 2205.832275390625, 0.0015339808305725455, 1986.65087890625, 0.0, 2210.2607421875);(0.0, 0.0, 0.0, 0.0, 0.0, 0.0, 0.0, 0.0);(0.0, 43.040000915527344, 72.6300048828125, 5.380000114440918, -18.829999923706055, 0.0, 2.690000057220459, 0.0)
2024/05/03/13:07:04.761455;143444;1714766824;786393349;;['BL_Position', 'BL_Wheel', 'BR_Position', 'BR_Wheel', 'FL_Position', 'FL_Wheel', 'FR_Position', 'FR_Wheel'];(0.0015339808305725455, 1988.4779052734375, -0.004601942375302315, 2205.832275390625, 0.003067961661145091, 1986.65087890625, 0.0, 2210.2607421875);(0.0, 0.0, 0.0, 0.0, 0.0, 0.0, 0.0, 0.0);(0.0, 43.040000915527344, 78.01000213623047, 5.380000114440918, -18.829999923706055, 0.0, 2.690000057220459, 0.0)
2024/05/03/13:07:04.778911;143445;1714766824;802748812;;['BL_Position', 'BL_Wheel', 'BR_Position', 'BR_Wheel', 'FL_Position', 'FL_Wheel', 'FR_Position', 'FR_Wheel'];(0.0015339808305725455, 1988.4779052734375, -0.006135923322290182, 2205.833740234375, 0.003067961661145091, 1986.65087890625, 0.0, 2210.2607421875);(0.0, 0.0, 0.0, 0.0, 0.0, 0.0, 0.0, 0.0);(0.0, 43.040000915527344, 75.31999969482422, 5.380000114440918, -18.829999923706055, 0.0, 2.690000057220459, 0.0)
2024/05/03/13:07:04.807115;143446;1714766824;818572496;;['BL_Position', 'BL_Wheel', 'BR_Position', 'BR_Wheel', 'FL_Position', 'FL_Wheel', 'FR_Position', 'FR_Wheel'];(0.0015339808305725455, 1988.4779052734375, -0.006135923322290182, 2205.833740234375, 0.003067961661145091, 1986.65087890625, 0.0, 2210.262451171875);(0.0, 0.0, 0.0, 0.0, 0.0, 0.0, 0.0, 0.0);(0.0, 43.040000915527344, 78.01000213623047, 5.380000114440918, -18.829999923706055, 0.0, 2.690000057220459, 0.0)
2024/05/03/13:07:04.812768;143447;1714766824;834354144;;['BL_Position', 'BL_Wheel', 'BR_Position', 'BR_Wheel', 'FL_Position', 'FL_Wheel', 'FR_Position', 'FR_Wheel'];(0.0015339808305725455, 1988.4779052734375, -0.006135923322290182, 2205.833740234375, 0.003067961661145091, 1986.6494140625, 0.0, 2210.262451171875);(0.0, 0.0, 0.0, 0.0, 0.0, 0.0, 0.0, 0.0);(0.0, 43.040000915527344, 75.31999969482422, 5.380000114440918, -18.829999923706055, 0.0, 2.690000057220459, 0.0)
2024/05/03/13:07:04.833631;143448;1714766824;850359421;;['BL_Position', 'BL_Wheel', 'BR_Position', 'BR_Wheel', 'FL_Position', 'FL_Wheel', 'FR_Position', 'FR_Wheel'];(0.0015339808305725455, 1988.4779052734375, -0.006135923322290182, 2205.832275390625, 0.003067961661145091, 1986.65087890625, 0.0, 2210.2607421875);(0.0, 0.0, 0.0, 0.0, 0.0, 0.0, 0.0, 0.0);(0.0, 43.040000915527344, 69.94000244140625, 5.380000114440918, -18.829999923706055, 0.0, 2.690000057220459, 0.0)
2024/05/03/13:07:04.842582;143449;1714766824;866350828;;['BL_Position', 'BL_Wheel', 'BR_Position', 'BR_Wheel', 'FL_Position', 'FL_Wheel', 'FR_Position', 'FR_Wheel'];(0.0015339808305725455, 1988.4779052734375, -0.006135923322290182, 2205.832275390625, 0.003067961661145091, 1986.6494140625, 0.0, 2210.2607421875);(0.0, 0.0, 0.0, 0.0, 0.0, 0.0, 0.0, 0.0);(0.0, 43.040000915527344, 72.6300048828125, 5.380000114440918, -18.829999923706055, 0.0, 2.690000057220459, 0.0)
