time;.header.seq;.header.stamp.secs;.header.stamp.nsecs;.header.frame_id;.name;.position;.velocity;.effort
2024/05/03/12:34:34.842768;21568;1714764874;842624333;;['BL_Position', 'BL_Wheel', 'BR_Position', 'BR_Wheel', 'FL_Position', 'FL_Wheel', 'FR_Position', 'FR_Wheel'];(0.0, -0.10584467649459839, 0.0076699042692780495, -2.801048994064331, 0.003067961661145091, -2.3071072101593018, -0.0015339808305725455, 1.9266799688339233);(0.0, 0.0, 0.0, 0.0, 0.0, 0.0, 0.0, 0.0);(10.760000228881836, 0.0, -80.70000457763672, 5.380000114440918, -21.520000457763672, -5.380000114440918, 5.380000114440918, 0.0)
2024/05/03/12:34:34.858771;21569;1714764874;858651544;;['BL_Position', 'BL_Wheel', 'BR_Position', 'BR_Wheel', 'FL_Position', 'FL_Wheel', 'FR_Position', 'FR_Wheel'];(-0.0015339808305725455, -0.10584467649459839, 0.0076699042692780495, -2.801048994064331, 0.003067961661145091, -2.3071072101593018, 0.0, 1.9266799688339233);(0.0, 0.0, 0.0, 0.0, 0.0, 0.0, 0.0, 0.0);(10.760000228881836, 0.0, -80.70000457763672, 5.380000114440918, -21.520000457763672, -5.380000114440918, 2.690000057220459, 0.0)
2024/05/03/12:34:34.884511;21570;1714764874;874618773;;['BL_Position', 'BL_Wheel', 'BR_Position', 'BR_Wheel', 'FL_Position', 'FL_Wheel', 'FR_Position', 'FR_Wheel'];(-0.0015339808305725455, -0.10584467649459839, 0.0076699042692780495, -2.801048994064331, 0.003067961661145091, -2.3071072101593018, -0.0015339808305725455, 1.9266799688339233);(0.0, 0.0, 0.0, 0.0, 0.0, 0.0, 0.0, 0.0);(10.760000228881836, 0.0, -80.70000457763672, 5.380000114440918, -21.520000457763672, -5.380000114440918, 5.380000114440918, 0.0)
2024/05/03/12:34:34.890380;21571;1714764874;890622724;;['BL_Position', 'BL_Wheel', 'BR_Position', 'BR_Wheel', 'FL_Position', 'FL_Wheel', 'FR_Position', 'FR_Wheel'];(0.0, -0.10584467649459839, 0.0076699042692780495, -2.801048994064331, 0.003067961661145091, -2.3071072101593018, 0.0, 1.9266799688339233);(0.0, 0.0, 0.0, 0.0, 0.0, 0.0, 0.0, 0.0);(13.450000762939453, 0.0, -83.38999938964844, 5.380000114440918, -21.520000457763672, -5.380000114440918, 5.380000114440918, 0.0)
2024/05/03/12:34:34.909379;21572;1714764874;906586656;;['BL_Position', 'BL_Wheel', 'BR_Position', 'BR_Wheel', 'FL_Position', 'FL_Wheel', 'FR_Position', 'FR_Wheel'];(0.0, -0.10584467649459839, 0.0076699042692780495, -2.801048994064331, 0.003067961661145091, -2.3071072101593018, 0.0, 1.9266799688339233);(0.0, 0.0, 0.0, 0.0, 0.0, 0.0, 0.0, 0.0);(10.760000228881836, 0.0, -83.38999938964844, 5.380000114440918, -21.520000457763672, -5.380000114440918, 8.069999694824219, 0.0)
2024/05/03/12:34:34.922974;21573;1714764874;923030867;;['BL_Position', 'BL_Wheel', 'BR_Position', 'BR_Wheel', 'FL_Position', 'FL_Wheel', 'FR_Position', 'FR_Wheel'];(-0.0015339808305725455, -0.10584467649459839, 0.0076699042692780495, -2.801048994064331, 0.003067961661145091, -2.3071072101593018, 0.0, 1.9266799688339233);(0.0, 0.0, 0.0, 0.0, 0.0, 0.0, 0.0, 0.0);(10.760000228881836, 0.0, -80.70000457763672, 5.380000114440918, -21.520000457763672, -5.380000114440918, 10.760000228881836, 0.0)
2024/05/03/12:34:34.937306;21574;1714764874;938673985;;['BL_Position', 'BL_Wheel', 'BR_Position', 'BR_Wheel', 'FL_Position', 'FL_Wheel', 'FR_Position', 'FR_Wheel'];(-0.0015339808305725455, -0.10584467649459839, 0.006135923322290182, -2.801048994064331, 0.003067961661145091, -2.3071072101593018, -0.0015339808305725455, 1.9266799688339233);(0.0, 0.0, 0.0, 0.0, 0.0, 0.0, 0.0, 0.0);(10.760000228881836, 0.0, -78.01000213623047, 5.380000114440918, -21.520000457763672, -5.380000114440918, 5.380000114440918, 0.0)
2024/05/03/12:34:34.954425;21575;1714764874;954611918;;['BL_Position', 'BL_Wheel', 'BR_Position', 'BR_Wheel', 'FL_Position', 'FL_Wheel', 'FR_Position', 'FR_Wheel'];(0.0, -0.10584467649459839, 0.0076699042692780495, -2.801048994064331, 0.003067961661145091, -2.3071072101593018, 0.0, 1.9266799688339233);(0.0, 0.0, 0.0, 0.0, 0.0, 0.0, 0.0, 0.0);(10.760000228881836, 0.0, -83.38999938964844, 5.380000114440918, -21.520000457763672, -5.380000114440918, 5.380000114440918, 0.0)
2024/05/03/12:34:34.971350;21576;1714764874;970751998;;['BL_Position', 'BL_Wheel', 'BR_Position', 'BR_Wheel', 'FL_Position', 'FL_Wheel', 'FR_Position', 'FR_Wheel'];(-0.0015339808305725455, -0.10584467649459839, 0.0076699042692780495, -2.801048994064331, 0.003067961661145091, -2.3071072101593018, 0.0, 1.9266799688339233);(0.0, 0.0, 0.0, 0.0, 0.0, 0.0, 0.0, 0.0);(10.760000228881836, 0.0, -80.70000457763672, 5.380000114440918, -21.520000457763672, -5.380000114440918, 5.380000114440918, 0.0)
2024/05/03/12:34:34.986649;21577;1714764874;986655524;;['BL_Position', 'BL_Wheel', 'BR_Position', 'BR_Wheel', 'FL_Position', 'FL_Wheel', 'FR_Position', 'FR_Wheel'];(-0.0015339808305725455, -0.10584467649459839, 0.0076699042692780495, -2.801048994064331, 0.003067961661145091, -2.3071072101593018, 0.0, 1.9266799688339233);(0.0, 0.0, 0.0, 0.0, 0.0, 0.0, 0.0, 0.0);(10.760000228881836, 0.0, -83.38999938964844, 5.380000114440918, -21.520000457763672, -5.380000114440918, 8.069999694824219, 0.0)
2024/05/03/12:34:35.001684;21578;1714764875;2620956;;['BL_Position', 'BL_Wheel', 'BR_Position', 'BR_Wheel', 'FL_Position', 'FL_Wheel', 'FR_Position', 'FR_Wheel'];(-0.0015339808305725455, -0.10584467649459839, 0.006135923322290182, -2.801048994064331, 0.003067961661145091, -2.3071072101593018, -0.0015339808305725455, 1.9266799688339233);(0.0, 0.0, 0.0, 0.0, 0.0, 0.0, 0.0, 0.0);(10.760000228881836, 0.0, -80.70000457763672, 5.380000114440918, -21.520000457763672, -5.380000114440918, 5.380000114440918, 0.0)
2024/05/03/12:34:35.023611;21579;1714764875;18621537;;['BL_Position', 'BL_Wheel', 'BR_Position', 'BR_Wheel', 'FL_Position', 'FL_Wheel', 'FR_Position', 'FR_Wheel'];(-0.0015339808305725455, -0.10584467649459839, 0.0076699042692780495, -2.801048994064331, 0.003067961661145091, -2.3071072101593018, 0.0, 1.9266799688339233);(0.0, 0.0, 0.0, 0.0, 0.0, 0.0, 0.0, 0.0);(13.450000762939453, 0.0, -83.38999938964844, 5.380000114440918, -21.520000457763672, -5.380000114440918, 8.069999694824219, 0.0)
2024/05/03/12:34:35.034258;21580;1714764875;34596748;;['BL_Position', 'BL_Wheel', 'BR_Position', 'BR_Wheel', 'FL_Position', 'FL_Wheel', 'FR_Position', 'FR_Wheel'];(0.0, -0.10584467649459839, 0.006135923322290182, -2.801048994064331, 0.003067961661145091, -2.3071072101593018, 0.0, 1.9266799688339233);(0.0, 0.0, 0.0, 0.0, 0.0, 0.0, 0.0, 0.0);(10.760000228881836, 0.0, -80.70000457763672, 5.380000114440918, -21.520000457763672, -5.380000114440918, 2.690000057220459, 0.0)
2024/05/03/12:34:35.050995;21581;1714764875;50594477;;['BL_Position', 'BL_Wheel', 'BR_Position', 'BR_Wheel', 'FL_Position', 'FL_Wheel', 'FR_Position', 'FR_Wheel'];(0.0, -0.10584467649459839, 0.0076699042692780495, -2.801048994064331, 0.003067961661145091, -2.3071072101593018, 0.0, 1.9266799688339233);(0.0, 0.0, 0.0, 0.0, 0.0, 0.0, 0.0, 0.0);(13.450000762939453, 0.0, -83.38999938964844, 5.380000114440918, -21.520000457763672, -5.380000114440918, 2.690000057220459, 0.0)
2024/05/03/12:34:35.066674;21582;1714764875;66594521;;['BL_Position', 'BL_Wheel', 'BR_Position', 'BR_Wheel', 'FL_Position', 'FL_Wheel', 'FR_Position', 'FR_Wheel'];(0.0, -0.10584467649459839, 0.0076699042692780495, -2.801048994064331, 0.003067961661145091, -2.3071072101593018, 0.0, 1.9282139539718628);(0.0, 0.0, 0.0, 0.0, 0.0, 0.0, 0.0, 0.0);(10.760000228881836, 0.0, -80.70000457763672, 5.380000114440918, -21.520000457763672, -5.380000114440918, 5.380000114440918, 0.0)
2024/05/03/12:34:35.089062;21583;1714764875;82556342;;['BL_Position', 'BL_Wheel', 'BR_Position', 'BR_Wheel', 'FL_Position', 'FL_Wheel', 'FR_Position', 'FR_Wheel'];(-0.0015339808305725455, -0.10584467649459839, 0.006135923322290182, -2.801048994064331, 0.003067961661145091, -2.3071072101593018, -0.0015339808305725455, 1.9266799688339233);(0.0, 0.0, 0.0, 0.0, 0.0, 0.0, 0.0, 0.0);(10.760000228881836, 0.0, -80.70000457763672, 5.380000114440918, -21.520000457763672, -5.380000114440918, 10.760000228881836, 0.0)
2024/05/03/12:34:35.097777;21584;1714764875;98543683;;['BL_Position', 'BL_Wheel', 'BR_Position', 'BR_Wheel', 'FL_Position', 'FL_Wheel', 'FR_Position', 'FR_Wheel'];(0.0, -0.10584467649459839, 0.0076699042692780495, -2.801048994064331, 0.003067961661145091, -2.3071072101593018, 0.0, 1.9266799688339233);(0.0, 0.0, 0.0, 0.0, 0.0, 0.0, 0.0, 0.0);(13.450000762939453, 0.0, -80.70000457763672, 5.380000114440918, -21.520000457763672, -5.380000114440918, 5.380000114440918, 0.0)
2024/05/03/12:34:35.122320;21585;1714764875;114555671;;['BL_Position', 'BL_Wheel', 'BR_Position', 'BR_Wheel', 'FL_Position', 'FL_Wheel', 'FR_Position', 'FR_Wheel'];(-0.0015339808305725455, -0.10584467649459839, 0.0076699042692780495, -2.801048994064331, 0.003067961661145091, -2.3071072101593018, 0.0, 1.9282139539718628);(0.0, 0.0, 0.0, 0.0, 0.0, 0.0, 0.0, 0.0);(10.760000228881836, 0.0, -83.38999938964844, 5.380000114440918, -21.520000457763672, -5.380000114440918, 5.380000114440918, 0.0)
2024/05/03/12:34:35.130233;21586;1714764875;130584918;;['BL_Position', 'BL_Wheel', 'BR_Position', 'BR_Wheel', 'FL_Position', 'FL_Wheel', 'FR_Position', 'FR_Wheel'];(0.0, -0.10431069880723953, 0.0076699042692780495, -2.801048994064331, 0.003067961661145091, -2.3071072101593018, -0.0015339808305725455, 1.9266799688339233);(0.0, 0.0, 0.0, 0.0, 0.0, 0.0, 0.0, 0.0);(10.760000228881836, 0.0, -83.38999938964844, 5.380000114440918, -21.520000457763672, -5.380000114440918, 5.380000114440918, 0.0)
2024/05/03/12:34:35.148187;21587;1714764875;146641203;;['BL_Position', 'BL_Wheel', 'BR_Position', 'BR_Wheel', 'FL_Position', 'FL_Wheel', 'FR_Position', 'FR_Wheel'];(-0.0015339808305725455, -0.10584467649459839, 0.0076699042692780495, -2.801048994064331, 0.003067961661145091, -2.3071072101593018, -0.0015339808305725455, 1.9266799688339233);(0.0, 0.0, 0.0, 0.0, 0.0, 0.0, 0.0, 0.0);(10.760000228881836, 0.0, -83.38999938964844, 5.380000114440918, -21.520000457763672, -5.380000114440918, 5.380000114440918, 0.0)
2024/05/03/12:34:35.162457;21588;1714764875;162593432;;['BL_Position', 'BL_Wheel', 'BR_Position', 'BR_Wheel', 'FL_Position', 'FL_Wheel', 'FR_Position', 'FR_Wheel'];(-0.0015339808305725455, -0.10584467649459839, 0.0076699042692780495, -2.801048994064331, 0.003067961661145091, -2.3071072101593018, 0.0, 1.9266799688339233);(0.0, 0.0, 0.0, 0.0, 0.0, 0.0, 0.0, 0.0);(10.760000228881836, 0.0, -80.70000457763672, 5.380000114440918, -21.520000457763672, -5.380000114440918, 5.380000114440918, 0.0)
2024/05/03/12:34:35.178453;21589;1714764875;178576883;;['BL_Position', 'BL_Wheel', 'BR_Position', 'BR_Wheel', 'FL_Position', 'FL_Wheel', 'FR_Position', 'FR_Wheel'];(-0.0015339808305725455, -0.10584467649459839, 0.0076699042692780495, -2.801048994064331, 0.003067961661145091, -2.3071072101593018, -0.0015339808305725455, 1.9266799688339233);(0.0, 0.0, 0.0, 0.0, 0.0, 0.0, 0.0, 0.0);(10.760000228881836, 0.0, -83.38999938964844, 5.380000114440918, -21.520000457763672, -5.380000114440918, 10.760000228881836, 0.0)
2024/05/03/12:34:35.194637;21590;1714764875;194595149;;['BL_Position', 'BL_Wheel', 'BR_Position', 'BR_Wheel', 'FL_Position', 'FL_Wheel', 'FR_Position', 'FR_Wheel'];(-0.0015339808305725455, -0.10584467649459839, 0.006135923322290182, -2.801048994064331, 0.003067961661145091, -2.3071072101593018, 0.0, 1.9266799688339233);(0.0, 0.0, 0.0, 0.0, 0.0, 0.0, 0.0, 0.0);(10.760000228881836, 0.0, -80.70000457763672, 5.380000114440918, -21.520000457763672, -5.380000114440918, 5.380000114440918, 0.0)
2024/05/03/12:34:35.210521;21591;1714764875;210701804;;['BL_Position', 'BL_Wheel', 'BR_Position', 'BR_Wheel', 'FL_Position', 'FL_Wheel', 'FR_Position', 'FR_Wheel'];(-0.0015339808305725455, -0.10584467649459839, 0.006135923322290182, -2.801048994064331, 0.003067961661145091, -2.3071072101593018, -0.0015339808305725455, 1.9266799688339233);(0.0, 0.0, 0.0, 0.0, 0.0, 0.0, 0.0, 0.0);(10.760000228881836, 0.0, -83.38999938964844, 5.380000114440918, -21.520000457763672, -5.380000114440918, 5.380000114440918, 0.0)
2024/05/03/12:34:35.225401;21592;1714764875;226589126;;['BL_Position', 'BL_Wheel', 'BR_Position', 'BR_Wheel', 'FL_Position', 'FL_Wheel', 'FR_Position', 'FR_Wheel'];(0.0, -0.10584467649459839, 0.0076699042692780495, -2.801048994064331, 0.003067961661145091, -2.3071072101593018, 0.0, 1.9266799688339233);(0.0, 0.0, 0.0, 0.0, 0.0, 0.0, 0.0, 0.0);(10.760000228881836, 0.0, -83.38999938964844, 5.380000114440918, -21.520000457763672, -5.380000114440918, 8.069999694824219, 0.0)
2024/05/03/12:34:35.243168;21593;1714764875;242635744;;['BL_Position', 'BL_Wheel', 'BR_Position', 'BR_Wheel', 'FL_Position', 'FL_Wheel', 'FR_Position', 'FR_Wheel'];(0.0, -0.10584467649459839, 0.0076699042692780495, -2.801048994064331, 0.003067961661145091, -2.3071072101593018, 0.0, 1.9266799688339233);(0.0, 0.0, 0.0, 0.0, 0.0, 0.0, 0.0, 0.0);(8.069999694824219, 0.0, -80.70000457763672, 5.380000114440918, -21.520000457763672, -5.380000114440918, 2.690000057220459, 0.0)
2024/05/03/12:34:35.259030;21594;1714764875;258582454;;['BL_Position', 'BL_Wheel', 'BR_Position', 'BR_Wheel', 'FL_Position', 'FL_Wheel', 'FR_Position', 'FR_Wheel'];(-0.0015339808305725455, -0.10584467649459839, 0.0076699042692780495, -2.801048994064331, 0.003067961661145091, -2.3071072101593018, 0.0, 1.9266799688339233);(0.0, 0.0, 0.0, 0.0, 0.0, 0.0, 0.0, 0.0);(8.069999694824219, 0.0, -83.38999938964844, 5.380000114440918, -21.520000457763672, -5.380000114440918, 5.380000114440918, 0.0)
2024/05/03/12:34:35.273260;21595;1714764875;274560869;;['BL_Position', 'BL_Wheel', 'BR_Position', 'BR_Wheel', 'FL_Position', 'FL_Wheel', 'FR_Position', 'FR_Wheel'];(0.0, -0.10431069880723953, 0.0076699042692780495, -2.801048994064331, 0.003067961661145091, -2.3071072101593018, 0.0, 1.9266799688339233);(0.0, 0.0, 0.0, 0.0, 0.0, 0.0, 0.0, 0.0);(10.760000228881836, 0.0, -80.70000457763672, 5.380000114440918, -18.829999923706055, -5.380000114440918, 10.760000228881836, 0.0)
2024/05/03/12:34:35.293614;21596;1714764875;290636431;;['BL_Position', 'BL_Wheel', 'BR_Position', 'BR_Wheel', 'FL_Position', 'FL_Wheel', 'FR_Position', 'FR_Wheel'];(-0.0015339808305725455, -0.10431069880723953, 0.0076699042692780495, -2.801048994064331, 0.003067961661145091, -2.3071072101593018, 0.0, 1.9266799688339233);(0.0, 0.0, 0.0, 0.0, 0.0, 0.0, 0.0, 0.0);(8.069999694824219, 0.0, -83.38999938964844, 5.380000114440918, -21.520000457763672, -5.380000114440918, 5.380000114440918, 0.0)
2024/05/03/12:34:35.308686;21597;1714764875;306585197;;['BL_Position', 'BL_Wheel', 'BR_Position', 'BR_Wheel', 'FL_Position', 'FL_Wheel', 'FR_Position', 'FR_Wheel'];(-0.0015339808305725455, -0.10584467649459839, 0.0076699042692780495, -2.801048994064331, 0.003067961661145091, -2.3071072101593018, 0.0, 1.9266799688339233);(0.0, 0.0, 0.0, 0.0, 0.0, 0.0, 0.0, 0.0);(10.760000228881836, 0.0, -83.38999938964844, 5.380000114440918, -21.520000457763672, -5.380000114440918, 5.380000114440918, 0.0)
2024/05/03/12:34:35.330276;21598;1714764875;322681704;;['BL_Position', 'BL_Wheel', 'BR_Position', 'BR_Wheel', 'FL_Position', 'FL_Wheel', 'FR_Position', 'FR_Wheel'];(-0.0015339808305725455, -0.10584467649459839, 0.0076699042692780495, -2.801048994064331, 0.003067961661145091, -2.3071072101593018, 0.0, 1.9266799688339233);(0.0, 0.0, 0.0, 0.0, 0.0, 0.0, 0.0, 0.0);(10.760000228881836, 0.0, -80.70000457763672, 5.380000114440918, -21.520000457763672, -5.380000114440918, 8.069999694824219, 0.0)
2024/05/03/12:34:35.338829;21599;1714764875;338604914;;['BL_Position', 'BL_Wheel', 'BR_Position', 'BR_Wheel', 'FL_Position', 'FL_Wheel', 'FR_Position', 'FR_Wheel'];(-0.0015339808305725455, -0.10584467649459839, 0.0076699042692780495, -2.801048994064331, 0.003067961661145091, -2.3071072101593018, 0.0, 1.9266799688339233);(0.0, 0.0, 0.0, 0.0, 0.0, 0.0, 0.0, 0.0);(10.760000228881836, 0.0, -80.70000457763672, 5.380000114440918, -21.520000457763672, -5.380000114440918, 5.380000114440918, 0.0)
2024/05/03/12:34:35.354625;21600;1714764875;354622569;;['BL_Position', 'BL_Wheel', 'BR_Position', 'BR_Wheel', 'FL_Position', 'FL_Wheel', 'FR_Position', 'FR_Wheel'];(0.0, -0.10584467649459839, 0.006135923322290182, -2.801048994064331, 0.003067961661145091, -2.3071072101593018, 0.0, 1.9266799688339233);(0.0, 0.0, 0.0, 0.0, 0.0, 0.0, 0.0, 0.0);(10.760000228881836, 0.0, -83.38999938964844, 5.380000114440918, -21.520000457763672, -5.380000114440918, 5.380000114440918, 0.0)
2024/05/03/12:34:35.371117;21601;1714764875;370629872;;['BL_Position', 'BL_Wheel', 'BR_Position', 'BR_Wheel', 'FL_Position', 'FL_Wheel', 'FR_Position', 'FR_Wheel'];(0.0, -0.10584467649459839, 0.0076699042692780495, -2.801048994064331, 0.003067961661145091, -2.3071072101593018, 0.0, 1.9266799688339233);(0.0, 0.0, 0.0, 0.0, 0.0, 0.0, 0.0, 0.0);(13.450000762939453, 0.0, -83.38999938964844, 5.380000114440918, -21.520000457763672, -5.380000114440918, 5.380000114440918, 0.0)
2024/05/03/12:34:35.396202;21602;1714764875;386801916;;['BL_Position', 'BL_Wheel', 'BR_Position', 'BR_Wheel', 'FL_Position', 'FL_Wheel', 'FR_Position', 'FR_Wheel'];(-0.0015339808305725455, -0.10584467649459839, 0.006135923322290182, -2.801048994064331, 0.003067961661145091, -2.3071072101593018, -0.0015339808305725455, 1.9266799688339233);(0.0, 0.0, 0.0, 0.0, 0.0, 0.0, 0.0, 0.0);(10.760000228881836, 0.0, -80.70000457763672, 5.380000114440918, -21.520000457763672, -5.380000114440918, 2.690000057220459, 0.0)
2024/05/03/12:34:35.402644;21603;1714764875;402596090;;['BL_Position', 'BL_Wheel', 'BR_Position', 'BR_Wheel', 'FL_Position', 'FL_Wheel', 'FR_Position', 'FR_Wheel'];(-0.0015339808305725455, -0.10584467649459839, 0.0076699042692780495, -2.801048994064331, 0.003067961661145091, -2.3071072101593018, -0.0015339808305725455, 1.9266799688339233);(0.0, 0.0, 0.0, 0.0, 0.0, 0.0, 0.0, 0.0);(10.760000228881836, 0.0, -78.01000213623047, 5.380000114440918, -21.520000457763672, -5.380000114440918, 2.690000057220459, 0.0)
2024/05/03/12:34:35.419989;21604;1714764875;418643448;;['BL_Position', 'BL_Wheel', 'BR_Position', 'BR_Wheel', 'FL_Position', 'FL_Wheel', 'FR_Position', 'FR_Wheel'];(-0.0015339808305725455, -0.10584467649459839, 0.0076699042692780495, -2.801048994064331, 0.003067961661145091, -2.3071072101593018, 0.0, 1.9266799688339233);(0.0, 0.0, 0.0, 0.0, 0.0, 0.0, 0.0, 0.0);(10.760000228881836, 0.0, -83.38999938964844, 5.380000114440918, -21.520000457763672, -5.380000114440918, 8.069999694824219, 0.0)
2024/05/03/12:34:35.434411;21605;1714764875;434645418;;['BL_Position', 'BL_Wheel', 'BR_Position', 'BR_Wheel', 'FL_Position', 'FL_Wheel', 'FR_Position', 'FR_Wheel'];(-0.0015339808305725455, -0.10584467649459839, 0.006135923322290182, -2.801048994064331, 0.003067961661145091, -2.3071072101593018, 0.0, 1.9266799688339233);(0.0, 0.0, 0.0, 0.0, 0.0, 0.0, 0.0, 0.0);(10.760000228881836, 0.0, -80.70000457763672, 5.380000114440918, -21.520000457763672, -5.380000114440918, 2.690000057220459, 0.0)
2024/05/03/12:34:35.450575;21606;1714764875;450579314;;['BL_Position', 'BL_Wheel', 'BR_Position', 'BR_Wheel', 'FL_Position', 'FL_Wheel', 'FR_Position', 'FR_Wheel'];(-0.0015339808305725455, -0.10584467649459839, 0.0076699042692780495, -2.801048994064331, 0.003067961661145091, -2.3071072101593018, -0.0015339808305725455, 1.9266799688339233);(0.0, 0.0, 0.0, 0.0, 0.0, 0.0, 0.0, 0.0);(10.760000228881836, 0.0, -83.38999938964844, 5.380000114440918, -21.520000457763672, -5.380000114440918, 8.069999694824219, 0.0)
2024/05/03/12:34:35.466479;21607;1714764875;466561746;;['BL_Position', 'BL_Wheel', 'BR_Position', 'BR_Wheel', 'FL_Position', 'FL_Wheel', 'FR_Position', 'FR_Wheel'];(0.0, -0.10584467649459839, 0.0076699042692780495, -2.801048994064331, 0.003067961661145091, -2.3071072101593018, 0.0, 1.9266799688339233);(0.0, 0.0, 0.0, 0.0, 0.0, 0.0, 0.0, 0.0);(10.760000228881836, 0.0, -80.70000457763672, 5.380000114440918, -18.829999923706055, -5.380000114440918, 2.690000057220459, 0.0)
2024/05/03/12:34:35.482671;21608;1714764875;482653179;;['BL_Position', 'BL_Wheel', 'BR_Position', 'BR_Wheel', 'FL_Position', 'FL_Wheel', 'FR_Position', 'FR_Wheel'];(-0.0015339808305725455, -0.10584467649459839, 0.0076699042692780495, -2.801048994064331, 0.003067961661145091, -2.3071072101593018, -0.0015339808305725455, 1.9266799688339233);(0.0, 0.0, 0.0, 0.0, 0.0, 0.0, 0.0, 0.0);(10.760000228881836, 0.0, -80.70000457763672, 5.380000114440918, -18.829999923706055, -5.380000114440918, 8.069999694824219, 0.0)
2024/05/03/12:34:35.498714;21609;1714764875;498574001;;['BL_Position', 'BL_Wheel', 'BR_Position', 'BR_Wheel', 'FL_Position', 'FL_Wheel', 'FR_Position', 'FR_Wheel'];(-0.0015339808305725455, -0.10584467649459839, 0.0076699042692780495, -2.801048994064331, 0.003067961661145091, -2.3071072101593018, -0.0015339808305725455, 1.9266799688339233);(0.0, 0.0, 0.0, 0.0, 0.0, 0.0, 0.0, 0.0);(13.450000762939453, 0.0, -80.70000457763672, 5.380000114440918, -21.520000457763672, -5.380000114440918, 2.690000057220459, 0.0)
2024/05/03/12:34:35.513343;21610;1714764875;514584063;;['BL_Position', 'BL_Wheel', 'BR_Position', 'BR_Wheel', 'FL_Position', 'FL_Wheel', 'FR_Position', 'FR_Wheel'];(0.0, -0.10584467649459839, 0.0076699042692780495, -2.801048994064331, 0.003067961661145091, -2.3071072101593018, 0.0, 1.9266799688339233);(0.0, 0.0, 0.0, 0.0, 0.0, 0.0, 0.0, 0.0);(10.760000228881836, 0.0, -83.38999938964844, 5.380000114440918, -21.520000457763672, -5.380000114440918, 5.380000114440918, 0.0)
2024/05/03/12:34:35.533253;21611;1714764875;530561551;;['BL_Position', 'BL_Wheel', 'BR_Position', 'BR_Wheel', 'FL_Position', 'FL_Wheel', 'FR_Position', 'FR_Wheel'];(-0.0015339808305725455, -0.10584467649459839, 0.0076699042692780495, -2.801048994064331, 0.003067961661145091, -2.3071072101593018, -0.0015339808305725455, 1.9266799688339233);(0.0, 0.0, 0.0, 0.0, 0.0, 0.0, 0.0, 0.0);(10.760000228881836, 0.0, -80.70000457763672, 5.380000114440918, -21.520000457763672, -5.380000114440918, 5.380000114440918, 0.0)
2024/05/03/12:34:35.546296;21612;1714764875;546557243;;['BL_Position', 'BL_Wheel', 'BR_Position', 'BR_Wheel', 'FL_Position', 'FL_Wheel', 'FR_Position', 'FR_Wheel'];(0.0, -0.10584467649459839, 0.0076699042692780495, -2.801048994064331, 0.003067961661145091, -2.3071072101593018, 0.0, 1.9266799688339233);(0.0, 0.0, 0.0, 0.0, 0.0, 0.0, 0.0, 0.0);(10.760000228881836, 0.0, -83.38999938964844, 5.380000114440918, -21.520000457763672, -5.380000114440918, 5.380000114440918, 0.0)
2024/05/03/12:34:35.562617;21613;1714764875;562523787;;['BL_Position', 'BL_Wheel', 'BR_Position', 'BR_Wheel', 'FL_Position', 'FL_Wheel', 'FR_Position', 'FR_Wheel'];(-0.0015339808305725455, -0.10584467649459839, 0.0076699042692780495, -2.801048994064331, 0.003067961661145091, -2.3071072101593018, -0.0015339808305725455, 1.9266799688339233);(0.0, 0.0, 0.0, 0.0, 0.0, 0.0, 0.0, 0.0);(13.450000762939453, 0.0, -83.38999938964844, 5.380000114440918, -21.520000457763672, -5.380000114440918, 5.380000114440918, 0.0)
2024/05/03/12:34:35.579040;21614;1714764875;578496739;;['BL_Position', 'BL_Wheel', 'BR_Position', 'BR_Wheel', 'FL_Position', 'FL_Wheel', 'FR_Position', 'FR_Wheel'];(0.0, -0.10584467649459839, 0.0076699042692780495, -2.801048994064331, 0.003067961661145091, -2.3071072101593018, 0.0, 1.9266799688339233);(0.0, 0.0, 0.0, 0.0, 0.0, 0.0, 0.0, 0.0);(10.760000228881836, 0.0, -80.70000457763672, 5.380000114440918, -21.520000457763672, -5.380000114440918, 5.380000114440918, 0.0)
2024/05/03/12:34:35.601546;21615;1714764875;594632486;;['BL_Position', 'BL_Wheel', 'BR_Position', 'BR_Wheel', 'FL_Position', 'FL_Wheel', 'FR_Position', 'FR_Wheel'];(0.0, -0.10584467649459839, 0.0076699042692780495, -2.801048994064331, 0.003067961661145091, -2.3071072101593018, 0.0, 1.9266799688339233);(0.0, 0.0, 0.0, 0.0, 0.0, 0.0, 0.0, 0.0);(13.450000762939453, 0.0, -80.70000457763672, 5.380000114440918, -21.520000457763672, -5.380000114440918, 5.380000114440918, 0.0)
2024/05/03/12:34:35.608710;21616;1714764875;610609715;;['BL_Position', 'BL_Wheel', 'BR_Position', 'BR_Wheel', 'FL_Position', 'FL_Wheel', 'FR_Position', 'FR_Wheel'];(-0.0015339808305725455, -0.10584467649459839, 0.0076699042692780495, -2.801048994064331, 0.003067961661145091, -2.3071072101593018, 0.0, 1.9266799688339233);(0.0, 0.0, 0.0, 0.0, 0.0, 0.0, 0.0, 0.0);(10.760000228881836, 0.0, -83.38999938964844, 5.380000114440918, -21.520000457763672, -5.380000114440918, 8.069999694824219, 0.0)
2024/05/03/12:34:35.633801;21617;1714764875;626591129;;['BL_Position', 'BL_Wheel', 'BR_Position', 'BR_Wheel', 'FL_Position', 'FL_Wheel', 'FR_Position', 'FR_Wheel'];(-0.0015339808305725455, -0.10584467649459839, 0.0076699042692780495, -2.801048994064331, 0.003067961661145091, -2.3071072101593018, 0.0, 1.9266799688339233);(0.0, 0.0, 0.0, 0.0, 0.0, 0.0, 0.0, 0.0);(8.069999694824219, 0.0, -83.38999938964844, 5.380000114440918, -21.520000457763672, -5.380000114440918, 5.380000114440918, 0.0)
2024/05/03/12:34:35.642844;21618;1714764875;642655006;;['BL_Position', 'BL_Wheel', 'BR_Position', 'BR_Wheel', 'FL_Position', 'FL_Wheel', 'FR_Position', 'FR_Wheel'];(-0.0015339808305725455, -0.10584467649459839, 0.0076699042692780495, -2.801048994064331, 0.003067961661145091, -2.3071072101593018, 0.0, 1.9266799688339233);(0.0, 0.0, 0.0, 0.0, 0.0, 0.0, 0.0, 0.0);(5.380000114440918, 0.0, -83.38999938964844, 5.380000114440918, -21.520000457763672, -5.380000114440918, 5.380000114440918, 0.0)
2024/05/03/12:34:35.656869;21619;1714764875;658606736;;['BL_Position', 'BL_Wheel', 'BR_Position', 'BR_Wheel', 'FL_Position', 'FL_Wheel', 'FR_Position', 'FR_Wheel'];(-0.0015339808305725455, -0.10584467649459839, 0.0076699042692780495, -2.801048994064331, 0.003067961661145091, -2.3071072101593018, 0.0, 1.9266799688339233);(0.0, 0.0, 0.0, 0.0, 0.0, 0.0, 0.0, 0.0);(8.069999694824219, 0.0, -80.70000457763672, 5.380000114440918, -21.520000457763672, -5.380000114440918, 10.760000228881836, 0.0)
2024/05/03/12:34:35.673204;21620;1714764875;674610779;;['BL_Position', 'BL_Wheel', 'BR_Position', 'BR_Wheel', 'FL_Position', 'FL_Wheel', 'FR_Position', 'FR_Wheel'];(-0.0015339808305725455, -0.10584467649459839, 0.0076699042692780495, -2.801048994064331, 0.003067961661145091, -2.3071072101593018, -0.0015339808305725455, 1.9266799688339233);(0.0, 0.0, 0.0, 0.0, 0.0, 0.0, 0.0, 0.0);(10.760000228881836, 0.0, -83.38999938964844, 5.380000114440918, -21.520000457763672, -5.380000114440918, 10.760000228881836, 0.0)
2024/05/03/12:34:35.691158;21621;1714764875;690608675;;['BL_Position', 'BL_Wheel', 'BR_Position', 'BR_Wheel', 'FL_Position', 'FL_Wheel', 'FR_Position', 'FR_Wheel'];(0.0, -0.10584467649459839, 0.0076699042692780495, -2.801048994064331, 0.003067961661145091, -2.3071072101593018, 0.0, 1.9266799688339233);(0.0, 0.0, 0.0, 0.0, 0.0, 0.0, 0.0, 0.0);(10.760000228881836, 0.0, -80.70000457763672, 5.380000114440918, -21.520000457763672, -5.380000114440918, 5.380000114440918, 0.0)
2024/05/03/12:34:35.706443;21622;1714764875;706558441;;['BL_Position', 'BL_Wheel', 'BR_Position', 'BR_Wheel', 'FL_Position', 'FL_Wheel', 'FR_Position', 'FR_Wheel'];(-0.0015339808305725455, -0.10584467649459839, 0.0076699042692780495, -2.801048994064331, 0.003067961661145091, -2.3071072101593018, 0.0, 1.9266799688339233);(0.0, 0.0, 0.0, 0.0, 0.0, 0.0, 0.0, 0.0);(10.760000228881836, 0.0, -83.38999938964844, 5.380000114440918, -21.520000457763672, -5.380000114440918, 5.380000114440918, 0.0)
2024/05/03/12:34:35.736066;21623;1714764875;722625004;;['BL_Position', 'BL_Wheel', 'BR_Position', 'BR_Wheel', 'FL_Position', 'FL_Wheel', 'FR_Position', 'FR_Wheel'];(0.0, -0.10584467649459839, 0.0076699042692780495, -2.801048994064331, 0.003067961661145091, -2.3071072101593018, -0.0015339808305725455, 1.9266799688339233);(0.0, 0.0, 0.0, 0.0, 0.0, 0.0, 0.0, 0.0);(10.760000228881836, 0.0, -78.01000213623047, 5.380000114440918, -21.520000457763672, -5.380000114440918, 5.380000114440918, 0.0)
2024/05/03/12:34:35.740835;21624;1714764875;738565121;;['BL_Position', 'BL_Wheel', 'BR_Position', 'BR_Wheel', 'FL_Position', 'FL_Wheel', 'FR_Position', 'FR_Wheel'];(0.0, -0.10584467649459839, 0.0076699042692780495, -2.801048994064331, 0.003067961661145091, -2.3071072101593018, 0.0, 1.9282139539718628);(0.0, 0.0, 0.0, 0.0, 0.0, 0.0, 0.0, 0.0);(10.760000228881836, 0.0, -80.70000457763672, 5.380000114440918, -21.520000457763672, -5.380000114440918, 5.380000114440918, 0.0)
2024/05/03/12:34:35.755198;21625;1714764875;754596610;;['BL_Position', 'BL_Wheel', 'BR_Position', 'BR_Wheel', 'FL_Position', 'FL_Wheel', 'FR_Position', 'FR_Wheel'];(-0.0015339808305725455, -0.10584467649459839, 0.0076699042692780495, -2.801048994064331, 0.003067961661145091, -2.3071072101593018, 0.0, 1.9266799688339233);(0.0, 0.0, 0.0, 0.0, 0.0, 0.0, 0.0, 0.0);(10.760000228881836, 0.0, -78.01000213623047, 5.380000114440918, -21.520000457763672, -5.380000114440918, 10.760000228881836, 0.0)
2024/05/03/12:34:35.770311;21626;1714764875;770543672;;['BL_Position', 'BL_Wheel', 'BR_Position', 'BR_Wheel', 'FL_Position', 'FL_Wheel', 'FR_Position', 'FR_Wheel'];(-0.0015339808305725455, -0.10584467649459839, 0.0076699042692780495, -2.8025829792022705, 0.003067961661145091, -2.3071072101593018, -0.0015339808305725455, 1.9266799688339233);(0.0, 0.0, 0.0, 0.0, 0.0, 0.0, 0.0, 0.0);(10.760000228881836, 0.0, -83.38999938964844, 5.380000114440918, -21.520000457763672, -5.380000114440918, 5.380000114440918, 0.0)
2024/05/03/12:34:35.786429;21627;1714764875;786571123;;['BL_Position', 'BL_Wheel', 'BR_Position', 'BR_Wheel', 'FL_Position', 'FL_Wheel', 'FR_Position', 'FR_Wheel'];(-0.0015339808305725455, -0.10584467649459839, 0.0076699042692780495, -2.801048994064331, 0.003067961661145091, -2.3071072101593018, -0.0015339808305725455, 1.9266799688339233);(0.0, 0.0, 0.0, 0.0, 0.0, 0.0, 0.0, 0.0);(10.760000228881836, 0.0, -80.70000457763672, 5.380000114440918, -21.520000457763672, -5.380000114440918, 10.760000228881836, 0.0)
2024/05/03/12:34:35.805482;21628;1714764875;802588519;;['BL_Position', 'BL_Wheel', 'BR_Position', 'BR_Wheel', 'FL_Position', 'FL_Wheel', 'FR_Position', 'FR_Wheel'];(-0.0015339808305725455, -0.10584467649459839, 0.0076699042692780495, -2.801048994064331, 0.003067961661145091, -2.3071072101593018, -0.0015339808305725455, 1.9266799688339233);(0.0, 0.0, 0.0, 0.0, 0.0, 0.0, 0.0, 0.0);(5.380000114440918, 0.0, -78.01000213623047, 5.380000114440918, -21.520000457763672, -5.380000114440918, 10.760000228881836, 0.0)
2024/05/03/12:34:35.821919;21629;1714764875;818592544;;['BL_Position', 'BL_Wheel', 'BR_Position', 'BR_Wheel', 'FL_Position', 'FL_Wheel', 'FR_Position', 'FR_Wheel'];(-0.0015339808305725455, -0.10584467649459839, 0.0076699042692780495, -2.801048994064331, 0.003067961661145091, -2.3071072101593018, -0.0015339808305725455, 1.9266799688339233);(0.0, 0.0, 0.0, 0.0, 0.0, 0.0, 0.0, 0.0);(10.760000228881836, 0.0, -83.38999938964844, 5.380000114440918, -21.520000457763672, -5.380000114440918, 5.380000114440918, 0.0)
2024/05/03/12:34:35.839718;21630;1714764875;834575607;;['BL_Position', 'BL_Wheel', 'BR_Position', 'BR_Wheel', 'FL_Position', 'FL_Wheel', 'FR_Position', 'FR_Wheel'];(0.0, -0.10584467649459839, 0.0076699042692780495, -2.801048994064331, 0.003067961661145091, -2.3071072101593018, 0.0, 1.9266799688339233);(0.0, 0.0, 0.0, 0.0, 0.0, 0.0, 0.0, 0.0);(10.760000228881836, 0.0, -83.38999938964844, 5.380000114440918, -21.520000457763672, -5.380000114440918, 2.690000057220459, 0.0)
2024/05/03/12:34:35.848661;21631;1714764875;850592447;;['BL_Position', 'BL_Wheel', 'BR_Position', 'BR_Wheel', 'FL_Position', 'FL_Wheel', 'FR_Position', 'FR_Wheel'];(0.0, -0.10584467649459839, 0.0076699042692780495, -2.801048994064331, 0.003067961661145091, -2.3071072101593018, 0.0, 1.9266799688339233);(0.0, 0.0, 0.0, 0.0, 0.0, 0.0, 0.0, 0.0);(13.450000762939453, 0.0, -75.31999969482422, 5.380000114440918, -21.520000457763672, -5.380000114440918, 5.380000114440918, 0.0)
2024/05/03/12:34:35.867020;21632;1714764875;866554787;;['BL_Position', 'BL_Wheel', 'BR_Position', 'BR_Wheel', 'FL_Position', 'FL_Wheel', 'FR_Position', 'FR_Wheel'];(-0.0015339808305725455, -0.10584467649459839, 0.0076699042692780495, -2.801048994064331, 0.003067961661145091, -2.3071072101593018, -0.0015339808305725455, 1.9282139539718628);(0.0, 0.0, 0.0, 0.0, 0.0, 0.0, 0.0, 0.0);(8.069999694824219, 0.0, -83.38999938964844, 5.380000114440918, -21.520000457763672, -5.380000114440918, 5.380000114440918, 0.0)
2024/05/03/12:34:35.882648;21633;1714764875;882593016;;['BL_Position', 'BL_Wheel', 'BR_Position', 'BR_Wheel', 'FL_Position', 'FL_Wheel', 'FR_Position', 'FR_Wheel'];(-0.0015339808305725455, -0.10584467649459839, 0.0076699042692780495, -2.801048994064331, 0.003067961661145091, -2.3071072101593018, 0.0, 1.9266799688339233);(0.0, 0.0, 0.0, 0.0, 0.0, 0.0, 0.0, 0.0);(10.760000228881836, 0.0, -83.38999938964844, 5.380000114440918, -21.520000457763672, -5.380000114440918, 5.380000114440918, 0.0)
2024/05/03/12:34:35.908562;21634;1714764875;898568412;;['BL_Position', 'BL_Wheel', 'BR_Position', 'BR_Wheel', 'FL_Position', 'FL_Wheel', 'FR_Position', 'FR_Wheel'];(-0.0015339808305725455, -0.10584467649459839, 0.0076699042692780495, -2.801048994064331, 0.003067961661145091, -2.3071072101593018, 0.0, 1.9266799688339233);(0.0, 0.0, 0.0, 0.0, 0.0, 0.0, 0.0, 0.0);(10.760000228881836, 0.0, -83.38999938964844, 5.380000114440918, -21.520000457763672, -5.380000114440918, 5.380000114440918, 0.0)
2024/05/03/12:34:35.914405;21635;1714764875;914539326;;['BL_Position', 'BL_Wheel', 'BR_Position', 'BR_Wheel', 'FL_Position', 'FL_Wheel', 'FR_Position', 'FR_Wheel'];(0.0, -0.10584467649459839, 0.0076699042692780495, -2.801048994064331, 0.003067961661145091, -2.3071072101593018, -0.0015339808305725455, 1.9266799688339233);(0.0, 0.0, 0.0, 0.0, 0.0, 0.0, 0.0, 0.0);(10.760000228881836, 0.0, -75.31999969482422, 5.380000114440918, -21.520000457763672, -5.380000114440918, 5.380000114440918, 0.0)
2024/05/03/12:34:35.932210;21636;1714764875;930519851;;['BL_Position', 'BL_Wheel', 'BR_Position', 'BR_Wheel', 'FL_Position', 'FL_Wheel', 'FR_Position', 'FR_Wheel'];(-0.0015339808305725455, -0.10584467649459839, 0.0076699042692780495, -2.801048994064331, 0.003067961661145091, -2.3071072101593018, 0.0, 1.9266799688339233);(0.0, 0.0, 0.0, 0.0, 0.0, 0.0, 0.0, 0.0);(10.760000228881836, 0.0, -80.70000457763672, 5.380000114440918, -18.829999923706055, -5.380000114440918, 5.380000114440918, 0.0)
2024/05/03/12:34:35.947018;21637;1714764875;946526654;;['BL_Position', 'BL_Wheel', 'BR_Position', 'BR_Wheel', 'FL_Position', 'FL_Wheel', 'FR_Position', 'FR_Wheel'];(0.0, -0.10584467649459839, 0.0076699042692780495, -2.801048994064331, 0.003067961661145091, -2.3071072101593018, 0.0, 1.9266799688339233);(0.0, 0.0, 0.0, 0.0, 0.0, 0.0, 0.0, 0.0);(10.760000228881836, 0.0, -80.70000457763672, 5.380000114440918, -21.520000457763672, -5.380000114440918, 10.760000228881836, 0.0)
2024/05/03/12:34:35.962713;21638;1714764875;962566624;;['BL_Position', 'BL_Wheel', 'BR_Position', 'BR_Wheel', 'FL_Position', 'FL_Wheel', 'FR_Position', 'FR_Wheel'];(0.0, -0.10584467649459839, 0.0076699042692780495, -2.801048994064331, 0.003067961661145091, -2.3071072101593018, -0.0015339808305725455, 1.9266799688339233);(0.0, 0.0, 0.0, 0.0, 0.0, 0.0, 0.0, 0.0);(10.760000228881836, 0.0, -80.70000457763672, 5.380000114440918, -21.520000457763672, -5.380000114440918, 10.760000228881836, 0.0)
2024/05/03/12:34:35.979254;21639;1714764875;978535687;;['BL_Position', 'BL_Wheel', 'BR_Position', 'BR_Wheel', 'FL_Position', 'FL_Wheel', 'FR_Position', 'FR_Wheel'];(-0.0015339808305725455, -0.10584467649459839, 0.0076699042692780495, -2.801048994064331, 0.003067961661145091, -2.3071072101593018, 0.0, 1.9282139539718628);(0.0, 0.0, 0.0, 0.0, 0.0, 0.0, 0.0, 0.0);(10.760000228881836, 0.0, -83.38999938964844, 5.380000114440918, -21.520000457763672, -5.380000114440918, 5.380000114440918, 0.0)
2024/05/03/12:34:35.994502;21640;1714764875;994550804;;['BL_Position', 'BL_Wheel', 'BR_Position', 'BR_Wheel', 'FL_Position', 'FL_Wheel', 'FR_Position', 'FR_Wheel'];(-0.0015339808305725455, -0.10584467649459839, 0.0076699042692780495, -2.801048994064331, 0.003067961661145091, -2.3071072101593018, 0.0, 1.9266799688339233);(0.0, 0.0, 0.0, 0.0, 0.0, 0.0, 0.0, 0.0);(10.760000228881836, 0.0, -80.70000457763672, 5.380000114440918, -21.520000457763672, -5.380000114440918, 5.380000114440918, 0.0)
2024/05/03/12:34:36.010162;21641;1714764876;10536274;;['BL_Position', 'BL_Wheel', 'BR_Position', 'BR_Wheel', 'FL_Position', 'FL_Wheel', 'FR_Position', 'FR_Wheel'];(-0.0015339808305725455, -0.10584467649459839, 0.0076699042692780495, -2.801048994064331, 0.003067961661145091, -2.3071072101593018, 0.0, 1.9266799688339233);(0.0, 0.0, 0.0, 0.0, 0.0, 0.0, 0.0, 0.0);(13.450000762939453, 0.0, -83.38999938964844, 5.380000114440918, -21.520000457763672, -5.380000114440918, 5.380000114440918, 0.0)
2024/05/03/12:34:36.028015;21642;1714764876;26796262;;['BL_Position', 'BL_Wheel', 'BR_Position', 'BR_Wheel', 'FL_Position', 'FL_Wheel', 'FR_Position', 'FR_Wheel'];(-0.0015339808305725455, -0.10584467649459839, 0.0076699042692780495, -2.801048994064331, 0.003067961661145091, -2.3071072101593018, 0.0, 1.9266799688339233);(0.0, 0.0, 0.0, 0.0, 0.0, 0.0, 0.0, 0.0);(10.760000228881836, 0.0, -80.70000457763672, 5.380000114440918, -21.520000457763672, -5.380000114440918, 5.380000114440918, 0.0)
2024/05/03/12:34:36.044829;21643;1714764876;42538973;;['BL_Position', 'BL_Wheel', 'BR_Position', 'BR_Wheel', 'FL_Position', 'FL_Wheel', 'FR_Position', 'FR_Wheel'];(0.0, -0.10584467649459839, 0.0076699042692780495, -2.801048994064331, 0.003067961661145091, -2.3071072101593018, -0.0015339808305725455, 1.9266799688339233);(0.0, 0.0, 0.0, 0.0, 0.0, 0.0, 0.0, 0.0);(10.760000228881836, 0.0, -83.38999938964844, 5.380000114440918, -21.520000457763672, -5.380000114440918, 8.069999694824219, 0.0)
2024/05/03/12:34:36.058532;21644;1714764876;58601554;;['BL_Position', 'BL_Wheel', 'BR_Position', 'BR_Wheel', 'FL_Position', 'FL_Wheel', 'FR_Position', 'FR_Wheel'];(-0.0015339808305725455, -0.10584467649459839, 0.0076699042692780495, -2.801048994064331, 0.003067961661145091, -2.3071072101593018, -0.0015339808305725455, 1.9266799688339233);(0.0, 0.0, 0.0, 0.0, 0.0, 0.0, 0.0, 0.0);(13.450000762939453, 0.0, -80.70000457763672, 5.380000114440918, -21.520000457763672, -5.380000114440918, 5.380000114440918, 0.0)
2024/05/03/12:34:36.074526;21645;1714764876;74673931;;['BL_Position', 'BL_Wheel', 'BR_Position', 'BR_Wheel', 'FL_Position', 'FL_Wheel', 'FR_Position', 'FR_Wheel'];(-0.0015339808305725455, -0.10584467649459839, 0.0076699042692780495, -2.801048994064331, 0.003067961661145091, -2.3071072101593018, -0.0015339808305725455, 1.9266799688339233);(0.0, 0.0, 0.0, 0.0, 0.0, 0.0, 0.0, 0.0);(13.450000762939453, 0.0, -83.38999938964844, 5.380000114440918, -21.520000457763672, -5.380000114440918, 8.069999694824219, 0.0)
2024/05/03/12:34:36.090627;21646;1714764876;90619271;;['BL_Position', 'BL_Wheel', 'BR_Position', 'BR_Wheel', 'FL_Position', 'FL_Wheel', 'FR_Position', 'FR_Wheel'];(-0.0015339808305725455, -0.10584467649459839, 0.0076699042692780495, -2.801048994064331, 0.003067961661145091, -2.3071072101593018, 0.0, 1.9266799688339233);(0.0, 0.0, 0.0, 0.0, 0.0, 0.0, 0.0, 0.0);(13.450000762939453, 0.0, -80.70000457763672, 5.380000114440918, -21.520000457763672, -5.380000114440918, 5.380000114440918, 0.0)
2024/05/03/12:34:36.113206;21647;1714764876;106598186;;['BL_Position', 'BL_Wheel', 'BR_Position', 'BR_Wheel', 'FL_Position', 'FL_Wheel', 'FR_Position', 'FR_Wheel'];(-0.0015339808305725455, -0.10584467649459839, 0.0076699042692780495, -2.801048994064331, 0.003067961661145091, -2.3071072101593018, -0.0015339808305725455, 1.9266799688339233);(0.0, 0.0, 0.0, 0.0, 0.0, 0.0, 0.0, 0.0);(10.760000228881836, 0.0, -83.38999938964844, 5.380000114440918, -21.520000457763672, -5.380000114440918, 2.690000057220459, 0.0)
2024/05/03/12:34:36.122932;21648;1714764876;122554489;;['BL_Position', 'BL_Wheel', 'BR_Position', 'BR_Wheel', 'FL_Position', 'FL_Wheel', 'FR_Position', 'FR_Wheel'];(-0.0015339808305725455, -0.10584467649459839, 0.0076699042692780495, -2.801048994064331, 0.003067961661145091, -2.3071072101593018, -0.0015339808305725455, 1.9266799688339233);(0.0, 0.0, 0.0, 0.0, 0.0, 0.0, 0.0, 0.0);(10.760000228881836, 0.0, -80.70000457763672, 5.380000114440918, -21.520000457763672, -5.380000114440918, 5.380000114440918, 0.0)
2024/05/03/12:34:36.148715;21649;1714764876;138584570;;['BL_Position', 'BL_Wheel', 'BR_Position', 'BR_Wheel', 'FL_Position', 'FL_Wheel', 'FR_Position', 'FR_Wheel'];(0.0, -0.10584467649459839, 0.006135923322290182, -2.801048994064331, 0.003067961661145091, -2.3071072101593018, 0.0, 1.9266799688339233);(0.0, 0.0, 0.0, 0.0, 0.0, 0.0, 0.0, 0.0);(13.450000762939453, 0.0, -83.38999938964844, 5.380000114440918, -21.520000457763672, -5.380000114440918, 5.380000114440918, 0.0)
2024/05/03/12:34:36.154543;21650;1714764876;154589021;;['BL_Position', 'BL_Wheel', 'BR_Position', 'BR_Wheel', 'FL_Position', 'FL_Wheel', 'FR_Position', 'FR_Wheel'];(0.0, -0.10584467649459839, 0.0076699042692780495, -2.801048994064331, 0.003067961661145091, -2.3071072101593018, 0.0, 1.9266799688339233);(0.0, 0.0, 0.0, 0.0, 0.0, 0.0, 0.0, 0.0);(10.760000228881836, 0.0, -80.70000457763672, 5.380000114440918, -21.520000457763672, -5.380000114440918, 5.380000114440918, 0.0)
2024/05/03/12:34:36.170528;21651;1714764876;170556528;;['BL_Position', 'BL_Wheel', 'BR_Position', 'BR_Wheel', 'FL_Position', 'FL_Wheel', 'FR_Position', 'FR_Wheel'];(-0.0015339808305725455, -0.10584467649459839, 0.0076699042692780495, -2.801048994064331, 0.003067961661145091, -2.3071072101593018, 0.0, 1.9266799688339233);(0.0, 0.0, 0.0, 0.0, 0.0, 0.0, 0.0, 0.0);(10.760000228881836, 0.0, -80.70000457763672, 5.380000114440918, -21.520000457763672, -5.380000114440918, 10.760000228881836, 0.0)
2024/05/03/12:34:36.186861;21652;1714764876;186589831;;['BL_Position', 'BL_Wheel', 'BR_Position', 'BR_Wheel', 'FL_Position', 'FL_Wheel', 'FR_Position', 'FR_Wheel'];(-0.0015339808305725455, -0.10584467649459839, 0.0076699042692780495, -2.801048994064331, 0.003067961661145091, -2.3071072101593018, 0.0, 1.9266799688339233);(0.0, 0.0, 0.0, 0.0, 0.0, 0.0, 0.0, 0.0);(10.760000228881836, 0.0, -80.70000457763672, 5.380000114440918, -21.520000457763672, -5.380000114440918, 5.380000114440918, 0.0)
2024/05/03/12:34:36.203010;21653;1714764876;202587356;;['BL_Position', 'BL_Wheel', 'BR_Position', 'BR_Wheel', 'FL_Position', 'FL_Wheel', 'FR_Position', 'FR_Wheel'];(-0.0015339808305725455, -0.10584467649459839, 0.0076699042692780495, -2.801048994064331, 0.003067961661145091, -2.3071072101593018, 0.0, 1.9266799688339233);(0.0, 0.0, 0.0, 0.0, 0.0, 0.0, 0.0, 0.0);(10.760000228881836, 0.0, -83.38999938964844, 5.380000114440918, -21.520000457763672, -5.380000114440918, 5.380000114440918, 0.0)
2024/05/03/12:34:36.219711;21654;1714764876;218564400;;['BL_Position', 'BL_Wheel', 'BR_Position', 'BR_Wheel', 'FL_Position', 'FL_Wheel', 'FR_Position', 'FR_Wheel'];(0.0, -0.10584467649459839, 0.0076699042692780495, -2.801048994064331, 0.003067961661145091, -2.3071072101593018, 0.0, 1.9266799688339233);(0.0, 0.0, 0.0, 0.0, 0.0, 0.0, 0.0, 0.0);(10.760000228881836, 0.0, -83.38999938964844, 5.380000114440918, -21.520000457763672, -5.380000114440918, 5.380000114440918, 0.0)
2024/05/03/12:34:36.236560;21655;1714764876;234580388;;['BL_Position', 'BL_Wheel', 'BR_Position', 'BR_Wheel', 'FL_Position', 'FL_Wheel', 'FR_Position', 'FR_Wheel'];(0.0, -0.10584467649459839, 0.0076699042692780495, -2.801048994064331, 0.003067961661145091, -2.3071072101593018, 0.0, 1.9266799688339233);(0.0, 0.0, 0.0, 0.0, 0.0, 0.0, 0.0, 0.0);(10.760000228881836, 0.0, -80.70000457763672, 5.380000114440918, -21.520000457763672, -5.380000114440918, 8.069999694824219, 0.0)
2024/05/03/12:34:36.250957;21656;1714764876;250815636;;['BL_Position', 'BL_Wheel', 'BR_Position', 'BR_Wheel', 'FL_Position', 'FL_Wheel', 'FR_Position', 'FR_Wheel'];(-0.0015339808305725455, -0.10584467649459839, 0.0076699042692780495, -2.801048994064331, 0.003067961661145091, -2.3071072101593018, 0.0, 1.9266799688339233);(0.0, 0.0, 0.0, 0.0, 0.0, 0.0, 0.0, 0.0);(13.450000762939453, 0.0, -83.38999938964844, 5.380000114440918, -21.520000457763672, -5.380000114440918, 5.380000114440918, 0.0)
2024/05/03/12:34:36.267265;21657;1714764876;266551013;;['BL_Position', 'BL_Wheel', 'BR_Position', 'BR_Wheel', 'FL_Position', 'FL_Wheel', 'FR_Position', 'FR_Wheel'];(-0.0015339808305725455, -0.10584467649459839, 0.0076699042692780495, -2.801048994064331, 0.003067961661145091, -2.3071072101593018, 0.0, 1.9266799688339233);(0.0, 0.0, 0.0, 0.0, 0.0, 0.0, 0.0, 0.0);(13.450000762939453, 0.0, -83.38999938964844, 5.380000114440918, -21.520000457763672, -5.380000114440918, 5.380000114440918, 0.0)
2024/05/03/12:34:36.282322;21658;1714764876;282552576;;['BL_Position', 'BL_Wheel', 'BR_Position', 'BR_Wheel', 'FL_Position', 'FL_Wheel', 'FR_Position', 'FR_Wheel'];(0.0, -0.10584467649459839, 0.0076699042692780495, -2.801048994064331, 0.003067961661145091, -2.3071072101593018, 0.0, 1.9266799688339233);(0.0, 0.0, 0.0, 0.0, 0.0, 0.0, 0.0, 0.0);(8.069999694824219, 0.0, -78.01000213623047, 5.380000114440918, -21.520000457763672, -5.380000114440918, 5.380000114440918, 0.0)
2024/05/03/12:34:36.297724;21659;1714764876;298556416;;['BL_Position', 'BL_Wheel', 'BR_Position', 'BR_Wheel', 'FL_Position', 'FL_Wheel', 'FR_Position', 'FR_Wheel'];(-0.0015339808305725455, -0.10584467649459839, 0.0076699042692780495, -2.801048994064331, 0.003067961661145091, -2.3071072101593018, 0.0, 1.9266799688339233);(0.0, 0.0, 0.0, 0.0, 0.0, 0.0, 0.0, 0.0);(10.760000228881836, 0.0, -83.38999938964844, 5.380000114440918, -21.520000457763672, -5.380000114440918, 5.380000114440918, 0.0)
2024/05/03/12:34:36.317193;21660;1714764876;314552348;;['BL_Position', 'BL_Wheel', 'BR_Position', 'BR_Wheel', 'FL_Position', 'FL_Wheel', 'FR_Position', 'FR_Wheel'];(-0.0015339808305725455, -0.10431069880723953, 0.0076699042692780495, -2.801048994064331, 0.003067961661145091, -2.3071072101593018, -0.0015339808305725455, 1.9266799688339233);(0.0, 0.0, 0.0, 0.0, 0.0, 0.0, 0.0, 0.0);(10.760000228881836, 0.0, -83.38999938964844, 5.380000114440918, -21.520000457763672, -5.380000114440918, 10.760000228881836, 0.0)
2024/05/03/12:34:36.333675;21661;1714764876;330574078;;['BL_Position', 'BL_Wheel', 'BR_Position', 'BR_Wheel', 'FL_Position', 'FL_Wheel', 'FR_Position', 'FR_Wheel'];(-0.0015339808305725455, -0.10584467649459839, 0.0076699042692780495, -2.801048994064331, 0.003067961661145091, -2.3071072101593018, 0.0, 1.9266799688339233);(0.0, 0.0, 0.0, 0.0, 0.0, 0.0, 0.0, 0.0);(13.450000762939453, 0.0, -80.70000457763672, 5.380000114440918, -21.520000457763672, -5.380000114440918, 5.380000114440918, 0.0)
2024/05/03/12:34:36.353585;21662;1714764876;346571770;;['BL_Position', 'BL_Wheel', 'BR_Position', 'BR_Wheel', 'FL_Position', 'FL_Wheel', 'FR_Position', 'FR_Wheel'];(0.0, -0.10584467649459839, 0.006135923322290182, -2.801048994064331, 0.003067961661145091, -2.3071072101593018, 0.0, 1.9266799688339233);(0.0, 0.0, 0.0, 0.0, 0.0, 0.0, 0.0, 0.0);(10.760000228881836, 0.0, -80.70000457763672, 5.380000114440918, -21.520000457763672, -5.380000114440918, 8.069999694824219, 0.0)
2024/05/03/12:34:36.362059;21663;1714764876;362570962;;['BL_Position', 'BL_Wheel', 'BR_Position', 'BR_Wheel', 'FL_Position', 'FL_Wheel', 'FR_Position', 'FR_Wheel'];(-0.0015339808305725455, -0.10584467649459839, 0.0076699042692780495, -2.801048994064331, 0.003067961661145091, -2.3071072101593018, 0.0, 1.9266799688339233);(0.0, 0.0, 0.0, 0.0, 0.0, 0.0, 0.0, 0.0);(10.760000228881836, 0.0, -80.70000457763672, 5.380000114440918, -21.520000457763672, -5.380000114440918, 5.380000114440918, 0.0)
2024/05/03/12:34:36.378790;21664;1714764876;378517691;;['BL_Position', 'BL_Wheel', 'BR_Position', 'BR_Wheel', 'FL_Position', 'FL_Wheel', 'FR_Position', 'FR_Wheel'];(-0.0015339808305725455, -0.10584467649459839, 0.0076699042692780495, -2.801048994064331, 0.003067961661145091, -2.3071072101593018, 0.0, 1.9266799688339233);(0.0, 0.0, 0.0, 0.0, 0.0, 0.0, 0.0, 0.0);(10.760000228881836, 0.0, -80.70000457763672, 5.380000114440918, -21.520000457763672, -5.380000114440918, 2.690000057220459, 0.0)
2024/05/03/12:34:36.394499;21665;1714764876;394575938;;['BL_Position', 'BL_Wheel', 'BR_Position', 'BR_Wheel', 'FL_Position', 'FL_Wheel', 'FR_Position', 'FR_Wheel'];(0.0, -0.10584467649459839, 0.0076699042692780495, -2.801048994064331, 0.003067961661145091, -2.3071072101593018, 0.0, 1.9266799688339233);(0.0, 0.0, 0.0, 0.0, 0.0, 0.0, 0.0, 0.0);(10.760000228881836, 0.0, -83.38999938964844, 5.380000114440918, -21.520000457763672, -5.380000114440918, 5.380000114440918, 0.0)
2024/05/03/12:34:36.420631;21666;1714764876;410523982;;['BL_Position', 'BL_Wheel', 'BR_Position', 'BR_Wheel', 'FL_Position', 'FL_Wheel', 'FR_Position', 'FR_Wheel'];(-0.0015339808305725455, -0.10584467649459839, 0.0076699042692780495, -2.801048994064331, 0.003067961661145091, -2.3071072101593018, 0.0, 1.9266799688339233);(0.0, 0.0, 0.0, 0.0, 0.0, 0.0, 0.0, 0.0);(10.760000228881836, 0.0, -83.38999938964844, 5.380000114440918, -18.829999923706055, -5.380000114440918, 5.380000114440918, 0.0)
2024/05/03/12:34:36.426856;21667;1714764876;426473656;;['BL_Position', 'BL_Wheel', 'BR_Position', 'BR_Wheel', 'FL_Position', 'FL_Wheel', 'FR_Position', 'FR_Wheel'];(0.0, -0.10584467649459839, 0.0076699042692780495, -2.801048994064331, 0.003067961661145091, -2.3071072101593018, 0.0, 1.9266799688339233);(0.0, 0.0, 0.0, 0.0, 0.0, 0.0, 0.0, 0.0);(10.760000228881836, 0.0, -80.70000457763672, 5.380000114440918, -21.520000457763672, -5.380000114440918, 10.760000228881836, 0.0)
2024/05/03/12:34:36.455027;21668;1714764876;442498792;;['BL_Position', 'BL_Wheel', 'BR_Position', 'BR_Wheel', 'FL_Position', 'FL_Wheel', 'FR_Position', 'FR_Wheel'];(0.0, -0.10584467649459839, 0.006135923322290182, -2.801048994064331, 0.003067961661145091, -2.3071072101593018, 0.0, 1.9266799688339233);(0.0, 0.0, 0.0, 0.0, 0.0, 0.0, 0.0, 0.0);(10.760000228881836, 0.0, -83.38999938964844, 5.380000114440918, -21.520000457763672, -5.380000114440918, 5.380000114440918, 0.0)
2024/05/03/12:34:36.460339;21669;1714764876;458570317;;['BL_Position', 'BL_Wheel', 'BR_Position', 'BR_Wheel', 'FL_Position', 'FL_Wheel', 'FR_Position', 'FR_Wheel'];(-0.0015339808305725455, -0.10584467649459839, 0.0076699042692780495, -2.801048994064331, 0.003067961661145091, -2.3071072101593018, -0.0015339808305725455, 1.9266799688339233);(0.0, 0.0, 0.0, 0.0, 0.0, 0.0, 0.0, 0.0);(10.760000228881836, 0.0, -83.38999938964844, 5.380000114440918, -21.520000457763672, -5.380000114440918, 8.069999694824219, 0.0)
2024/05/03/12:34:36.474848;21670;1714764876;474583046;;['BL_Position', 'BL_Wheel', 'BR_Position', 'BR_Wheel', 'FL_Position', 'FL_Wheel', 'FR_Position', 'FR_Wheel'];(-0.0015339808305725455, -0.10584467649459839, 0.0076699042692780495, -2.801048994064331, 0.003067961661145091, -2.3071072101593018, 0.0, 1.9266799688339233);(0.0, 0.0, 0.0, 0.0, 0.0, 0.0, 0.0, 0.0);(13.450000762939453, 0.0, -83.38999938964844, 5.380000114440918, -21.520000457763672, -5.380000114440918, 5.380000114440918, 0.0)
2024/05/03/12:34:36.490667;21671;1714764876;490589146;;['BL_Position', 'BL_Wheel', 'BR_Position', 'BR_Wheel', 'FL_Position', 'FL_Wheel', 'FR_Position', 'FR_Wheel'];(0.0, -0.10584467649459839, 0.0076699042692780495, -2.801048994064331, 0.003067961661145091, -2.3071072101593018, 0.0, 1.9266799688339233);(0.0, 0.0, 0.0, 0.0, 0.0, 0.0, 0.0, 0.0);(10.760000228881836, 0.0, -80.70000457763672, 5.380000114440918, -21.520000457763672, -5.380000114440918, 2.690000057220459, 0.0)
2024/05/03/12:34:36.507488;21672;1714764876;506572819;;['BL_Position', 'BL_Wheel', 'BR_Position', 'BR_Wheel', 'FL_Position', 'FL_Wheel', 'FR_Position', 'FR_Wheel'];(-0.0015339808305725455, -0.10584467649459839, 0.0076699042692780495, -2.801048994064331, 0.003067961661145091, -2.3071072101593018, -0.0015339808305725455, 1.9266799688339233);(0.0, 0.0, 0.0, 0.0, 0.0, 0.0, 0.0, 0.0);(8.069999694824219, 0.0, -83.38999938964844, 5.380000114440918, -21.520000457763672, -5.380000114440918, 8.069999694824219, 0.0)
2024/05/03/12:34:36.522959;21673;1714764876;522594159;;['BL_Position', 'BL_Wheel', 'BR_Position', 'BR_Wheel', 'FL_Position', 'FL_Wheel', 'FR_Position', 'FR_Wheel'];(-0.0015339808305725455, -0.10584467649459839, 0.0076699042692780495, -2.801048994064331, 0.003067961661145091, -2.3071072101593018, 0.0, 1.9266799688339233);(0.0, 0.0, 0.0, 0.0, 0.0, 0.0, 0.0, 0.0);(8.069999694824219, 0.0, -83.38999938964844, 5.380000114440918, -21.520000457763672, -5.380000114440918, 5.380000114440918, 0.0)
2024/05/03/12:34:36.540648;21674;1714764876;538581703;;['BL_Position', 'BL_Wheel', 'BR_Position', 'BR_Wheel', 'FL_Position', 'FL_Wheel', 'FR_Position', 'FR_Wheel'];(-0.0015339808305725455, -0.10584467649459839, 0.0076699042692780495, -2.801048994064331, 0.003067961661145091, -2.3071072101593018, 0.0, 1.9266799688339233);(0.0, 0.0, 0.0, 0.0, 0.0, 0.0, 0.0, 0.0);(10.760000228881836, 0.0, -83.38999938964844, 5.380000114440918, -21.520000457763672, -5.380000114440918, 5.380000114440918, 0.0)
2024/05/03/12:34:36.558093;21675;1714764876;554574469;;['BL_Position', 'BL_Wheel', 'BR_Position', 'BR_Wheel', 'FL_Position', 'FL_Wheel', 'FR_Position', 'FR_Wheel'];(-0.0015339808305725455, -0.10584467649459839, 0.0076699042692780495, -2.801048994064331, 0.003067961661145091, -2.3071072101593018, 0.0, 1.9266799688339233);(0.0, 0.0, 0.0, 0.0, 0.0, 0.0, 0.0, 0.0);(8.069999694824219, 0.0, -83.38999938964844, 5.380000114440918, -21.520000457763672, -5.380000114440918, 5.380000114440918, 0.0)
2024/05/03/12:34:36.570231;21676;1714764876;570523421;;['BL_Position', 'BL_Wheel', 'BR_Position', 'BR_Wheel', 'FL_Position', 'FL_Wheel', 'FR_Position', 'FR_Wheel'];(0.0, -0.10584467649459839, 0.0076699042692780495, -2.801048994064331, 0.003067961661145091, -2.3071072101593018, 0.0, 1.9266799688339233);(0.0, 0.0, 0.0, 0.0, 0.0, 0.0, 0.0, 0.0);(10.760000228881836, 0.0, -83.38999938964844, 5.380000114440918, -21.520000457763672, -5.380000114440918, 10.760000228881836, 0.0)
2024/05/03/12:34:36.586232;21677;1714764876;586781020;;['BL_Position', 'BL_Wheel', 'BR_Position', 'BR_Wheel', 'FL_Position', 'FL_Wheel', 'FR_Position', 'FR_Wheel'];(-0.0015339808305725455, -0.10584467649459839, 0.0076699042692780495, -2.801048994064331, 0.003067961661145091, -2.3071072101593018, -0.0015339808305725455, 1.9266799688339233);(0.0, 0.0, 0.0, 0.0, 0.0, 0.0, 0.0, 0.0);(10.760000228881836, 0.0, -78.01000213623047, 5.380000114440918, -21.520000457763672, -5.380000114440918, 5.380000114440918, 0.0)
2024/05/03/12:34:36.602318;21678;1714764876;602570675;;['BL_Position', 'BL_Wheel', 'BR_Position', 'BR_Wheel', 'FL_Position', 'FL_Wheel', 'FR_Position', 'FR_Wheel'];(0.0, -0.10584467649459839, 0.0076699042692780495, -2.801048994064331, 0.003067961661145091, -2.3071072101593018, 0.0, 1.9266799688339233);(0.0, 0.0, 0.0, 0.0, 0.0, 0.0, 0.0, 0.0);(10.760000228881836, 0.0, -83.38999938964844, 5.380000114440918, -21.520000457763672, -5.380000114440918, 2.690000057220459, 0.0)
2024/05/03/12:34:36.624621;21679;1714764876;618561756;;['BL_Position', 'BL_Wheel', 'BR_Position', 'BR_Wheel', 'FL_Position', 'FL_Wheel', 'FR_Position', 'FR_Wheel'];(-0.0015339808305725455, -0.10431069880723953, 0.0076699042692780495, -2.801048994064331, 0.004601942375302315, -2.3071072101593018, 0.0, 1.9266799688339233);(0.0, 0.0, 0.0, 0.0, 0.0, 0.0, 0.0, 0.0);(13.450000762939453, 0.0, -83.38999938964844, 5.380000114440918, -21.520000457763672, -5.380000114440918, 2.690000057220459, 0.0)
2024/05/03/12:34:36.632776;21680;1714764876;634596855;;['BL_Position', 'BL_Wheel', 'BR_Position', 'BR_Wheel', 'FL_Position', 'FL_Wheel', 'FR_Position', 'FR_Wheel'];(0.0, -0.10584467649459839, 0.006135923322290182, -2.801048994064331, 0.003067961661145091, -2.3071072101593018, -0.0015339808305725455, 1.9266799688339233);(0.0, 0.0, 0.0, 0.0, 0.0, 0.0, 0.0, 0.0);(10.760000228881836, 0.0, -83.38999938964844, 5.380000114440918, -24.21000099182129, -5.380000114440918, 5.380000114440918, 0.0)
2024/05/03/12:34:36.661180;21681;1714764876;650528122;;['BL_Position', 'BL_Wheel', 'BR_Position', 'BR_Wheel', 'FL_Position', 'FL_Wheel', 'FR_Position', 'FR_Wheel'];(-0.0015339808305725455, -0.10584467649459839, 0.0076699042692780495, -2.801048994064331, 0.003067961661145091, -2.3071072101593018, 0.0, 1.9266799688339233);(0.0, 0.0, 0.0, 0.0, 0.0, 0.0, 0.0, 0.0);(8.069999694824219, 0.0, -78.01000213623047, 5.380000114440918, -24.21000099182129, -5.380000114440918, 5.380000114440918, 0.0)
2024/05/03/12:34:36.669210;21682;1714764876;666628073;;['BL_Position', 'BL_Wheel', 'BR_Position', 'BR_Wheel', 'FL_Position', 'FL_Wheel', 'FR_Position', 'FR_Wheel'];(-0.0015339808305725455, -0.10584467649459839, 0.0076699042692780495, -2.801048994064331, 0.003067961661145091, -2.3071072101593018, 0.0, 1.9266799688339233);(0.0, 0.0, 0.0, 0.0, 0.0, 0.0, 0.0, 0.0);(10.760000228881836, 0.0, -80.70000457763672, 5.380000114440918, -24.21000099182129, -5.380000114440918, 5.380000114440918, 0.0)
2024/05/03/12:34:36.683491;21683;1714764876;682564154;;['BL_Position', 'BL_Wheel', 'BR_Position', 'BR_Wheel', 'FL_Position', 'FL_Wheel', 'FR_Position', 'FR_Wheel'];(0.0, -0.10584467649459839, 0.006135923322290182, -2.801048994064331, 0.003067961661145091, -2.3071072101593018, 0.0, 1.9266799688339233);(0.0, 0.0, 0.0, 0.0, 0.0, 0.0, 0.0, 0.0);(13.450000762939453, 0.0, -80.70000457763672, 5.380000114440918, -24.21000099182129, -5.380000114440918, 5.380000114440918, 0.0)
2024/05/03/12:34:36.699142;21684;1714764876;698568809;;['BL_Position', 'BL_Wheel', 'BR_Position', 'BR_Wheel', 'FL_Position', 'FL_Wheel', 'FR_Position', 'FR_Wheel'];(0.0, -0.10584467649459839, 0.0076699042692780495, -2.801048994064331, 0.003067961661145091, -2.3071072101593018, -0.0015339808305725455, 1.9266799688339233);(0.0, 0.0, 0.0, 0.0, 0.0, 0.0, 0.0, 0.0);(10.760000228881836, 0.0, -83.38999938964844, 5.380000114440918, -24.21000099182129, -5.380000114440918, 10.760000228881836, 0.0)
2024/05/03/12:34:36.715211;21685;1714764876;714566464;;['BL_Position', 'BL_Wheel', 'BR_Position', 'BR_Wheel', 'FL_Position', 'FL_Wheel', 'FR_Position', 'FR_Wheel'];(-0.0015339808305725455, -0.10584467649459839, 0.0076699042692780495, -2.801048994064331, 0.003067961661145091, -2.3071072101593018, 0.0, 1.9266799688339233);(0.0, 0.0, 0.0, 0.0, 0.0, 0.0, 0.0, 0.0);(10.760000228881836, 0.0, -80.70000457763672, 5.380000114440918, -24.21000099182129, -5.380000114440918, 5.380000114440918, 0.0)
2024/05/03/12:34:36.730411;21686;1714764876;730564841;;['BL_Position', 'BL_Wheel', 'BR_Position', 'BR_Wheel', 'FL_Position', 'FL_Wheel', 'FR_Position', 'FR_Wheel'];(-0.0015339808305725455, -0.10584467649459839, 0.0076699042692780495, -2.801048994064331, 0.003067961661145091, -2.3071072101593018, -0.0015339808305725455, 1.9266799688339233);(0.0, 0.0, 0.0, 0.0, 0.0, 0.0, 0.0, 0.0);(10.760000228881836, 0.0, -80.70000457763672, 5.380000114440918, -24.21000099182129, -5.380000114440918, 5.380000114440918, 0.0)
2024/05/03/12:34:36.748688;21687;1714764876;746664459;;['BL_Position', 'BL_Wheel', 'BR_Position', 'BR_Wheel', 'FL_Position', 'FL_Wheel', 'FR_Position', 'FR_Wheel'];(-0.0015339808305725455, -0.10584467649459839, 0.0076699042692780495, -2.801048994064331, 0.003067961661145091, -2.3071072101593018, -0.0015339808305725455, 1.9266799688339233);(0.0, 0.0, 0.0, 0.0, 0.0, 0.0, 0.0, 0.0);(10.760000228881836, 0.0, -83.38999938964844, 5.380000114440918, -24.21000099182129, -5.380000114440918, 8.069999694824219, 0.0)
2024/05/03/12:34:36.768426;21688;1714764876;762521780;;['BL_Position', 'BL_Wheel', 'BR_Position', 'BR_Wheel', 'FL_Position', 'FL_Wheel', 'FR_Position', 'FR_Wheel'];(0.0, -0.10584467649459839, 0.0076699042692780495, -2.801048994064331, 0.003067961661145091, -2.3071072101593018, 0.0, 1.9266799688339233);(0.0, 0.0, 0.0, 0.0, 0.0, 0.0, 0.0, 0.0);(10.760000228881836, 0.0, -83.38999938964844, 5.380000114440918, -24.21000099182129, -5.380000114440918, 13.450000762939453, 0.0)
