time;.header.seq;.header.stamp.secs;.header.stamp.nsecs;.header.frame_id;.name;.position;.velocity;.effort
2024/05/03/13:37:52.889463;258954;1714768672;942846011;;['BL_Position', 'BL_Wheel', 'BR_Position', 'BR_Wheel', 'FL_Position', 'FL_Wheel', 'FR_Position', 'FR_Wheel'];(0.7853981852531433, 2826.09423828125, -0.7838642001152039, 2904.689453125, -0.7853981852531433, 2824.44677734375, 0.7853981852531433, 2909.15478515625);(0.0, 0.0, 0.0, 0.0, 0.0, 0.0, 0.0, 0.0);(5.380000114440918, 99.52999877929688, -10.760000228881836, 5.380000114440918, -5.380000114440918, -2.690000057220459, 2.690000057220459, -10.760000228881836)
2024/05/03/13:37:52.905030;258955;1714768672;958837177;;['BL_Position', 'BL_Wheel', 'BR_Position', 'BR_Wheel', 'FL_Position', 'FL_Wheel', 'FR_Position', 'FR_Wheel'];(0.7853981852531433, 2826.09423828125, -0.7838642001152039, 2904.687744140625, -0.7853981852531433, 2824.44677734375, 0.7853981852531433, 2909.15478515625);(0.0, 0.0, 0.0, 0.0, 0.0, 0.0, 0.0, 0.0);(5.380000114440918, 99.52999877929688, -10.760000228881836, 5.380000114440918, -5.380000114440918, -2.690000057220459, 5.380000114440918, -10.760000228881836)
2024/05/03/13:37:52.921255;258956;1714768672;974819066;;['BL_Position', 'BL_Wheel', 'BR_Position', 'BR_Wheel', 'FL_Position', 'FL_Wheel', 'FR_Position', 'FR_Wheel'];(0.7853981852531433, 2826.09423828125, -0.7853981852531433, 2904.687744140625, -0.7853981852531433, 2824.44677734375, 0.7853981852531433, 2909.1533203125);(0.0, 0.0, 0.0, 0.0, 0.0, 0.0, 0.0, 0.0);(5.380000114440918, 99.52999877929688, -8.069999694824219, 5.380000114440918, -5.380000114440918, -2.690000057220459, 5.380000114440918, -10.760000228881836)
2024/05/03/13:37:52.938404;258957;1714768672;990821436;;['BL_Position', 'BL_Wheel', 'BR_Position', 'BR_Wheel', 'FL_Position', 'FL_Wheel', 'FR_Position', 'FR_Wheel'];(0.7853981852531433, 2826.09423828125, -0.7838642001152039, 2904.689453125, -0.7853981852531433, 2824.44677734375, 0.7853981852531433, 2909.15478515625);(0.0, 0.0, 0.0, 0.0, 0.0, 0.0, 0.0, 0.0);(5.380000114440918, 99.52999877929688, -10.760000228881836, 5.380000114440918, -5.380000114440918, -2.690000057220459, 5.380000114440918, -10.760000228881836)
2024/05/03/13:37:52.959162;258958;1714768673;6777843;;['BL_Position', 'BL_Wheel', 'BR_Position', 'BR_Wheel', 'FL_Position', 'FL_Wheel', 'FR_Position', 'FR_Wheel'];(0.7853981852531433, 2826.09423828125, -0.7853981852531433, 2904.687744140625, -0.7853981852531433, 2824.44677734375, 0.7838642001152039, 2909.15478515625);(0.0, 0.0, 0.0, 0.0, 0.0, 0.0, 0.0, 0.0);(5.380000114440918, 99.52999877929688, -8.069999694824219, 5.380000114440918, -5.380000114440918, -2.690000057220459, 5.380000114440918, -10.760000228881836)
2024/05/03/13:37:52.972422;258959;1714768673;22840398;;['BL_Position', 'BL_Wheel', 'BR_Position', 'BR_Wheel', 'FL_Position', 'FL_Wheel', 'FR_Position', 'FR_Wheel'];(0.7853981852531433, 2826.09423828125, -0.7853981852531433, 2904.689453125, -0.7853981852531433, 2824.44677734375, 0.7853981852531433, 2909.15478515625);(0.0, 0.0, 0.0, 0.0, 0.0, 0.0, 0.0, 0.0);(5.380000114440918, 99.52999877929688, -10.760000228881836, 5.380000114440918, -8.069999694824219, -2.690000057220459, 2.690000057220459, -10.760000228881836)
2024/05/03/13:37:52.985486;258960;1714768673;38869842;;['BL_Position', 'BL_Wheel', 'BR_Position', 'BR_Wheel', 'FL_Position', 'FL_Wheel', 'FR_Position', 'FR_Wheel'];(0.7838642001152039, 2826.09423828125, -0.7853981852531433, 2904.687744140625, -0.7853981852531433, 2824.44677734375, 0.7853981852531433, 2909.1533203125);(0.0, 0.0, 0.0, 0.0, 0.0, 0.0, 0.0, 0.0);(5.380000114440918, 99.52999877929688, -13.450000762939453, 5.380000114440918, -5.380000114440918, -2.690000057220459, 2.690000057220459, -10.760000228881836)
2024/05/03/13:37:53.001703;258961;1714768673;55116879;;['BL_Position', 'BL_Wheel', 'BR_Position', 'BR_Wheel', 'FL_Position', 'FL_Wheel', 'FR_Position', 'FR_Wheel'];(0.7838642001152039, 2826.09423828125, -0.7838642001152039, 2904.687744140625, -0.7853981852531433, 2824.44677734375, 0.7853981852531433, 2909.15478515625);(0.0, 0.0, 0.0, 0.0, 0.0, 0.0, 0.0, 0.0);(5.380000114440918, 99.52999877929688, -8.069999694824219, 5.380000114440918, -5.380000114440918, -2.690000057220459, 5.380000114440918, -10.760000228881836)
2024/05/03/13:37:53.017515;258962;1714768673;70873249;;['BL_Position', 'BL_Wheel', 'BR_Position', 'BR_Wheel', 'FL_Position', 'FL_Wheel', 'FR_Position', 'FR_Wheel'];(0.7853981852531433, 2826.09423828125, -0.7853981852531433, 2904.689453125, -0.7853981852531433, 2824.44677734375, 0.7853981852531433, 2909.1533203125);(0.0, 0.0, 0.0, 0.0, 0.0, 0.0, 0.0, 0.0);(5.380000114440918, 99.52999877929688, -10.760000228881836, 5.380000114440918, -5.380000114440918, -2.690000057220459, 5.380000114440918, -10.760000228881836)
2024/05/03/13:37:53.039815;258963;1714768673;87007508;;['BL_Position', 'BL_Wheel', 'BR_Position', 'BR_Wheel', 'FL_Position', 'FL_Wheel', 'FR_Position', 'FR_Wheel'];(0.7853981852531433, 2826.09423828125, -0.7838642001152039, 2904.687744140625, -0.7853981852531433, 2824.44677734375, 0.7853981852531433, 2909.15478515625);(0.0, 0.0, 0.0, 0.0, 0.0, 0.0, 0.0, 0.0);(8.069999694824219, 99.52999877929688, -13.450000762939453, 5.380000114440918, -10.760000228881836, -2.690000057220459, 5.380000114440918, -10.760000228881836)
2024/05/03/13:37:53.061443;258964;1714768673;102863674;;['BL_Position', 'BL_Wheel', 'BR_Position', 'BR_Wheel', 'FL_Position', 'FL_Wheel', 'FR_Position', 'FR_Wheel'];(0.7853981852531433, 2826.09423828125, -0.7853981852531433, 2904.689453125, -0.7853981852531433, 2824.44677734375, 0.7853981852531433, 2909.15478515625);(0.0, 0.0, 0.0, 0.0, 0.0, 0.0, 0.0, 0.0);(5.380000114440918, 99.52999877929688, -16.139999389648438, 5.380000114440918, -5.380000114440918, -2.690000057220459, 5.380000114440918, -10.760000228881836)
2024/05/03/13:37:53.072618;258965;1714768673;118845878;;['BL_Position', 'BL_Wheel', 'BR_Position', 'BR_Wheel', 'FL_Position', 'FL_Wheel', 'FR_Position', 'FR_Wheel'];(0.7853981852531433, 2826.09423828125, -0.7853981852531433, 2904.687744140625, -0.7853981852531433, 2824.44677734375, 0.7853981852531433, 2909.15478515625);(0.0, 0.0, 0.0, 0.0, 0.0, 0.0, 0.0, 0.0);(5.380000114440918, 99.52999877929688, -13.450000762939453, 5.380000114440918, -5.380000114440918, -2.690000057220459, 5.380000114440918, -10.760000228881836)
2024/05/03/13:37:53.081199;258966;1714768673;135008970;;['BL_Position', 'BL_Wheel', 'BR_Position', 'BR_Wheel', 'FL_Position', 'FL_Wheel', 'FR_Position', 'FR_Wheel'];(0.7853981852531433, 2826.09423828125, -0.7853981852531433, 2904.687744140625, -0.7853981852531433, 2824.44677734375, 0.7853981852531433, 2909.15478515625);(0.0, 0.0, 0.0, 0.0, 0.0, 0.0, 0.0, 0.0);(5.380000114440918, 99.52999877929688, -10.760000228881836, 5.380000114440918, -5.380000114440918, -2.690000057220459, 5.380000114440918, -10.760000228881836)
2024/05/03/13:37:53.096998;258967;1714768673;150884414;;['BL_Position', 'BL_Wheel', 'BR_Position', 'BR_Wheel', 'FL_Position', 'FL_Wheel', 'FR_Position', 'FR_Wheel'];(0.7853981852531433, 2826.0927734375, -0.7853981852531433, 2904.687744140625, -0.7853981852531433, 2824.44677734375, 0.7838642001152039, 2909.15478515625);(0.0, 0.0, 0.0, 0.0, 0.0, 0.0, 0.0, 0.0);(5.380000114440918, 99.52999877929688, -8.069999694824219, 5.380000114440918, -5.380000114440918, -2.690000057220459, 5.380000114440918, -10.760000228881836)
2024/05/03/13:37:53.113688;258968;1714768673;166814562;;['BL_Position', 'BL_Wheel', 'BR_Position', 'BR_Wheel', 'FL_Position', 'FL_Wheel', 'FR_Position', 'FR_Wheel'];(0.7853981852531433, 2826.09423828125, -0.7838642001152039, 2904.687744140625, -0.7853981852531433, 2824.44677734375, 0.7853981852531433, 2909.15478515625);(0.0, 0.0, 0.0, 0.0, 0.0, 0.0, 0.0, 0.0);(5.380000114440918, 99.52999877929688, -8.069999694824219, 5.380000114440918, -5.380000114440918, -2.690000057220459, 5.380000114440918, -10.760000228881836)
2024/05/03/13:37:53.128556;258969;1714768673;182802691;;['BL_Position', 'BL_Wheel', 'BR_Position', 'BR_Wheel', 'FL_Position', 'FL_Wheel', 'FR_Position', 'FR_Wheel'];(0.7838642001152039, 2826.09423828125, -0.7853981852531433, 2904.687744140625, -0.7853981852531433, 2824.44677734375, 0.7853981852531433, 2909.1533203125);(0.0, 0.0, 0.0, 0.0, 0.0, 0.0, 0.0, 0.0);(5.380000114440918, 99.52999877929688, -13.450000762939453, 5.380000114440918, -5.380000114440918, -2.690000057220459, 5.380000114440918, -10.760000228881836)
2024/05/03/13:37:53.145469;258970;1714768673;198770043;;['BL_Position', 'BL_Wheel', 'BR_Position', 'BR_Wheel', 'FL_Position', 'FL_Wheel', 'FR_Position', 'FR_Wheel'];(0.7853981852531433, 2826.09423828125, -0.7838642001152039, 2904.689453125, -0.7853981852531433, 2824.44677734375, 0.7853981852531433, 2909.15478515625);(0.0, 0.0, 0.0, 0.0, 0.0, 0.0, 0.0, 0.0);(5.380000114440918, 99.52999877929688, -10.760000228881836, 5.380000114440918, -5.380000114440918, -2.690000057220459, 2.690000057220459, -10.760000228881836)
2024/05/03/13:37:53.163912;258971;1714768673;214798987;;['BL_Position', 'BL_Wheel', 'BR_Position', 'BR_Wheel', 'FL_Position', 'FL_Wheel', 'FR_Position', 'FR_Wheel'];(0.7853981852531433, 2826.09423828125, -0.7838642001152039, 2904.687744140625, -0.7853981852531433, 2824.44677734375, 0.7853981852531433, 2909.15478515625);(0.0, 0.0, 0.0, 0.0, 0.0, 0.0, 0.0, 0.0);(5.380000114440918, 99.52999877929688, -13.450000762939453, 5.380000114440918, -5.380000114440918, -2.690000057220459, 2.690000057220459, -10.760000228881836)
2024/05/03/13:37:53.178057;258972;1714768673;230829912;;['BL_Position', 'BL_Wheel', 'BR_Position', 'BR_Wheel', 'FL_Position', 'FL_Wheel', 'FR_Position', 'FR_Wheel'];(0.7853981852531433, 2826.09423828125, -0.7853981852531433, 2904.687744140625, -0.7853981852531433, 2824.44677734375, 0.7853981852531433, 2909.15478515625);(0.0, 0.0, 0.0, 0.0, 0.0, 0.0, 0.0, 0.0);(5.380000114440918, 99.52999877929688, -10.760000228881836, 5.380000114440918, -5.380000114440918, -2.690000057220459, 5.380000114440918, -10.760000228881836)
2024/05/03/13:37:53.194409;258973;1714768673;247119857;;['BL_Position', 'BL_Wheel', 'BR_Position', 'BR_Wheel', 'FL_Position', 'FL_Wheel', 'FR_Position', 'FR_Wheel'];(0.7853981852531433, 2826.09423828125, -0.7853981852531433, 2904.687744140625, -0.7853981852531433, 2824.44677734375, 0.7853981852531433, 2909.15478515625);(0.0, 0.0, 0.0, 0.0, 0.0, 0.0, 0.0, 0.0);(5.380000114440918, 99.52999877929688, -8.069999694824219, 5.380000114440918, -5.380000114440918, -2.690000057220459, 2.690000057220459, -10.760000228881836)
2024/05/03/13:37:53.209438;258974;1714768673;263065301;;['BL_Position', 'BL_Wheel', 'BR_Position', 'BR_Wheel', 'FL_Position', 'FL_Wheel', 'FR_Position', 'FR_Wheel'];(0.7853981852531433, 2826.09423828125, -0.7838642001152039, 2904.689453125, -0.7853981852531433, 2824.44677734375, 0.7853981852531433, 2909.15478515625);(0.0, 0.0, 0.0, 0.0, 0.0, 0.0, 0.0, 0.0);(5.380000114440918, 99.52999877929688, -10.760000228881836, 5.380000114440918, -5.380000114440918, -2.690000057220459, 2.690000057220459, -10.760000228881836)
2024/05/03/13:37:53.225600;258975;1714768673;279205467;;['BL_Position', 'BL_Wheel', 'BR_Position', 'BR_Wheel', 'FL_Position', 'FL_Wheel', 'FR_Position', 'FR_Wheel'];(0.7853981852531433, 2826.09423828125, -0.7853981852531433, 2904.687744140625, -0.7853981852531433, 2824.44677734375, 0.7853981852531433, 2909.1533203125);(0.0, 0.0, 0.0, 0.0, 0.0, 0.0, 0.0, 0.0);(5.380000114440918, 99.52999877929688, -10.760000228881836, 5.380000114440918, -5.380000114440918, -2.690000057220459, 2.690000057220459, -10.760000228881836)
2024/05/03/13:37:53.245289;258976;1714768673;294860263;;['BL_Position', 'BL_Wheel', 'BR_Position', 'BR_Wheel', 'FL_Position', 'FL_Wheel', 'FR_Position', 'FR_Wheel'];(0.7853981852531433, 2826.09423828125, -0.7838642001152039, 2904.687744140625, -0.7853981852531433, 2824.44677734375, 0.7853981852531433, 2909.15478515625);(0.0, 0.0, 0.0, 0.0, 0.0, 0.0, 0.0, 0.0);(5.380000114440918, 99.52999877929688, -16.139999389648438, 5.380000114440918, -5.380000114440918, -2.690000057220459, 2.690000057220459, -10.760000228881836)
2024/05/03/13:37:53.271060;258977;1714768673;310843003;;['BL_Position', 'BL_Wheel', 'BR_Position', 'BR_Wheel', 'FL_Position', 'FL_Wheel', 'FR_Position', 'FR_Wheel'];(0.7853981852531433, 2826.09423828125, -0.7853981852531433, 2904.687744140625, -0.7853981852531433, 2824.44677734375, 0.7853981852531433, 2909.1533203125);(0.0, 0.0, 0.0, 0.0, 0.0, 0.0, 0.0, 0.0);(8.069999694824219, 99.52999877929688, -10.760000228881836, 5.380000114440918, -5.380000114440918, -2.690000057220459, 2.690000057220459, -10.760000228881836)
2024/05/03/13:37:53.279420;258978;1714768673;327244170;;['BL_Position', 'BL_Wheel', 'BR_Position', 'BR_Wheel', 'FL_Position', 'FL_Wheel', 'FR_Position', 'FR_Wheel'];(0.7853981852531433, 2826.09423828125, -0.7853981852531433, 2904.687744140625, -0.7853981852531433, 2824.4453125, 0.7853981852531433, 2909.15478515625);(0.0, 0.0, 0.0, 0.0, 0.0, 0.0, 0.0, 0.0);(5.380000114440918, 99.52999877929688, -8.069999694824219, 5.380000114440918, -5.380000114440918, -2.690000057220459, 2.690000057220459, -10.760000228881836)
2024/05/03/13:37:53.289050;258979;1714768673;342860855;;['BL_Position', 'BL_Wheel', 'BR_Position', 'BR_Wheel', 'FL_Position', 'FL_Wheel', 'FR_Position', 'FR_Wheel'];(0.7853981852531433, 2826.09423828125, -0.7853981852531433, 2904.687744140625, -0.7853981852531433, 2824.44677734375, 0.7853981852531433, 2909.1533203125);(0.0, 0.0, 0.0, 0.0, 0.0, 0.0, 0.0, 0.0);(5.380000114440918, 99.52999877929688, -10.760000228881836, 5.380000114440918, -5.380000114440918, -2.690000057220459, 2.690000057220459, -10.760000228881836)
2024/05/03/13:37:53.305241;258980;1714768673;358871669;;['BL_Position', 'BL_Wheel', 'BR_Position', 'BR_Wheel', 'FL_Position', 'FL_Wheel', 'FR_Position', 'FR_Wheel'];(0.7853981852531433, 2826.09423828125, -0.7853981852531433, 2904.687744140625, -0.7853981852531433, 2824.44677734375, 0.7853981852531433, 2909.1533203125);(0.0, 0.0, 0.0, 0.0, 0.0, 0.0, 0.0, 0.0);(5.380000114440918, 99.52999877929688, -8.069999694824219, 5.380000114440918, -5.380000114440918, -2.690000057220459, 2.690000057220459, -10.760000228881836)
2024/05/03/13:37:53.321185;258981;1714768673;374863021;;['BL_Position', 'BL_Wheel', 'BR_Position', 'BR_Wheel', 'FL_Position', 'FL_Wheel', 'FR_Position', 'FR_Wheel'];(0.7838642001152039, 2826.09423828125, -0.7853981852531433, 2904.689453125, -0.7853981852531433, 2824.44677734375, 0.7853981852531433, 2909.1533203125);(0.0, 0.0, 0.0, 0.0, 0.0, 0.0, 0.0, 0.0);(8.069999694824219, 99.52999877929688, -8.069999694824219, 5.380000114440918, -5.380000114440918, -2.690000057220459, 5.380000114440918, -10.760000228881836)
2024/05/03/13:37:53.347238;258982;1714768673;390826854;;['BL_Position', 'BL_Wheel', 'BR_Position', 'BR_Wheel', 'FL_Position', 'FL_Wheel', 'FR_Position', 'FR_Wheel'];(0.7853981852531433, 2826.09423828125, -0.7853981852531433, 2904.687744140625, -0.7853981852531433, 2824.44677734375, 0.7853981852531433, 2909.15478515625);(0.0, 0.0, 0.0, 0.0, 0.0, 0.0, 0.0, 0.0);(5.380000114440918, 99.52999877929688, -10.760000228881836, 5.380000114440918, -5.380000114440918, -2.690000057220459, 2.690000057220459, -10.760000228881836)
2024/05/03/13:37:53.353492;258983;1714768673;406805835;;['BL_Position', 'BL_Wheel', 'BR_Position', 'BR_Wheel', 'FL_Position', 'FL_Wheel', 'FR_Position', 'FR_Wheel'];(0.7853981852531433, 2826.09423828125, -0.7853981852531433, 2904.687744140625, -0.7853981852531433, 2824.44677734375, 0.7853981852531433, 2909.15478515625);(0.0, 0.0, 0.0, 0.0, 0.0, 0.0, 0.0, 0.0);(5.380000114440918, 99.52999877929688, -13.450000762939453, 5.380000114440918, -5.380000114440918, -2.690000057220459, 5.380000114440918, -10.760000228881836)
2024/05/03/13:37:53.370267;258984;1714768673;422841390;;['BL_Position', 'BL_Wheel', 'BR_Position', 'BR_Wheel', 'FL_Position', 'FL_Wheel', 'FR_Position', 'FR_Wheel'];(0.7838642001152039, 2826.09423828125, -0.7853981852531433, 2904.689453125, -0.7853981852531433, 2824.44677734375, 0.7853981852531433, 2909.15478515625);(0.0, 0.0, 0.0, 0.0, 0.0, 0.0, 0.0, 0.0);(5.380000114440918, 99.52999877929688, -8.069999694824219, 5.380000114440918, -5.380000114440918, -2.690000057220459, 2.690000057220459, -10.760000228881836)
2024/05/03/13:37:53.387500;258985;1714768673;438834538;;['BL_Position', 'BL_Wheel', 'BR_Position', 'BR_Wheel', 'FL_Position', 'FL_Wheel', 'FR_Position', 'FR_Wheel'];(0.7853981852531433, 2826.09423828125, -0.7853981852531433, 2904.687744140625, -0.7853981852531433, 2824.44677734375, 0.7853981852531433, 2909.15478515625);(0.0, 0.0, 0.0, 0.0, 0.0, 0.0, 0.0, 0.0);(5.380000114440918, 99.52999877929688, -10.760000228881836, 5.380000114440918, -5.380000114440918, -2.690000057220459, 2.690000057220459, -10.760000228881836)
2024/05/03/13:37:53.401464;258986;1714768673;454875408;;['BL_Position', 'BL_Wheel', 'BR_Position', 'BR_Wheel', 'FL_Position', 'FL_Wheel', 'FR_Position', 'FR_Wheel'];(0.7853981852531433, 2826.09423828125, -0.7853981852531433, 2904.687744140625, -0.7853981852531433, 2824.44677734375, 0.7853981852531433, 2909.15478515625);(0.0, 0.0, 0.0, 0.0, 0.0, 0.0, 0.0, 0.0);(5.380000114440918, 99.52999877929688, -10.760000228881836, 5.380000114440918, -5.380000114440918, -2.690000057220459, 5.380000114440918, -10.760000228881836)
2024/05/03/13:37:53.417903;258987;1714768673;470838019;;['BL_Position', 'BL_Wheel', 'BR_Position', 'BR_Wheel', 'FL_Position', 'FL_Wheel', 'FR_Position', 'FR_Wheel'];(0.7853981852531433, 2826.09423828125, -0.7853981852531433, 2904.687744140625, -0.7853981852531433, 2824.44677734375, 0.7853981852531433, 2909.15478515625);(0.0, 0.0, 0.0, 0.0, 0.0, 0.0, 0.0, 0.0);(5.380000114440918, 99.52999877929688, -13.450000762939453, 5.380000114440918, -5.380000114440918, -2.690000057220459, 5.380000114440918, -10.760000228881836)
2024/05/03/13:37:53.433792;258988;1714768673;487447963;;['BL_Position', 'BL_Wheel', 'BR_Position', 'BR_Wheel', 'FL_Position', 'FL_Wheel', 'FR_Position', 'FR_Wheel'];(0.7838642001152039, 2826.09423828125, -0.7853981852531433, 2904.689453125, -0.7853981852531433, 2824.44677734375, 0.7853981852531433, 2909.15478515625);(0.0, 0.0, 0.0, 0.0, 0.0, 0.0, 0.0, 0.0);(5.380000114440918, 99.52999877929688, -13.450000762939453, 5.380000114440918, -5.380000114440918, -2.690000057220459, 5.380000114440918, -10.760000228881836)
2024/05/03/13:37:53.449806;258989;1714768673;503067573;;['BL_Position', 'BL_Wheel', 'BR_Position', 'BR_Wheel', 'FL_Position', 'FL_Wheel', 'FR_Position', 'FR_Wheel'];(0.7838642001152039, 2826.09423828125, -0.7853981852531433, 2904.687744140625, -0.7853981852531433, 2824.44677734375, 0.7853981852531433, 2909.15478515625);(0.0, 0.0, 0.0, 0.0, 0.0, 0.0, 0.0, 0.0);(5.380000114440918, 99.52999877929688, -16.139999389648438, 5.380000114440918, -5.380000114440918, -2.690000057220459, 5.380000114440918, -10.760000228881836)
2024/05/03/13:37:53.470864;258990;1714768673;518836258;;['BL_Position', 'BL_Wheel', 'BR_Position', 'BR_Wheel', 'FL_Position', 'FL_Wheel', 'FR_Position', 'FR_Wheel'];(0.7853981852531433, 2826.09423828125, -0.7838642001152039, 2904.689453125, -0.7853981852531433, 2824.44677734375, 0.7853981852531433, 2909.1533203125);(0.0, 0.0, 0.0, 0.0, 0.0, 0.0, 0.0, 0.0);(5.380000114440918, 99.52999877929688, -13.450000762939453, 5.380000114440918, -5.380000114440918, -2.690000057220459, 2.690000057220459, -10.760000228881836)
2024/05/03/13:37:53.484388;258991;1714768673;535325851;;['BL_Position', 'BL_Wheel', 'BR_Position', 'BR_Wheel', 'FL_Position', 'FL_Wheel', 'FR_Position', 'FR_Wheel'];(0.7853981852531433, 2826.09423828125, -0.7838642001152039, 2904.689453125, -0.7853981852531433, 2824.44677734375, 0.7853981852531433, 2909.15478515625);(0.0, 0.0, 0.0, 0.0, 0.0, 0.0, 0.0, 0.0);(5.380000114440918, 99.52999877929688, -10.760000228881836, 5.380000114440918, -8.069999694824219, -2.690000057220459, 2.690000057220459, -10.760000228881836)
2024/05/03/13:37:53.497639;258992;1714768673;550841665;;['BL_Position', 'BL_Wheel', 'BR_Position', 'BR_Wheel', 'FL_Position', 'FL_Wheel', 'FR_Position', 'FR_Wheel'];(0.7838642001152039, 2826.09423828125, -0.7853981852531433, 2904.689453125, -0.7853981852531433, 2824.44677734375, 0.7838642001152039, 2909.15478515625);(0.0, 0.0, 0.0, 0.0, 0.0, 0.0, 0.0, 0.0);(5.380000114440918, 99.52999877929688, -8.069999694824219, 5.380000114440918, -5.380000114440918, -2.690000057220459, 5.380000114440918, -10.760000228881836)
2024/05/03/13:37:53.513920;258993;1714768673;566874183;;['BL_Position', 'BL_Wheel', 'BR_Position', 'BR_Wheel', 'FL_Position', 'FL_Wheel', 'FR_Position', 'FR_Wheel'];(0.7853981852531433, 2826.09423828125, -0.7838642001152039, 2904.689453125, -0.7853981852531433, 2824.44677734375, 0.7853981852531433, 2909.1533203125);(0.0, 0.0, 0.0, 0.0, 0.0, 0.0, 0.0, 0.0);(5.380000114440918, 99.52999877929688, -8.069999694824219, 5.380000114440918, -5.380000114440918, -2.690000057220459, 2.690000057220459, -10.760000228881836)
2024/05/03/13:37:53.529269;258994;1714768673;582858535;;['BL_Position', 'BL_Wheel', 'BR_Position', 'BR_Wheel', 'FL_Position', 'FL_Wheel', 'FR_Position', 'FR_Wheel'];(0.7838642001152039, 2826.09423828125, -0.7853981852531433, 2904.687744140625, -0.7853981852531433, 2824.44677734375, 0.7838642001152039, 2909.15478515625);(0.0, 0.0, 0.0, 0.0, 0.0, 0.0, 0.0, 0.0);(5.380000114440918, 99.52999877929688, -18.829999923706055, 5.380000114440918, -5.380000114440918, -2.690000057220459, 5.380000114440918, -10.760000228881836)
2024/05/03/13:37:53.552075;258995;1714768673;598821072;;['BL_Position', 'BL_Wheel', 'BR_Position', 'BR_Wheel', 'FL_Position', 'FL_Wheel', 'FR_Position', 'FR_Wheel'];(0.7853981852531433, 2826.09423828125, -0.7853981852531433, 2904.689453125, -0.7853981852531433, 2824.44677734375, 0.7853981852531433, 2909.15478515625);(0.0, 0.0, 0.0, 0.0, 0.0, 0.0, 0.0, 0.0);(5.380000114440918, 99.52999877929688, -13.450000762939453, 5.380000114440918, -5.380000114440918, -2.690000057220459, 5.380000114440918, -10.760000228881836)
2024/05/03/13:37:53.573499;258996;1714768673;614818293;;['BL_Position', 'BL_Wheel', 'BR_Position', 'BR_Wheel', 'FL_Position', 'FL_Wheel', 'FR_Position', 'FR_Wheel'];(0.7853981852531433, 2826.09423828125, -0.7853981852531433, 2904.687744140625, -0.7853981852531433, 2824.44677734375, 0.7853981852531433, 2909.15478515625);(0.0, 0.0, 0.0, 0.0, 0.0, 0.0, 0.0, 0.0);(5.380000114440918, 99.52999877929688, -13.450000762939453, 5.380000114440918, -5.380000114440918, -2.690000057220459, 2.690000057220459, -10.760000228881836)
2024/05/03/13:37:53.579034;258997;1714768673;630867256;;['BL_Position', 'BL_Wheel', 'BR_Position', 'BR_Wheel', 'FL_Position', 'FL_Wheel', 'FR_Position', 'FR_Wheel'];(0.7853981852531433, 2826.09423828125, -0.7853981852531433, 2904.687744140625, -0.7853981852531433, 2824.44677734375, 0.7853981852531433, 2909.15478515625);(0.0, 0.0, 0.0, 0.0, 0.0, 0.0, 0.0, 0.0);(5.380000114440918, 99.52999877929688, -10.760000228881836, 5.380000114440918, -8.069999694824219, -2.690000057220459, 5.380000114440918, -10.760000228881836)
2024/05/03/13:37:53.593517;258998;1714768673;646868163;;['BL_Position', 'BL_Wheel', 'BR_Position', 'BR_Wheel', 'FL_Position', 'FL_Wheel', 'FR_Position', 'FR_Wheel'];(0.7853981852531433, 2826.09423828125, -0.7853981852531433, 2904.689453125, -0.7853981852531433, 2824.44677734375, 0.7853981852531433, 2909.15478515625);(0.0, 0.0, 0.0, 0.0, 0.0, 0.0, 0.0, 0.0);(5.380000114440918, 99.52999877929688, -8.069999694824219, 5.380000114440918, -5.380000114440918, -2.690000057220459, 2.690000057220459, -10.760000228881836)
2024/05/03/13:37:53.609311;258999;1714768673;662854959;;['BL_Position', 'BL_Wheel', 'BR_Position', 'BR_Wheel', 'FL_Position', 'FL_Wheel', 'FR_Position', 'FR_Wheel'];(0.7853981852531433, 2826.09423828125, -0.7853981852531433, 2904.687744140625, -0.7853981852531433, 2824.44677734375, 0.7853981852531433, 2909.15478515625);(0.0, 0.0, 0.0, 0.0, 0.0, 0.0, 0.0, 0.0);(5.380000114440918, 99.52999877929688, -10.760000228881836, 5.380000114440918, -5.380000114440918, -2.690000057220459, 2.690000057220459, -10.760000228881836)
2024/05/03/13:37:53.625499;259000;1714768673;678831459;;['BL_Position', 'BL_Wheel', 'BR_Position', 'BR_Wheel', 'FL_Position', 'FL_Wheel', 'FR_Position', 'FR_Wheel'];(0.7853981852531433, 2826.09423828125, -0.7853981852531433, 2904.687744140625, -0.7853981852531433, 2824.44677734375, 0.7853981852531433, 2909.15478515625);(0.0, 0.0, 0.0, 0.0, 0.0, 0.0, 0.0, 0.0);(5.380000114440918, 99.52999877929688, -10.760000228881836, 5.380000114440918, -5.380000114440918, -2.690000057220459, 2.690000057220459, -10.760000228881836)
2024/05/03/13:37:53.641466;259001;1714768673;694831440;;['BL_Position', 'BL_Wheel', 'BR_Position', 'BR_Wheel', 'FL_Position', 'FL_Wheel', 'FR_Position', 'FR_Wheel'];(0.7853981852531433, 2826.09423828125, -0.7838642001152039, 2904.687744140625, -0.7853981852531433, 2824.44677734375, 0.7853981852531433, 2909.15478515625);(0.0, 0.0, 0.0, 0.0, 0.0, 0.0, 0.0, 0.0);(5.380000114440918, 99.52999877929688, -16.139999389648438, 5.380000114440918, -5.380000114440918, -2.690000057220459, 2.690000057220459, -10.760000228881836)
2024/05/03/13:37:53.657558;259002;1714768673;711118977;;['BL_Position', 'BL_Wheel', 'BR_Position', 'BR_Wheel', 'FL_Position', 'FL_Wheel', 'FR_Position', 'FR_Wheel'];(0.7838642001152039, 2826.09423828125, -0.7853981852531433, 2904.689453125, -0.7853981852531433, 2824.44677734375, 0.7853981852531433, 2909.1533203125);(0.0, 0.0, 0.0, 0.0, 0.0, 0.0, 0.0, 0.0);(5.380000114440918, 99.52999877929688, -8.069999694824219, 5.380000114440918, -8.069999694824219, -2.690000057220459, 5.380000114440918, -10.760000228881836)
2024/05/03/13:37:53.675776;259003;1714768673;727422513;;['BL_Position', 'BL_Wheel', 'BR_Position', 'BR_Wheel', 'FL_Position', 'FL_Wheel', 'FR_Position', 'FR_Wheel'];(0.7853981852531433, 2826.09423828125, -0.7853981852531433, 2904.687744140625, -0.7853981852531433, 2824.44677734375, 0.7853981852531433, 2909.15478515625);(0.0, 0.0, 0.0, 0.0, 0.0, 0.0, 0.0, 0.0);(5.380000114440918, 99.52999877929688, -13.450000762939453, 5.380000114440918, -5.380000114440918, -2.690000057220459, 5.380000114440918, -10.760000228881836)
2024/05/03/13:37:53.690576;259004;1714768673;742845976;;['BL_Position', 'BL_Wheel', 'BR_Position', 'BR_Wheel', 'FL_Position', 'FL_Wheel', 'FR_Position', 'FR_Wheel'];(0.7853981852531433, 2826.09423828125, -0.7853981852531433, 2904.689453125, -0.7853981852531433, 2824.44677734375, 0.7853981852531433, 2909.1533203125);(0.0, 0.0, 0.0, 0.0, 0.0, 0.0, 0.0, 0.0);(5.380000114440918, 99.52999877929688, -8.069999694824219, 5.380000114440918, -5.380000114440918, -2.690000057220459, 5.380000114440918, -10.760000228881836)
2024/05/03/13:37:53.706105;259005;1714768673;759206050;;['BL_Position', 'BL_Wheel', 'BR_Position', 'BR_Wheel', 'FL_Position', 'FL_Wheel', 'FR_Position', 'FR_Wheel'];(0.7853981852531433, 2826.09423828125, -0.7853981852531433, 2904.687744140625, -0.7853981852531433, 2824.44677734375, 0.7838642001152039, 2909.1533203125);(0.0, 0.0, 0.0, 0.0, 0.0, 0.0, 0.0, 0.0);(5.380000114440918, 99.52999877929688, -8.069999694824219, 5.380000114440918, -5.380000114440918, -2.690000057220459, 5.380000114440918, -10.760000228881836)
2024/05/03/13:37:53.721881;259006;1714768673;774840642;;['BL_Position', 'BL_Wheel', 'BR_Position', 'BR_Wheel', 'FL_Position', 'FL_Wheel', 'FR_Position', 'FR_Wheel'];(0.7853981852531433, 2826.09423828125, -0.7838642001152039, 2904.689453125, -0.7853981852531433, 2824.44677734375, 0.7853981852531433, 2909.15478515625);(0.0, 0.0, 0.0, 0.0, 0.0, 0.0, 0.0, 0.0);(5.380000114440918, 99.52999877929688, -8.069999694824219, 5.380000114440918, -8.069999694824219, -2.690000057220459, 5.380000114440918, -10.760000228881836)
2024/05/03/13:37:53.737658;259007;1714768673;790805679;;['BL_Position', 'BL_Wheel', 'BR_Position', 'BR_Wheel', 'FL_Position', 'FL_Wheel', 'FR_Position', 'FR_Wheel'];(0.7853981852531433, 2826.09423828125, -0.7838642001152039, 2904.687744140625, -0.7853981852531433, 2824.44677734375, 0.7853981852531433, 2909.15478515625);(0.0, 0.0, 0.0, 0.0, 0.0, 0.0, 0.0, 0.0);(5.380000114440918, 99.52999877929688, -8.069999694824219, 5.380000114440918, -5.380000114440918, -2.690000057220459, 2.690000057220459, -10.760000228881836)
2024/05/03/13:37:53.757215;259008;1714768673;806837604;;['BL_Position', 'BL_Wheel', 'BR_Position', 'BR_Wheel', 'FL_Position', 'FL_Wheel', 'FR_Position', 'FR_Wheel'];(0.7853981852531433, 2826.09423828125, -0.7853981852531433, 2904.687744140625, -0.7853981852531433, 2824.44677734375, 0.7853981852531433, 2909.15478515625);(0.0, 0.0, 0.0, 0.0, 0.0, 0.0, 0.0, 0.0);(5.380000114440918, 99.52999877929688, -13.450000762939453, 5.380000114440918, -5.380000114440918, -2.690000057220459, 2.690000057220459, -10.760000228881836)
2024/05/03/13:37:53.768657;259009;1714768673;822873474;;['BL_Position', 'BL_Wheel', 'BR_Position', 'BR_Wheel', 'FL_Position', 'FL_Wheel', 'FR_Position', 'FR_Wheel'];(0.7853981852531433, 2826.0927734375, -0.7853981852531433, 2904.689453125, -0.7853981852531433, 2824.44677734375, 0.7838642001152039, 2909.15478515625);(0.0, 0.0, 0.0, 0.0, 0.0, 0.0, 0.0, 0.0);(5.380000114440918, 99.52999877929688, -13.450000762939453, 5.380000114440918, -5.380000114440918, -2.690000057220459, 2.690000057220459, -10.760000228881836)
2024/05/03/13:37:53.785245;259010;1714768673;838830270;;['BL_Position', 'BL_Wheel', 'BR_Position', 'BR_Wheel', 'FL_Position', 'FL_Wheel', 'FR_Position', 'FR_Wheel'];(0.7838642001152039, 2826.09423828125, -0.7838642001152039, 2904.687744140625, -0.7853981852531433, 2824.44677734375, 0.7853981852531433, 2909.15478515625);(0.0, 0.0, 0.0, 0.0, 0.0, 0.0, 0.0, 0.0);(5.380000114440918, 99.52999877929688, -10.760000228881836, 5.380000114440918, -5.380000114440918, -2.690000057220459, 2.690000057220459, -10.760000228881836)
2024/05/03/13:37:53.800793;259011;1714768673;855396474;;['BL_Position', 'BL_Wheel', 'BR_Position', 'BR_Wheel', 'FL_Position', 'FL_Wheel', 'FR_Position', 'FR_Wheel'];(0.7853981852531433, 2826.09423828125, -0.7838642001152039, 2904.687744140625, -0.7853981852531433, 2824.44677734375, 0.7853981852531433, 2909.15478515625);(0.0, 0.0, 0.0, 0.0, 0.0, 0.0, 0.0, 0.0);(5.380000114440918, 99.52999877929688, -10.760000228881836, 5.380000114440918, -5.380000114440918, -2.690000057220459, 5.380000114440918, -10.760000228881836)
2024/05/03/13:37:53.817770;259012;1714768673;870854881;;['BL_Position', 'BL_Wheel', 'BR_Position', 'BR_Wheel', 'FL_Position', 'FL_Wheel', 'FR_Position', 'FR_Wheel'];(0.7853981852531433, 2826.09423828125, -0.7853981852531433, 2904.687744140625, -0.7838642001152039, 2824.44677734375, 0.7853981852531433, 2909.15478515625);(0.0, 0.0, 0.0, 0.0, 0.0, 0.0, 0.0, 0.0);(5.380000114440918, 99.52999877929688, -8.069999694824219, 5.380000114440918, -5.380000114440918, -2.690000057220459, 5.380000114440918, -10.760000228881836)
2024/05/03/13:37:53.833523;259013;1714768673;886815084;;['BL_Position', 'BL_Wheel', 'BR_Position', 'BR_Wheel', 'FL_Position', 'FL_Wheel', 'FR_Position', 'FR_Wheel'];(0.7853981852531433, 2826.09423828125, -0.7853981852531433, 2904.687744140625, -0.7853981852531433, 2824.44677734375, 0.7853981852531433, 2909.15478515625);(0.0, 0.0, 0.0, 0.0, 0.0, 0.0, 0.0, 0.0);(5.380000114440918, 99.52999877929688, -10.760000228881836, 5.380000114440918, -8.069999694824219, -2.690000057220459, 5.380000114440918, -10.760000228881836)
2024/05/03/13:37:53.861376;259014;1714768673;903727991;;['BL_Position', 'BL_Wheel', 'BR_Position', 'BR_Wheel', 'FL_Position', 'FL_Wheel', 'FR_Position', 'FR_Wheel'];(0.7853981852531433, 2826.09423828125, -0.7838642001152039, 2904.689453125, -0.7853981852531433, 2824.44677734375, 0.7853981852531433, 2909.15478515625);(0.0, 0.0, 0.0, 0.0, 0.0, 0.0, 0.0, 0.0);(5.380000114440918, 99.52999877929688, -10.760000228881836, 5.380000114440918, -8.069999694824219, -2.690000057220459, 5.380000114440918, -10.760000228881836)
2024/05/03/13:37:53.877478;259015;1714768673;918868676;;['BL_Position', 'BL_Wheel', 'BR_Position', 'BR_Wheel', 'FL_Position', 'FL_Wheel', 'FR_Position', 'FR_Wheel'];(0.7853981852531433, 2826.09423828125, -0.7853981852531433, 2904.687744140625, -0.7853981852531433, 2824.44677734375, 0.7853981852531433, 2909.15478515625);(0.0, 0.0, 0.0, 0.0, 0.0, 0.0, 0.0, 0.0);(5.380000114440918, 99.52999877929688, -10.760000228881836, 5.380000114440918, -5.380000114440918, -2.690000057220459, 2.690000057220459, -10.760000228881836)
2024/05/03/13:37:53.885250;259016;1714768673;934862953;;['BL_Position', 'BL_Wheel', 'BR_Position', 'BR_Wheel', 'FL_Position', 'FL_Wheel', 'FR_Position', 'FR_Wheel'];(0.7853981852531433, 2826.09423828125, -0.7838642001152039, 2904.689453125, -0.7853981852531433, 2824.44677734375, 0.7853981852531433, 2909.15478515625);(0.0, 0.0, 0.0, 0.0, 0.0, 0.0, 0.0, 0.0);(5.380000114440918, 99.52999877929688, -13.450000762939453, 5.380000114440918, -5.380000114440918, -2.690000057220459, 2.690000057220459, -10.760000228881836)
2024/05/03/13:37:53.901067;259017;1714768673;950807305;;['BL_Position', 'BL_Wheel', 'BR_Position', 'BR_Wheel', 'FL_Position', 'FL_Wheel', 'FR_Position', 'FR_Wheel'];(0.7853981852531433, 2826.09423828125, -0.7853981852531433, 2904.687744140625, -0.7853981852531433, 2824.44677734375, 0.7838642001152039, 2909.15478515625);(0.0, 0.0, 0.0, 0.0, 0.0, 0.0, 0.0, 0.0);(5.380000114440918, 99.52999877929688, -10.760000228881836, 5.380000114440918, -5.380000114440918, -2.690000057220459, 2.690000057220459, -10.760000228881836)
2024/05/03/13:37:53.913460;259018;1714768673;966832268;;['BL_Position', 'BL_Wheel', 'BR_Position', 'BR_Wheel', 'FL_Position', 'FL_Wheel', 'FR_Position', 'FR_Wheel'];(0.7853981852531433, 2826.09423828125, -0.7853981852531433, 2904.687744140625, -0.7853981852531433, 2824.44677734375, 0.7853981852531433, 2909.15478515625);(0.0, 0.0, 0.0, 0.0, 0.0, 0.0, 0.0, 0.0);(5.380000114440918, 99.52999877929688, -8.069999694824219, 5.380000114440918, -5.380000114440918, -2.690000057220459, 5.380000114440918, -10.760000228881836)
2024/05/03/13:37:53.929165;259019;1714768673;982843915;;['BL_Position', 'BL_Wheel', 'BR_Position', 'BR_Wheel', 'FL_Position', 'FL_Wheel', 'FR_Position', 'FR_Wheel'];(0.7853981852531433, 2826.09423828125, -0.7838642001152039, 2904.687744140625, -0.7853981852531433, 2824.44677734375, 0.7838642001152039, 2909.15478515625);(0.0, 0.0, 0.0, 0.0, 0.0, 0.0, 0.0, 0.0);(5.380000114440918, 99.52999877929688, -10.760000228881836, 5.380000114440918, -5.380000114440918, -2.690000057220459, 5.380000114440918, -10.760000228881836)
2024/05/03/13:37:53.946102;259020;1714768673;999010119;;['BL_Position', 'BL_Wheel', 'BR_Position', 'BR_Wheel', 'FL_Position', 'FL_Wheel', 'FR_Position', 'FR_Wheel'];(0.7853981852531433, 2826.09423828125, -0.7853981852531433, 2904.689453125, -0.7853981852531433, 2824.44677734375, 0.7853981852531433, 2909.15478515625);(0.0, 0.0, 0.0, 0.0, 0.0, 0.0, 0.0, 0.0);(5.380000114440918, 99.52999877929688, -10.760000228881836, 5.380000114440918, -5.380000114440918, -2.690000057220459, 5.380000114440918, -10.760000228881836)
2024/05/03/13:37:53.961445;259021;1714768674;14857785;;['BL_Position', 'BL_Wheel', 'BR_Position', 'BR_Wheel', 'FL_Position', 'FL_Wheel', 'FR_Position', 'FR_Wheel'];(0.7853981852531433, 2826.09423828125, -0.7853981852531433, 2904.687744140625, -0.7853981852531433, 2824.44677734375, 0.7853981852531433, 2909.15478515625);(0.0, 0.0, 0.0, 0.0, 0.0, 0.0, 0.0, 0.0);(5.380000114440918, 99.52999877929688, -10.760000228881836, 5.380000114440918, -5.380000114440918, -2.690000057220459, 5.380000114440918, -10.760000228881836)
2024/05/03/13:37:53.983447;259022;1714768674;31654525;;['BL_Position', 'BL_Wheel', 'BR_Position', 'BR_Wheel', 'FL_Position', 'FL_Wheel', 'FR_Position', 'FR_Wheel'];(0.7853981852531433, 2826.09423828125, -0.7853981852531433, 2904.687744140625, -0.7853981852531433, 2824.44677734375, 0.7853981852531433, 2909.1533203125);(0.0, 0.0, 0.0, 0.0, 0.0, 0.0, 0.0, 0.0);(5.380000114440918, 99.52999877929688, -8.069999694824219, 5.380000114440918, -5.380000114440918, -2.690000057220459, 5.380000114440918, -10.760000228881836)
2024/05/03/13:37:53.997637;259023;1714768674;47049877;;['BL_Position', 'BL_Wheel', 'BR_Position', 'BR_Wheel', 'FL_Position', 'FL_Wheel', 'FR_Position', 'FR_Wheel'];(0.7853981852531433, 2826.09423828125, -0.7853981852531433, 2904.687744140625, -0.7853981852531433, 2824.44677734375, 0.7838642001152039, 2909.15478515625);(0.0, 0.0, 0.0, 0.0, 0.0, 0.0, 0.0, 0.0);(8.069999694824219, 99.52999877929688, -16.139999389648438, 5.380000114440918, -5.380000114440918, -2.690000057220459, 5.380000114440918, -10.760000228881836)
2024/05/03/13:37:54.009467;259024;1714768674;62771340;;['BL_Position', 'BL_Wheel', 'BR_Position', 'BR_Wheel', 'FL_Position', 'FL_Wheel', 'FR_Position', 'FR_Wheel'];(0.7853981852531433, 2826.0927734375, -0.7853981852531433, 2904.687744140625, -0.7853981852531433, 2824.44677734375, 0.7853981852531433, 2909.1533203125);(0.0, 0.0, 0.0, 0.0, 0.0, 0.0, 0.0, 0.0);(5.380000114440918, 99.52999877929688, -8.069999694824219, 5.380000114440918, -5.380000114440918, -2.690000057220459, 5.380000114440918, -10.760000228881836)
2024/05/03/13:37:54.025153;259025;1714768674;79142025;;['BL_Position', 'BL_Wheel', 'BR_Position', 'BR_Wheel', 'FL_Position', 'FL_Wheel', 'FR_Position', 'FR_Wheel'];(0.7853981852531433, 2826.09423828125, -0.7853981852531433, 2904.687744140625, -0.7853981852531433, 2824.44677734375, 0.7853981852531433, 2909.15478515625);(0.0, 0.0, 0.0, 0.0, 0.0, 0.0, 0.0, 0.0);(5.380000114440918, 99.52999877929688, -13.450000762939453, 5.380000114440918, -5.380000114440918, -2.690000057220459, 5.380000114440918, -10.760000228881836)
2024/05/03/13:37:54.040049;259026;1714768674;94762376;;['BL_Position', 'BL_Wheel', 'BR_Position', 'BR_Wheel', 'FL_Position', 'FL_Wheel', 'FR_Position', 'FR_Wheel'];(0.7853981852531433, 2826.09423828125, -0.7853981852531433, 2904.687744140625, -0.7853981852531433, 2824.44677734375, 0.7853981852531433, 2909.15478515625);(0.0, 0.0, 0.0, 0.0, 0.0, 0.0, 0.0, 0.0);(5.380000114440918, 99.52999877929688, -10.760000228881836, 5.380000114440918, -5.380000114440918, -2.690000057220459, 5.380000114440918, -10.760000228881836)
2024/05/03/13:37:54.057169;259027;1714768674;110799635;;['BL_Position', 'BL_Wheel', 'BR_Position', 'BR_Wheel', 'FL_Position', 'FL_Wheel', 'FR_Position', 'FR_Wheel'];(0.7853981852531433, 2826.09423828125, -0.7853981852531433, 2904.687744140625, -0.7853981852531433, 2824.44677734375, 0.7853981852531433, 2909.1533203125);(0.0, 0.0, 0.0, 0.0, 0.0, 0.0, 0.0, 0.0);(5.380000114440918, 99.52999877929688, -8.069999694824219, 5.380000114440918, -5.380000114440918, -2.690000057220459, 5.380000114440918, -10.760000228881836)
2024/05/03/13:37:54.085075;259028;1714768674;126847264;;['BL_Position', 'BL_Wheel', 'BR_Position', 'BR_Wheel', 'FL_Position', 'FL_Wheel', 'FR_Position', 'FR_Wheel'];(0.7853981852531433, 2826.09423828125, -0.7853981852531433, 2904.689453125, -0.7853981852531433, 2824.44677734375, 0.7853981852531433, 2909.15478515625);(0.0, 0.0, 0.0, 0.0, 0.0, 0.0, 0.0, 0.0);(5.380000114440918, 99.52999877929688, -13.450000762939453, 5.380000114440918, -5.380000114440918, -2.690000057220459, 5.380000114440918, -10.760000228881836)
2024/05/03/13:37:54.097724;259029;1714768674;142839338;;['BL_Position', 'BL_Wheel', 'BR_Position', 'BR_Wheel', 'FL_Position', 'FL_Wheel', 'FR_Position', 'FR_Wheel'];(0.7853981852531433, 2826.09423828125, -0.7853981852531433, 2904.687744140625, -0.7853981852531433, 2824.44677734375, 0.7853981852531433, 2909.15478515625);(0.0, 0.0, 0.0, 0.0, 0.0, 0.0, 0.0, 0.0);(5.380000114440918, 99.52999877929688, -10.760000228881836, 5.380000114440918, -5.380000114440918, -2.690000057220459, 2.690000057220459, -10.760000228881836)
2024/05/03/13:37:54.107061;259030;1714768674;158831912;;['BL_Position', 'BL_Wheel', 'BR_Position', 'BR_Wheel', 'FL_Position', 'FL_Wheel', 'FR_Position', 'FR_Wheel'];(0.7838642001152039, 2826.09423828125, -0.7853981852531433, 2904.687744140625, -0.7853981852531433, 2824.44677734375, 0.7853981852531433, 2909.15478515625);(0.0, 0.0, 0.0, 0.0, 0.0, 0.0, 0.0, 0.0);(5.380000114440918, 99.52999877929688, -8.069999694824219, 5.380000114440918, -5.380000114440918, -2.690000057220459, 2.690000057220459, -10.760000228881836)
2024/05/03/13:37:54.122535;259031;1714768674;175053171;;['BL_Position', 'BL_Wheel', 'BR_Position', 'BR_Wheel', 'FL_Position', 'FL_Wheel', 'FR_Position', 'FR_Wheel'];(0.7853981852531433, 2826.09423828125, -0.7838642001152039, 2904.689453125, -0.7853981852531433, 2824.44677734375, 0.7853981852531433, 2909.15478515625);(0.0, 0.0, 0.0, 0.0, 0.0, 0.0, 0.0, 0.0);(5.380000114440918, 99.52999877929688, -10.760000228881836, 5.380000114440918, -5.380000114440918, -2.690000057220459, 5.380000114440918, -10.760000228881836)
2024/05/03/13:37:54.137259;259032;1714768674;190824726;;['BL_Position', 'BL_Wheel', 'BR_Position', 'BR_Wheel', 'FL_Position', 'FL_Wheel', 'FR_Position', 'FR_Wheel'];(0.7853981852531433, 2826.09423828125, -0.7853981852531433, 2904.687744140625, -0.7853981852531433, 2824.44677734375, 0.7838642001152039, 2909.15478515625);(0.0, 0.0, 0.0, 0.0, 0.0, 0.0, 0.0, 0.0);(5.380000114440918, 99.52999877929688, -8.069999694824219, 5.380000114440918, -5.380000114440918, -2.690000057220459, 5.380000114440918, -10.760000228881836)
2024/05/03/13:37:54.221650;259033;1714768674;207413337;;['BL_Position', 'BL_Wheel', 'BR_Position', 'BR_Wheel', 'FL_Position', 'FL_Wheel', 'FR_Position', 'FR_Wheel'];(0.7853981852531433, 2826.09423828125, -0.7838642001152039, 2904.687744140625, -0.7853981852531433, 2824.44677734375, 0.7838642001152039, 2909.1533203125);(0.0, 0.0, 0.0, 0.0, 0.0, 0.0, 0.0, 0.0);(5.380000114440918, 99.52999877929688, -8.069999694824219, 5.380000114440918, -5.380000114440918, -2.690000057220459, 5.380000114440918, -10.760000228881836)
2024/05/03/13:37:54.244934;259034;1714768674;224615781;;['BL_Position', 'BL_Wheel', 'BR_Position', 'BR_Wheel', 'FL_Position', 'FL_Wheel', 'FR_Position', 'FR_Wheel'];(0.7853981852531433, 2826.09423828125, -0.7853981852531433, 2904.687744140625, -0.7853981852531433, 2824.44677734375, 0.7853981852531433, 2909.15478515625);(0.0, 0.0, 0.0, 0.0, 0.0, 0.0, 0.0, 0.0);(5.380000114440918, 99.52999877929688, -8.069999694824219, 5.380000114440918, -5.380000114440918, -2.690000057220459, 5.380000114440918, -10.760000228881836)
2024/05/03/13:37:54.245092;259035;1714768674;238772447;;['BL_Position', 'BL_Wheel', 'BR_Position', 'BR_Wheel', 'FL_Position', 'FL_Wheel', 'FR_Position', 'FR_Wheel'];(0.7838642001152039, 2826.09423828125, -0.7838642001152039, 2904.687744140625, -0.7853981852531433, 2824.44677734375, 0.7838642001152039, 2909.15478515625);(0.0, 0.0, 0.0, 0.0, 0.0, 0.0, 0.0, 0.0);(5.380000114440918, 99.52999877929688, -10.760000228881836, 5.380000114440918, -5.380000114440918, -2.690000057220459, 5.380000114440918, -10.760000228881836)
2024/05/03/13:37:54.245120;259036;1714768674;254807447;;['BL_Position', 'BL_Wheel', 'BR_Position', 'BR_Wheel', 'FL_Position', 'FL_Wheel', 'FR_Position', 'FR_Wheel'];(0.7853981852531433, 2826.09423828125, -0.7853981852531433, 2904.689453125, -0.7853981852531433, 2824.44677734375, 0.7853981852531433, 2909.1533203125);(0.0, 0.0, 0.0, 0.0, 0.0, 0.0, 0.0, 0.0);(5.380000114440918, 99.52999877929688, -8.069999694824219, 5.380000114440918, -5.380000114440918, -2.690000057220459, 5.380000114440918, -10.760000228881836)
2024/05/03/13:37:54.245123;259037;1714768674;270804743;;['BL_Position', 'BL_Wheel', 'BR_Position', 'BR_Wheel', 'FL_Position', 'FL_Wheel', 'FR_Position', 'FR_Wheel'];(0.7853981852531433, 2826.09423828125, -0.7838642001152039, 2904.687744140625, -0.7853981852531433, 2824.44677734375, 0.7853981852531433, 2909.1533203125);(0.0, 0.0, 0.0, 0.0, 0.0, 0.0, 0.0, 0.0);(5.380000114440918, 99.52999877929688, -8.069999694824219, 5.380000114440918, -5.380000114440918, -2.690000057220459, 5.380000114440918, -10.760000228881836)
2024/05/03/13:37:54.272216;259038;1714768674;287308594;;['BL_Position', 'BL_Wheel', 'BR_Position', 'BR_Wheel', 'FL_Position', 'FL_Wheel', 'FR_Position', 'FR_Wheel'];(0.7853981852531433, 2826.09423828125, -0.7853981852531433, 2904.687744140625, -0.7853981852531433, 2824.44677734375, 0.7853981852531433, 2909.15478515625);(0.0, 0.0, 0.0, 0.0, 0.0, 0.0, 0.0, 0.0);(5.380000114440918, 99.52999877929688, -8.069999694824219, 5.380000114440918, -5.380000114440918, -2.690000057220459, 2.690000057220459, -10.760000228881836)
2024/05/03/13:37:54.272243;259039;1714768674;303092483;;['BL_Position', 'BL_Wheel', 'BR_Position', 'BR_Wheel', 'FL_Position', 'FL_Wheel', 'FR_Position', 'FR_Wheel'];(0.7853981852531433, 2826.09423828125, -0.7853981852531433, 2904.687744140625, -0.7853981852531433, 2824.44677734375, 0.7853981852531433, 2909.1533203125);(0.0, 0.0, 0.0, 0.0, 0.0, 0.0, 0.0, 0.0);(8.069999694824219, 99.52999877929688, -8.069999694824219, 5.380000114440918, -5.380000114440918, -2.690000057220459, 5.380000114440918, -10.760000228881836)
2024/05/03/13:37:54.272287;259040;1714768674;320766464;;['BL_Position', 'BL_Wheel', 'BR_Position', 'BR_Wheel', 'FL_Position', 'FL_Wheel', 'FR_Position', 'FR_Wheel'];(0.7853981852531433, 2826.09423828125, -0.7853981852531433, 2904.689453125, -0.7853981852531433, 2824.44677734375, 0.7853981852531433, 2909.15478515625);(0.0, 0.0, 0.0, 0.0, 0.0, 0.0, 0.0, 0.0);(5.380000114440918, 99.52999877929688, -10.760000228881836, 5.380000114440918, -5.380000114440918, -2.690000057220459, 5.380000114440918, -10.760000228881836)
2024/05/03/13:37:54.285440;259041;1714768674;334780445;;['BL_Position', 'BL_Wheel', 'BR_Position', 'BR_Wheel', 'FL_Position', 'FL_Wheel', 'FR_Position', 'FR_Wheel'];(0.7838642001152039, 2826.09423828125, -0.7853981852531433, 2904.687744140625, -0.7853981852531433, 2824.44677734375, 0.7853981852531433, 2909.15478515625);(0.0, 0.0, 0.0, 0.0, 0.0, 0.0, 0.0, 0.0);(5.380000114440918, 99.52999877929688, -8.069999694824219, 5.380000114440918, -5.380000114440918, -2.690000057220459, 5.380000114440918, -10.760000228881836)
2024/05/03/13:37:54.297216;259042;1714768674;351026963;;['BL_Position', 'BL_Wheel', 'BR_Position', 'BR_Wheel', 'FL_Position', 'FL_Wheel', 'FR_Position', 'FR_Wheel'];(0.7853981852531433, 2826.09423828125, -0.7838642001152039, 2904.687744140625, -0.7838642001152039, 2824.44677734375, 0.7853981852531433, 2909.15478515625);(0.0, 0.0, 0.0, 0.0, 0.0, 0.0, 0.0, 0.0);(5.380000114440918, 99.52999877929688, -10.760000228881836, 5.380000114440918, -5.380000114440918, -2.690000057220459, 5.380000114440918, -10.760000228881836)
2024/05/03/13:37:54.313391;259043;1714768674;366782537;;['BL_Position', 'BL_Wheel', 'BR_Position', 'BR_Wheel', 'FL_Position', 'FL_Wheel', 'FR_Position', 'FR_Wheel'];(0.7853981852531433, 2826.09423828125, -0.7838642001152039, 2904.687744140625, -0.7853981852531433, 2824.44677734375, 0.7853981852531433, 2909.15478515625);(0.0, 0.0, 0.0, 0.0, 0.0, 0.0, 0.0, 0.0);(5.380000114440918, 99.52999877929688, -10.760000228881836, 5.380000114440918, -5.380000114440918, -2.690000057220459, 5.380000114440918, -10.760000228881836)
2024/05/03/13:37:54.329690;259044;1714768674;382767611;;['BL_Position', 'BL_Wheel', 'BR_Position', 'BR_Wheel', 'FL_Position', 'FL_Wheel', 'FR_Position', 'FR_Wheel'];(0.7853981852531433, 2826.09423828125, -0.7838642001152039, 2904.687744140625, -0.7853981852531433, 2824.44677734375, 0.7853981852531433, 2909.15478515625);(0.0, 0.0, 0.0, 0.0, 0.0, 0.0, 0.0, 0.0);(5.380000114440918, 99.52999877929688, -10.760000228881836, 5.380000114440918, -5.380000114440918, -2.690000057220459, 2.690000057220459, -10.760000228881836)
2024/05/03/13:37:54.349288;259045;1714768674;398829870;;['BL_Position', 'BL_Wheel', 'BR_Position', 'BR_Wheel', 'FL_Position', 'FL_Wheel', 'FR_Position', 'FR_Wheel'];(0.7853981852531433, 2826.09423828125, -0.7853981852531433, 2904.687744140625, -0.7853981852531433, 2824.44677734375, 0.7853981852531433, 2909.15478515625);(0.0, 0.0, 0.0, 0.0, 0.0, 0.0, 0.0, 0.0);(5.380000114440918, 99.52999877929688, -10.760000228881836, 5.380000114440918, -5.380000114440918, -2.690000057220459, 2.690000057220459, -10.760000228881836)
2024/05/03/13:37:54.376624;259046;1714768674;414806536;;['BL_Position', 'BL_Wheel', 'BR_Position', 'BR_Wheel', 'FL_Position', 'FL_Wheel', 'FR_Position', 'FR_Wheel'];(0.7853981852531433, 2826.09423828125, -0.7853981852531433, 2904.687744140625, -0.7838642001152039, 2824.44677734375, 0.7853981852531433, 2909.1533203125);(0.0, 0.0, 0.0, 0.0, 0.0, 0.0, 0.0, 0.0);(5.380000114440918, 99.52999877929688, -8.069999694824219, 5.380000114440918, -5.380000114440918, -2.690000057220459, 2.690000057220459, -10.760000228881836)
2024/05/03/13:37:54.414854;259047;1714768674;430844406;;['BL_Position', 'BL_Wheel', 'BR_Position', 'BR_Wheel', 'FL_Position', 'FL_Wheel', 'FR_Position', 'FR_Wheel'];(0.7853981852531433, 2826.09423828125, -0.7853981852531433, 2904.687744140625, -0.7853981852531433, 2824.44677734375, 0.7853981852531433, 2909.15478515625);(0.0, 0.0, 0.0, 0.0, 0.0, 0.0, 0.0, 0.0);(5.380000114440918, 99.52999877929688, -13.450000762939453, 5.380000114440918, -5.380000114440918, -2.690000057220459, 2.690000057220459, -10.760000228881836)
2024/05/03/13:37:54.414935;259048;1714768674;446832887;;['BL_Position', 'BL_Wheel', 'BR_Position', 'BR_Wheel', 'FL_Position', 'FL_Wheel', 'FR_Position', 'FR_Wheel'];(0.7853981852531433, 2826.095947265625, -0.7853981852531433, 2904.687744140625, -0.7853981852531433, 2824.4482421875, 0.7853981852531433, 2909.151611328125);(0.0, 0.0, 0.0, 0.0, 0.0, 0.0, 0.0, 0.0);(5.380000114440918, 153.3300018310547, -8.069999694824219, -40.35000228881836, -5.380000114440918, 43.040000915527344, 2.690000057220459, -67.25)
2024/05/03/13:37:54.432175;259049;1714768674;463007480;;['BL_Position', 'BL_Wheel', 'BR_Position', 'BR_Wheel', 'FL_Position', 'FL_Wheel', 'FR_Position', 'FR_Wheel'];(0.7853981852531433, 2826.10498046875, -0.7838642001152039, 2904.6787109375, -0.7853981852531433, 2824.4560546875, 0.7853981852531433, 2909.14404296875);(0.0, 0.04796164855360985, 0.0, -0.023980824276804924, 0.0, 0.023980824276804924, 0.0, -0.04796164855360985);(5.380000114440918, 164.08999633789062, -8.069999694824219, -40.35000228881836, -5.380000114440918, 45.72999954223633, 2.690000057220459, -64.55999755859375)
2024/05/03/13:37:54.432183;259050;1714768674;478820887;;['BL_Position', 'BL_Wheel', 'BR_Position', 'BR_Wheel', 'FL_Position', 'FL_Wheel', 'FR_Position', 'FR_Wheel'];(0.7853981852531433, 2826.118896484375, -0.7853981852531433, 2904.663330078125, -0.7853981852531433, 2824.471435546875, 0.7853981852531433, 2909.130126953125);(0.0, 0.16786576807498932, 0.0, -0.16786576807498932, 0.0, 0.16786576807498932, 0.0, -0.16786576807498932);(5.380000114440918, 147.9499969482422, -8.069999694824219, -34.970001220703125, -5.380000114440918, 40.35000228881836, 2.690000057220459, -56.4900016784668)
2024/05/03/13:37:54.491219;259051;1714768674;494781257;;['BL_Position', 'BL_Wheel', 'BR_Position', 'BR_Wheel', 'FL_Position', 'FL_Wheel', 'FR_Position', 'FR_Wheel'];(0.7853981852531433, 2826.13720703125, -0.7853981852531433, 2904.646484375, -0.7853981852531433, 2824.48974609375, 0.7853981852531433, 2909.11181640625);(0.0, 0.3597123622894287, 0.0, -0.3597123622894287, 0.0, 0.3597123622894287, 0.0, -0.3836931884288788);(5.380000114440918, 142.57000732421875, -8.069999694824219, -32.279998779296875, -5.380000114440918, 37.65999984741211, 2.690000057220459, -51.11000061035156)
2024/05/03/13:37:54.491254;259052;1714768674;511182349;;['BL_Position', 'BL_Wheel', 'BR_Position', 'BR_Wheel', 'FL_Position', 'FL_Wheel', 'FR_Position', 'FR_Wheel'];(0.7853981852531433, 2826.15869140625, -0.7853981852531433, 2904.623291015625, -0.7853981852531433, 2824.5126953125, 0.7853981852531433, 2909.09033203125);(0.0, 0.6235014200210571, 0.0, -0.6474822759628296, 0.0, 0.6474822759628296, 0.0, -0.6474822759628296);(5.380000114440918, 139.8800048828125, -8.069999694824219, -24.21000099182129, -5.380000114440918, 32.279998779296875, 5.380000114440918, -45.72999954223633)
2024/05/03/13:37:54.491257;259053;1714768674;526799941;;['BL_Position', 'BL_Wheel', 'BR_Position', 'BR_Wheel', 'FL_Position', 'FL_Wheel', 'FR_Position', 'FR_Wheel'];(0.7853981852531433, 2826.181640625, -0.7853981852531433, 2904.598876953125, -0.7853981852531433, 2824.537353515625, 0.7853981852531433, 2909.064208984375);(0.0, 0.911271333694458, 0.0, -0.911271333694458, 0.0, 0.911271333694458, 0.0, -0.911271333694458);(5.380000114440918, 137.19000244140625, -8.069999694824219, -24.21000099182129, -5.380000114440918, 26.900001525878906, 5.380000114440918, -40.35000228881836)
2024/05/03/13:37:54.497766;259054;1714768674;542825867;;['BL_Position', 'BL_Wheel', 'BR_Position', 'BR_Wheel', 'FL_Position', 'FL_Wheel', 'FR_Position', 'FR_Wheel'];(0.7853981852531433, 2826.207763671875, -0.7853981852531433, 2904.57421875, -0.7853981852531433, 2824.5634765625, 0.7853981852531433, 2909.039794921875);(0.0, 1.151079535484314, 0.0, -1.151079535484314, 0.0, 1.1750603914260864, 0.0, -1.127098798751831);(5.380000114440918, 134.5, -8.069999694824219, -18.829999923706055, 0.0, 21.520000457763672, 5.380000114440918, -34.970001220703125)
2024/05/03/13:37:54.507368;259055;1714768674;558856589;;['BL_Position', 'BL_Wheel', 'BR_Position', 'BR_Wheel', 'FL_Position', 'FL_Wheel', 'FR_Position', 'FR_Wheel'];(0.7838642001152039, 2826.2353515625, -0.7853981852531433, 2904.545166015625, -0.7853981852531433, 2824.592529296875, 0.7853981852531433, 2909.010498046875);(0.0, 1.3429261445999146, 0.0, -1.366907000541687, 0.0, 1.3908878564834595, 0.0, -1.3429261445999146);(5.380000114440918, 129.1199951171875, -8.069999694824219, -16.139999389648438, 0.0, 18.829999923706055, 2.690000057220459, -32.279998779296875)
2024/05/03/13:37:54.520292;259056;1714768674;574828292;;['BL_Position', 'BL_Wheel', 'BR_Position', 'BR_Wheel', 'FL_Position', 'FL_Wheel', 'FR_Position', 'FR_Wheel'];(0.7853981852531433, 2826.26611328125, -0.7853981852531433, 2904.51611328125, -0.7853981852531433, 2824.623291015625, 0.7853981852531433, 2908.9814453125);(0.0, 1.5107918977737427, 0.0, -1.5347727537155151, 0.0, 1.5587536096572876, 0.0, -1.5107918977737427);(5.380000114440918, 121.05000305175781, -8.069999694824219, -13.450000762939453, 0.0, 16.139999389648438, 5.380000114440918, -26.900001525878906)
2024/05/03/13:37:54.538496;259057;1714768674;590767329;;['BL_Position', 'BL_Wheel', 'BR_Position', 'BR_Wheel', 'FL_Position', 'FL_Wheel', 'FR_Position', 'FR_Wheel'];(0.7853981852531433, 2826.296875, -0.7853981852531433, 2904.48681640625, -0.7853981852531433, 2824.65234375, 0.7853981852531433, 2908.952392578125);(0.0, 1.654676914215088, 0.0, -1.654676914215088, 0.0, 1.6786576509475708, 0.0, -1.654676914215088);(5.380000114440918, 121.05000305175781, -10.760000228881836, -10.760000228881836, 0.0, 13.450000762939453, 2.690000057220459, -26.900001525878906)
2024/05/03/13:37:54.553210;259058;1714768674;606800217;;['BL_Position', 'BL_Wheel', 'BR_Position', 'BR_Wheel', 'FL_Position', 'FL_Wheel', 'FR_Position', 'FR_Wheel'];(0.7838642001152039, 2826.327392578125, -0.7853981852531433, 2904.45458984375, -0.7853981852531433, 2824.68310546875, 0.7853981852531433, 2908.923095703125);(0.0, 1.7506002187728882, 0.0, -1.7506002187728882, 0.0, 1.7506002187728882, 0.0, -1.7266193628311157);(5.380000114440918, 126.43000030517578, -10.760000228881836, -10.760000228881836, 0.0, 13.450000762939453, 0.0, -24.21000099182129)
2024/05/03/13:37:54.576900;259059;1714768674;622798161;;['BL_Position', 'BL_Wheel', 'BR_Position', 'BR_Wheel', 'FL_Position', 'FL_Wheel', 'FR_Position', 'FR_Wheel'];(0.7853981852531433, 2826.356689453125, -0.7853981852531433, 2904.427001953125, -0.7853981852531433, 2824.712158203125, 0.7853981852531433, 2908.892333984375);(0.0, 1.7985618114471436, 0.0, -1.7985618114471436, 0.0, 1.822542667388916, 0.0, -1.7985618114471436);(5.380000114440918, 126.43000030517578, -10.760000228881836, -8.069999694824219, 0.0, 8.069999694824219, 0.0, -24.21000099182129)
2024/05/03/13:37:54.597844;259060;1714768674;638778550;;['BL_Position', 'BL_Wheel', 'BR_Position', 'BR_Wheel', 'FL_Position', 'FL_Wheel', 'FR_Position', 'FR_Wheel'];(0.7853981852531433, 2826.38720703125, -0.7853981852531433, 2904.396240234375, -0.7853981852531433, 2824.7412109375, 0.7853981852531433, 2908.86181640625);(0.0, 1.8465235233306885, 0.0, -1.8465235233306885, 0.0, 1.8465235233306885, 0.0, -1.822542667388916);(5.380000114440918, 121.05000305175781, -13.450000762939453, -8.069999694824219, 0.0, 8.069999694824219, 0.0, -24.21000099182129)
2024/05/03/13:37:54.604425;259061;1714768674;654829642;;['BL_Position', 'BL_Wheel', 'BR_Position', 'BR_Wheel', 'FL_Position', 'FL_Wheel', 'FR_Position', 'FR_Wheel'];(0.7853981852531433, 2826.41796875, -0.7838642001152039, 2904.3671875, -0.7853981852531433, 2824.77197265625, 0.7838642001152039, 2908.8310546875);(0.0, 1.8705042600631714, 0.0, -1.8705042600631714, 0.0, 1.8705042600631714, 0.0, -1.8705042600631714);(5.380000114440918, 121.05000305175781, -8.069999694824219, -5.380000114440918, 2.690000057220459, 8.069999694824219, 0.0, -21.520000457763672)
2024/05/03/13:37:54.618173;259062;1714768674;670815975;;['BL_Position', 'BL_Wheel', 'BR_Position', 'BR_Wheel', 'FL_Position', 'FL_Wheel', 'FR_Position', 'FR_Wheel'];(0.7853981852531433, 2826.447021484375, -0.7853981852531433, 2904.33642578125, -0.7853981852531433, 2824.80126953125, 0.7853981852531433, 2908.80029296875);(0.0, 1.8944851160049438, 0.0, -1.8705042600631714, 0.0, 1.8705042600631714, 0.0, -1.8705042600631714);(5.380000114440918, 121.05000305175781, -5.380000114440918, -5.380000114440918, 2.690000057220459, 5.380000114440918, 0.0, -21.520000457763672)
2024/05/03/13:37:54.633318;259063;1714768674;686834882;;['BL_Position', 'BL_Wheel', 'BR_Position', 'BR_Wheel', 'FL_Position', 'FL_Wheel', 'FR_Position', 'FR_Wheel'];(0.7853981852531433, 2826.477783203125, -0.7853981852531433, 2904.307373046875, -0.7853981852531433, 2824.830322265625, 0.7853981852531433, 2908.771240234375);(0.0, 1.8944851160049438, 0.0, -1.8705042600631714, 0.0, 1.8705042600631714, 0.0, -1.8705042600631714);(5.380000114440918, 121.05000305175781, -13.450000762939453, -5.380000114440918, 0.0, 8.069999694824219, 0.0, -21.520000457763672)
2024/05/03/13:37:54.649389;259064;1714768674;702815900;;['BL_Position', 'BL_Wheel', 'BR_Position', 'BR_Wheel', 'FL_Position', 'FL_Wheel', 'FR_Position', 'FR_Wheel'];(0.7853981852531433, 2826.5068359375, -0.7853981852531433, 2904.276611328125, -0.7853981852531433, 2824.859375, 0.7853981852531433, 2908.74365234375);(0.0, 1.8705042600631714, 0.0, -1.8705042600631714, 0.0, 1.8705042600631714, 0.0, -1.8705042600631714);(5.380000114440918, 121.05000305175781, -5.380000114440918, -5.380000114440918, 0.0, 5.380000114440918, 0.0, -21.520000457763672)
2024/05/03/13:37:54.665136;259065;1714768674;718791530;;['BL_Position', 'BL_Wheel', 'BR_Position', 'BR_Wheel', 'FL_Position', 'FL_Wheel', 'FR_Position', 'FR_Wheel'];(0.7853981852531433, 2826.5361328125, -0.7853981852531433, 2904.24755859375, -0.7853981852531433, 2824.888671875, 0.7853981852531433, 2908.714599609375);(0.0, 1.8465235233306885, 0.0, -1.8465235233306885, 0.0, 1.8465235233306885, 0.0, -1.8465235233306885);(5.380000114440918, 112.9800033569336, -8.069999694824219, -5.380000114440918, -5.380000114440918, 5.380000114440918, 0.0, -18.829999923706055)
2024/05/03/13:37:54.681430;259066;1714768674;734759381;;['BL_Position', 'BL_Wheel', 'BR_Position', 'BR_Wheel', 'FL_Position', 'FL_Wheel', 'FR_Position', 'FR_Wheel'];(0.7853981852531433, 2826.563720703125, -0.7853981852531433, 2904.221435546875, -0.7853981852531433, 2824.916259765625, 0.7853981852531433, 2908.685302734375);(0.0, 1.822542667388916, 0.0, -1.822542667388916, 0.0, 1.822542667388916, 0.0, -1.822542667388916);(13.450000762939453, 110.29000091552734, 0.0, -2.690000057220459, -5.380000114440918, 5.380000114440918, 0.0, -16.139999389648438)
