time;.header.seq;.header.stamp.secs;.header.stamp.nsecs;.header.frame_id;.name;.position;.velocity;.effort
2024/05/03/12:43:33.709196;55249;1714765413;718070049;;['BL_Position', 'BL_Wheel', 'BR_Position', 'BR_Wheel', 'FL_Position', 'FL_Wheel', 'FR_Position', 'FR_Wheel'];(0.0, 634.2750244140625, 0.0, 632.0046997070312, 0.0, 632.2762451171875, 0.0, 636.7584838867188);(0.0, 0.0, 0.0, 0.0, 0.0, 0.0, 0.0, 0.0);(5.380000114440918, 83.38999938964844, 0.0, 2.690000057220459, 5.380000114440918, -2.690000057220459, 8.069999694824219, 0.0)
2024/05/03/12:43:33.717850;55250;1714765413;734070378;;['BL_Position', 'BL_Wheel', 'BR_Position', 'BR_Wheel', 'FL_Position', 'FL_Wheel', 'FR_Position', 'FR_Wheel'];(0.0, 634.2750244140625, 0.0015339808305725455, 632.0062255859375, 0.0, 632.2762451171875, -0.0015339808305725455, 636.7584838867188);(0.0, 0.0, 0.0, 0.0, 0.0, 0.0, 0.0, 0.0);(5.380000114440918, 83.38999938964844, 0.0, 2.690000057220459, 5.380000114440918, -2.690000057220459, 5.380000114440918, 0.0)
2024/05/03/12:43:33.745049;55251;1714765413;750035559;;['BL_Position', 'BL_Wheel', 'BR_Position', 'BR_Wheel', 'FL_Position', 'FL_Wheel', 'FR_Position', 'FR_Wheel'];(0.0, 634.2750244140625, 0.0015339808305725455, 632.0046997070312, 0.0, 632.2762451171875, 0.0, 636.7584838867188);(0.0, 0.0, 0.0, 0.0, 0.0, 0.0, 0.0, 0.0);(5.380000114440918, 83.38999938964844, 0.0, 2.690000057220459, 5.380000114440918, -2.690000057220459, 5.380000114440918, 0.0)
2024/05/03/12:43:33.749761;55252;1714765413;766048351;;['BL_Position', 'BL_Wheel', 'BR_Position', 'BR_Wheel', 'FL_Position', 'FL_Wheel', 'FR_Position', 'FR_Wheel'];(0.0, 634.2750244140625, 0.0015339808305725455, 632.0046997070312, 0.0, 632.2762451171875, -0.0015339808305725455, 636.7584838867188);(0.0, 0.0, 0.0, 0.0, 0.0, 0.0, 0.0, 0.0);(5.380000114440918, 83.38999938964844, 0.0, 2.690000057220459, 5.380000114440918, -2.690000057220459, 5.380000114440918, 0.0)
2024/05/03/12:43:33.766136;55253;1714765413;782013383;;['BL_Position', 'BL_Wheel', 'BR_Position', 'BR_Wheel', 'FL_Position', 'FL_Wheel', 'FR_Position', 'FR_Wheel'];(0.0, 634.2750244140625, 0.0, 632.0046997070312, 0.0, 632.2762451171875, 0.0, 636.7584838867188);(0.0, 0.0, 0.0, 0.0, 0.0, 0.0, 0.0, 0.0);(5.380000114440918, 83.38999938964844, 0.0, 2.690000057220459, 5.380000114440918, -2.690000057220459, 5.380000114440918, 0.0)
2024/05/03/12:43:33.782631;55254;1714765413;798016435;;['BL_Position', 'BL_Wheel', 'BR_Position', 'BR_Wheel', 'FL_Position', 'FL_Wheel', 'FR_Position', 'FR_Wheel'];(0.0, 634.2750244140625, 0.0, 632.0062255859375, 0.0, 632.2762451171875, -0.0015339808305725455, 636.7584838867188);(0.0, 0.0, 0.0, 0.0, 0.0, 0.0, 0.0, 0.0);(5.380000114440918, 83.38999938964844, 0.0, 2.690000057220459, 5.380000114440918, -2.690000057220459, 8.069999694824219, 0.0)
2024/05/03/12:43:33.798226;55255;1714765413;814072708;;['BL_Position', 'BL_Wheel', 'BR_Position', 'BR_Wheel', 'FL_Position', 'FL_Wheel', 'FR_Position', 'FR_Wheel'];(0.0, 634.2750244140625, 0.0015339808305725455, 632.0046997070312, 0.0, 632.2762451171875, 0.0, 636.7584838867188);(0.0, 0.0, 0.0, 0.0, 0.0, 0.0, 0.0, 0.0);(5.380000114440918, 83.38999938964844, 0.0, 2.690000057220459, 5.380000114440918, -2.690000057220459, 8.069999694824219, 0.0)
2024/05/03/12:43:33.812083;55256;1714765413;830038648;;['BL_Position', 'BL_Wheel', 'BR_Position', 'BR_Wheel', 'FL_Position', 'FL_Wheel', 'FR_Position', 'FR_Wheel'];(0.0, 634.2750244140625, 0.0, 632.0046997070312, 0.0, 632.2762451171875, 0.0, 636.7600708007812);(0.0, 0.0, 0.0, 0.0, 0.0, 0.0, 0.0, 0.0);(5.380000114440918, 83.38999938964844, 0.0, 2.690000057220459, 5.380000114440918, -2.690000057220459, 5.380000114440918, 0.0)
2024/05/03/12:43:33.830561;55257;1714765413;846248922;;['BL_Position', 'BL_Wheel', 'BR_Position', 'BR_Wheel', 'FL_Position', 'FL_Wheel', 'FR_Position', 'FR_Wheel'];(0.0, 634.2750244140625, 0.0015339808305725455, 632.0046997070312, 0.0, 632.2762451171875, -0.0015339808305725455, 636.7584838867188);(0.0, 0.0, 0.0, 0.0, 0.0, 0.0, 0.0, 0.0);(5.380000114440918, 83.38999938964844, 0.0, 2.690000057220459, 8.069999694824219, -2.690000057220459, 5.380000114440918, 0.0)
2024/05/03/12:43:33.847635;55258;1714765413;862069436;;['BL_Position', 'BL_Wheel', 'BR_Position', 'BR_Wheel', 'FL_Position', 'FL_Wheel', 'FR_Position', 'FR_Wheel'];(0.0, 634.2750244140625, 0.0015339808305725455, 632.0062255859375, 0.0, 632.2762451171875, 0.0, 636.7584838867188);(0.0, 0.0, 0.0, 0.0, 0.0, 0.0, 0.0, 0.0);(5.380000114440918, 83.38999938964844, 0.0, 2.690000057220459, 5.380000114440918, -2.690000057220459, 8.069999694824219, 0.0)
2024/05/03/12:43:33.862086;55259;1714765413;878068969;;['BL_Position', 'BL_Wheel', 'BR_Position', 'BR_Wheel', 'FL_Position', 'FL_Wheel', 'FR_Position', 'FR_Wheel'];(0.0, 634.2750244140625, 0.0015339808305725455, 632.0046997070312, 0.0, 632.2777709960938, -0.0015339808305725455, 636.7584838867188);(0.0, 0.0, 0.0, 0.0, 0.0, 0.0, 0.0, 0.0);(5.380000114440918, 83.38999938964844, 0.0, 2.690000057220459, 5.380000114440918, -2.690000057220459, 5.380000114440918, 0.0)
2024/05/03/12:43:33.877564;55260;1714765413;894063705;;['BL_Position', 'BL_Wheel', 'BR_Position', 'BR_Wheel', 'FL_Position', 'FL_Wheel', 'FR_Position', 'FR_Wheel'];(0.0, 634.2750244140625, 0.0015339808305725455, 632.0046997070312, 0.0, 632.2762451171875, 0.0, 636.7584838867188);(0.0, 0.0, 0.0, 0.0, 0.0, 0.0, 0.0, 0.0);(5.380000114440918, 83.38999938964844, 0.0, 2.690000057220459, 5.380000114440918, -2.690000057220459, 5.380000114440918, 0.0)
2024/05/03/12:43:33.893992;55261;1714765413;910062441;;['BL_Position', 'BL_Wheel', 'BR_Position', 'BR_Wheel', 'FL_Position', 'FL_Wheel', 'FR_Position', 'FR_Wheel'];(0.0, 634.2750244140625, 0.0015339808305725455, 632.0046997070312, 0.0, 632.2762451171875, 0.0, 636.7584838867188);(0.0, 0.0, 0.0, 0.0, 0.0, 0.0, 0.0, 0.0);(5.380000114440918, 83.38999938964844, 0.0, 2.690000057220459, 0.0, -2.690000057220459, 8.069999694824219, 0.0)
2024/05/03/12:43:33.913448;55262;1714765413;926162104;;['BL_Position', 'BL_Wheel', 'BR_Position', 'BR_Wheel', 'FL_Position', 'FL_Wheel', 'FR_Position', 'FR_Wheel'];(0.0, 634.2750244140625, 0.0, 632.0046997070312, 0.0, 632.2762451171875, 0.0, 636.7584838867188);(0.0, 0.0, 0.0, 0.0, 0.0, 0.0, 0.0, 0.0);(5.380000114440918, 83.38999938964844, 0.0, 2.690000057220459, 10.760000228881836, -2.690000057220459, 5.380000114440918, 0.0)
2024/05/03/12:43:33.926404;55263;1714765413;942101488;;['BL_Position', 'BL_Wheel', 'BR_Position', 'BR_Wheel', 'FL_Position', 'FL_Wheel', 'FR_Position', 'FR_Wheel'];(0.0, 634.2750244140625, 0.0, 632.0046997070312, 0.0, 632.2777709960938, -0.0015339808305725455, 636.7584838867188);(0.0, 0.0, 0.0, 0.0, 0.0, 0.0, 0.0, 0.0);(5.380000114440918, 83.38999938964844, 0.0, 2.690000057220459, 5.380000114440918, -2.690000057220459, 8.069999694824219, 0.0)
2024/05/03/12:43:33.951343;55264;1714765413;958055225;;['BL_Position', 'BL_Wheel', 'BR_Position', 'BR_Wheel', 'FL_Position', 'FL_Wheel', 'FR_Position', 'FR_Wheel'];(0.0, 634.2750244140625, 0.0, 632.0046997070312, 0.0, 632.2762451171875, -0.0015339808305725455, 636.7584838867188);(0.0, 0.0, 0.0, 0.0, 0.0, 0.0, 0.0, 0.0);(5.380000114440918, 83.38999938964844, 0.0, 2.690000057220459, 5.380000114440918, -2.690000057220459, 5.380000114440918, 0.0)
2024/05/03/12:43:33.958593;55265;1714765413;974071554;;['BL_Position', 'BL_Wheel', 'BR_Position', 'BR_Wheel', 'FL_Position', 'FL_Wheel', 'FR_Position', 'FR_Wheel'];(0.0, 634.2750244140625, 0.0015339808305725455, 632.0062255859375, 0.0, 632.2762451171875, -0.0015339808305725455, 636.7584838867188);(0.0, 0.0, 0.0, 0.0, 0.0, 0.0, 0.0, 0.0);(5.380000114440918, 83.38999938964844, 0.0, 2.690000057220459, 5.380000114440918, -2.690000057220459, 5.380000114440918, 0.0)
2024/05/03/12:43:33.975883;55266;1714765413;991739179;;['BL_Position', 'BL_Wheel', 'BR_Position', 'BR_Wheel', 'FL_Position', 'FL_Wheel', 'FR_Position', 'FR_Wheel'];(0.0, 634.2750244140625, 0.0015339808305725455, 632.0046997070312, 0.0, 632.2762451171875, 0.0, 636.7584838867188);(0.0, 0.0, 0.0, 0.0, 0.0, 0.0, 0.0, 0.0);(5.380000114440918, 83.38999938964844, 0.0, 2.690000057220459, 5.380000114440918, -2.690000057220459, 5.380000114440918, 0.0)
2024/05/03/12:43:33.989600;55267;1714765414;6033045;;['BL_Position', 'BL_Wheel', 'BR_Position', 'BR_Wheel', 'FL_Position', 'FL_Wheel', 'FR_Position', 'FR_Wheel'];(0.0, 634.2734375, 0.0015339808305725455, 632.0046997070312, 0.0, 632.2762451171875, -0.0015339808305725455, 636.7584838867188);(0.0, 0.0, 0.0, 0.0, 0.0, 0.0, 0.0, 0.0);(5.380000114440918, 83.38999938964844, 0.0, 2.690000057220459, 2.690000057220459, -2.690000057220459, 5.380000114440918, 0.0)
2024/05/03/12:43:34.016059;55268;1714765414;22154726;;['BL_Position', 'BL_Wheel', 'BR_Position', 'BR_Wheel', 'FL_Position', 'FL_Wheel', 'FR_Position', 'FR_Wheel'];(0.0, 634.2750244140625, 0.0015339808305725455, 632.0046997070312, 0.0, 632.2762451171875, 0.0, 636.7584838867188);(0.0, 0.0, 0.0, 0.0, 0.0, 0.0, 0.0, 0.0);(5.380000114440918, 83.38999938964844, 0.0, 2.690000057220459, 2.690000057220459, -2.690000057220459, 8.069999694824219, 0.0)
2024/05/03/12:43:34.021488;55269;1714765414;38016963;;['BL_Position', 'BL_Wheel', 'BR_Position', 'BR_Wheel', 'FL_Position', 'FL_Wheel', 'FR_Position', 'FR_Wheel'];(0.0, 634.2750244140625, 0.0015339808305725455, 632.0046997070312, 0.0, 632.2777709960938, -0.0015339808305725455, 636.7584838867188);(0.0, 0.0, 0.0, 0.0, 0.0, 0.0, 0.0, 0.0);(5.380000114440918, 83.38999938964844, 0.0, 2.690000057220459, 5.380000114440918, -2.690000057220459, 5.380000114440918, 0.0)
2024/05/03/12:43:34.038497;55270;1714765414;54062162;;['BL_Position', 'BL_Wheel', 'BR_Position', 'BR_Wheel', 'FL_Position', 'FL_Wheel', 'FR_Position', 'FR_Wheel'];(0.0, 634.2750244140625, 0.0015339808305725455, 632.0046997070312, 0.0, 632.2762451171875, 0.0, 636.7584838867188);(0.0, 0.0, 0.0, 0.0, 0.0, 0.0, 0.0, 0.0);(5.380000114440918, 83.38999938964844, 0.0, 2.690000057220459, 5.380000114440918, -2.690000057220459, 8.069999694824219, 0.0)
2024/05/03/12:43:34.053936;55271;1714765414;70130972;;['BL_Position', 'BL_Wheel', 'BR_Position', 'BR_Wheel', 'FL_Position', 'FL_Wheel', 'FR_Position', 'FR_Wheel'];(0.0, 634.2750244140625, 0.0, 632.0046997070312, 0.0, 632.2762451171875, 0.0, 636.7584838867188);(0.0, 0.0, 0.0, 0.0, 0.0, 0.0, 0.0, 0.0);(5.380000114440918, 83.38999938964844, 0.0, 2.690000057220459, 5.380000114440918, -2.690000057220459, 8.069999694824219, 0.0)
2024/05/03/12:43:34.070299;55272;1714765414;86075468;;['BL_Position', 'BL_Wheel', 'BR_Position', 'BR_Wheel', 'FL_Position', 'FL_Wheel', 'FR_Position', 'FR_Wheel'];(0.0, 634.2750244140625, 0.0015339808305725455, 632.0046997070312, 0.0, 632.2762451171875, -0.0015339808305725455, 636.7584838867188);(0.0, 0.0, 0.0, 0.0, 0.0, 0.0, 0.0, 0.0);(5.380000114440918, 83.38999938964844, 0.0, 2.690000057220459, 5.380000114440918, -2.690000057220459, 8.069999694824219, 0.0)
2024/05/03/12:43:34.085856;55273;1714765414;102090612;;['BL_Position', 'BL_Wheel', 'BR_Position', 'BR_Wheel', 'FL_Position', 'FL_Wheel', 'FR_Position', 'FR_Wheel'];(0.0, 634.2750244140625, 0.0015339808305725455, 632.0062255859375, 0.0, 632.2762451171875, -0.0015339808305725455, 636.7584838867188);(0.0, 0.0, 0.0, 0.0, 0.0, 0.0, 0.0, 0.0);(5.380000114440918, 83.38999938964844, 0.0, 2.690000057220459, 0.0, -2.690000057220459, 8.069999694824219, 0.0)
2024/05/03/12:43:34.102192;55274;1714765414;118178200;;['BL_Position', 'BL_Wheel', 'BR_Position', 'BR_Wheel', 'FL_Position', 'FL_Wheel', 'FR_Position', 'FR_Wheel'];(0.0, 634.2750244140625, 0.0, 632.0046997070312, 0.0, 632.2762451171875, -0.0015339808305725455, 636.7584838867188);(0.0, 0.0, 0.0, 0.0, 0.0, 0.0, 0.0, 0.0);(5.380000114440918, 83.38999938964844, 0.0, 2.690000057220459, 0.0, -2.690000057220459, 5.380000114440918, 0.0)
2024/05/03/12:43:34.121449;55275;1714765414;134057418;;['BL_Position', 'BL_Wheel', 'BR_Position', 'BR_Wheel', 'FL_Position', 'FL_Wheel', 'FR_Position', 'FR_Wheel'];(0.0, 634.2750244140625, 0.0015339808305725455, 632.0062255859375, 0.0, 632.2762451171875, 0.0, 636.7584838867188);(0.0, 0.0, 0.0, 0.0, 0.0, 0.0, 0.0, 0.0);(5.380000114440918, 83.38999938964844, 0.0, 2.690000057220459, 2.690000057220459, -2.690000057220459, 8.069999694824219, 0.0)
2024/05/03/12:43:34.135885;55276;1714765414;150078414;;['BL_Position', 'BL_Wheel', 'BR_Position', 'BR_Wheel', 'FL_Position', 'FL_Wheel', 'FR_Position', 'FR_Wheel'];(0.0, 634.2750244140625, 0.0015339808305725455, 632.0046997070312, 0.0, 632.2762451171875, 0.0, 636.7584838867188);(0.0, 0.0, 0.0, 0.0, 0.0, 0.0, 0.0, 0.0);(5.380000114440918, 83.38999938964844, 0.0, 2.690000057220459, 2.690000057220459, -2.690000057220459, 8.069999694824219, 0.0)
2024/05/03/12:43:34.159598;55277;1714765414;166059039;;['BL_Position', 'BL_Wheel', 'BR_Position', 'BR_Wheel', 'FL_Position', 'FL_Wheel', 'FR_Position', 'FR_Wheel'];(0.0, 634.2750244140625, 0.0015339808305725455, 632.0046997070312, 0.0, 632.2762451171875, -0.0015339808305725455, 636.7584838867188);(0.0, 0.0, 0.0, 0.0, 0.0, 0.0, 0.0, 0.0);(5.380000114440918, 83.38999938964844, 0.0, 2.690000057220459, 2.690000057220459, -2.690000057220459, 5.380000114440918, 0.0)
2024/05/03/12:43:34.165676;55278;1714765414;182073405;;['BL_Position', 'BL_Wheel', 'BR_Position', 'BR_Wheel', 'FL_Position', 'FL_Wheel', 'FR_Position', 'FR_Wheel'];(0.0, 634.2750244140625, 0.0, 632.0046997070312, 0.0, 632.2762451171875, -0.0015339808305725455, 636.7584838867188);(0.0, 0.0, 0.0, 0.0, 0.0, 0.0, 0.0, 0.0);(5.380000114440918, 83.38999938964844, 0.0, 2.690000057220459, 2.690000057220459, -2.690000057220459, 10.760000228881836, 0.0)
2024/05/03/12:43:34.181589;55279;1714765414;198017846;;['BL_Position', 'BL_Wheel', 'BR_Position', 'BR_Wheel', 'FL_Position', 'FL_Wheel', 'FR_Position', 'FR_Wheel'];(0.0, 634.2750244140625, 0.0015339808305725455, 632.0062255859375, 0.0, 632.2777709960938, -0.0015339808305725455, 636.7584838867188);(0.0, 0.0, 0.0, 0.0, 0.0, 0.0, 0.0, 0.0);(5.380000114440918, 83.38999938964844, 0.0, 2.690000057220459, 2.690000057220459, -2.690000057220459, 5.380000114440918, 0.0)
2024/05/03/12:43:34.198691;55280;1714765414;214049952;;['BL_Position', 'BL_Wheel', 'BR_Position', 'BR_Wheel', 'FL_Position', 'FL_Wheel', 'FR_Position', 'FR_Wheel'];(0.0, 634.2750244140625, 0.0015339808305725455, 632.0046997070312, 0.0, 632.2762451171875, 0.0, 636.7584838867188);(0.0, 0.0, 0.0, 0.0, 0.0, 0.0, 0.0, 0.0);(5.380000114440918, 83.38999938964844, 0.0, 2.690000057220459, 5.380000114440918, -2.690000057220459, 5.380000114440918, 0.0)
2024/05/03/12:43:34.220798;55281;1714765414;230109578;;['BL_Position', 'BL_Wheel', 'BR_Position', 'BR_Wheel', 'FL_Position', 'FL_Wheel', 'FR_Position', 'FR_Wheel'];(0.0, 634.2750244140625, 0.0015339808305725455, 632.0046997070312, 0.0, 632.2762451171875, 0.0, 636.7584838867188);(0.0, 0.0, 0.0, 0.0, 0.0, 0.0, 0.0, 0.0);(5.380000114440918, 83.38999938964844, 0.0, 2.690000057220459, 5.380000114440918, -2.690000057220459, 8.069999694824219, 0.0)
2024/05/03/12:43:34.230306;55282;1714765414;246019333;;['BL_Position', 'BL_Wheel', 'BR_Position', 'BR_Wheel', 'FL_Position', 'FL_Wheel', 'FR_Position', 'FR_Wheel'];(0.0, 634.2750244140625, 0.0015339808305725455, 632.0046997070312, 0.0, 632.2762451171875, 0.0, 636.7584838867188);(0.0, 0.0, 0.0, 0.0, 0.0, 0.0, 0.0, 0.0);(5.380000114440918, 83.38999938964844, 0.0, 2.690000057220459, 5.380000114440918, -2.690000057220459, 8.069999694824219, 0.0)
2024/05/03/12:43:34.246588;55283;1714765414;262047143;;['BL_Position', 'BL_Wheel', 'BR_Position', 'BR_Wheel', 'FL_Position', 'FL_Wheel', 'FR_Position', 'FR_Wheel'];(0.0, 634.2750244140625, 0.0015339808305725455, 632.0046997070312, 0.0, 632.2762451171875, -0.0015339808305725455, 636.7584838867188);(0.0, 0.0, 0.0, 0.0, 0.0, 0.0, 0.0, 0.0);(5.380000114440918, 83.38999938964844, 0.0, 2.690000057220459, 5.380000114440918, -2.690000057220459, 5.380000114440918, 0.0)
2024/05/03/12:43:34.261641;55284;1714765414;278062046;;['BL_Position', 'BL_Wheel', 'BR_Position', 'BR_Wheel', 'FL_Position', 'FL_Wheel', 'FR_Position', 'FR_Wheel'];(0.0, 634.2734375, 0.0015339808305725455, 632.0046997070312, 0.0, 632.2762451171875, -0.0015339808305725455, 636.7584838867188);(0.0, 0.0, 0.0, 0.0, 0.0, 0.0, 0.0, 0.0);(5.380000114440918, 83.38999938964844, 0.0, 2.690000057220459, 5.380000114440918, -2.690000057220459, 5.380000114440918, 0.0)
2024/05/03/12:43:34.277786;55285;1714765414;294108505;;['BL_Position', 'BL_Wheel', 'BR_Position', 'BR_Wheel', 'FL_Position', 'FL_Wheel', 'FR_Position', 'FR_Wheel'];(0.0, 634.2750244140625, 0.0, 632.0046997070312, 0.0, 632.2762451171875, 0.0, 636.7584838867188);(0.0, 0.0, 0.0, 0.0, 0.0, 0.0, 0.0, 0.0);(5.380000114440918, 83.38999938964844, 0.0, 2.690000057220459, 5.380000114440918, -2.690000057220459, 8.069999694824219, 0.0)
2024/05/03/12:43:34.294058;55286;1714765414;310042871;;['BL_Position', 'BL_Wheel', 'BR_Position', 'BR_Wheel', 'FL_Position', 'FL_Wheel', 'FR_Position', 'FR_Wheel'];(0.0, 634.2750244140625, 0.0, 632.0046997070312, 0.0, 632.2762451171875, 0.0, 636.7584838867188);(0.0, 0.0, 0.0, 0.0, 0.0, 0.0, 0.0, 0.0);(5.380000114440918, 83.38999938964844, 0.0, 2.690000057220459, 5.380000114440918, -2.690000057220459, 8.069999694824219, 0.0)
2024/05/03/12:43:34.310148;55287;1714765414;326105052;;['BL_Position', 'BL_Wheel', 'BR_Position', 'BR_Wheel', 'FL_Position', 'FL_Wheel', 'FR_Position', 'FR_Wheel'];(0.0, 634.2750244140625, 0.0015339808305725455, 632.0046997070312, 0.0, 632.2777709960938, -0.0015339808305725455, 636.7584838867188);(0.0, 0.0, 0.0, 0.0, 0.0, 0.0, 0.0, 0.0);(5.380000114440918, 83.38999938964844, 0.0, 2.690000057220459, 5.380000114440918, -2.690000057220459, 5.380000114440918, 0.0)
2024/05/03/12:43:34.325633;55288;1714765414;342024807;;['BL_Position', 'BL_Wheel', 'BR_Position', 'BR_Wheel', 'FL_Position', 'FL_Wheel', 'FR_Position', 'FR_Wheel'];(0.0, 634.2750244140625, 0.0015339808305725455, 632.0046997070312, 0.0, 632.2777709960938, -0.0015339808305725455, 636.7584838867188);(0.0, 0.0, 0.0, 0.0, 0.0, 0.0, 0.0, 0.0);(5.380000114440918, 83.38999938964844, 0.0, 2.690000057220459, 2.690000057220459, -2.690000057220459, 5.380000114440918, 0.0)
2024/05/03/12:43:34.342104;55289;1714765414;358419728;;['BL_Position', 'BL_Wheel', 'BR_Position', 'BR_Wheel', 'FL_Position', 'FL_Wheel', 'FR_Position', 'FR_Wheel'];(0.0, 634.2750244140625, 0.0015339808305725455, 632.0046997070312, 0.0, 632.2777709960938, 0.0, 636.7584838867188);(0.0, 0.0, 0.0, 0.0, 0.0, 0.0, 0.0, 0.0);(5.380000114440918, 83.38999938964844, 0.0, 2.690000057220459, 2.690000057220459, -2.690000057220459, 5.380000114440918, 0.0)
2024/05/03/12:43:34.360290;55290;1714765414;374071409;;['BL_Position', 'BL_Wheel', 'BR_Position', 'BR_Wheel', 'FL_Position', 'FL_Wheel', 'FR_Position', 'FR_Wheel'];(0.0, 634.2734375, 0.0015339808305725455, 632.0046997070312, 0.0, 632.2777709960938, -0.0015339808305725455, 636.7584838867188);(0.0, 0.0, 0.0, 0.0, 0.0, 0.0, 0.0, 0.0);(5.380000114440918, 83.38999938964844, 0.0, 2.690000057220459, 2.690000057220459, -2.690000057220459, 5.380000114440918, 0.0)
2024/05/03/12:43:34.373995;55291;1714765414;390026924;;['BL_Position', 'BL_Wheel', 'BR_Position', 'BR_Wheel', 'FL_Position', 'FL_Wheel', 'FR_Position', 'FR_Wheel'];(0.0, 634.2750244140625, 0.0015339808305725455, 632.0062255859375, 0.0, 632.2777709960938, -0.0015339808305725455, 636.7584838867188);(0.0, 0.0, 0.0, 0.0, 0.0, 0.0, 0.0, 0.0);(5.380000114440918, 83.38999938964844, 0.0, 2.690000057220459, 2.690000057220459, -2.690000057220459, 5.380000114440918, 0.0)
2024/05/03/12:43:34.390000;55292;1714765414;406066586;;['BL_Position', 'BL_Wheel', 'BR_Position', 'BR_Wheel', 'FL_Position', 'FL_Wheel', 'FR_Position', 'FR_Wheel'];(0.0, 634.2734375, 0.0015339808305725455, 632.0046997070312, 0.0, 632.2777709960938, -0.0015339808305725455, 636.7584838867188);(0.0, 0.0, 0.0, 0.0, 0.0, 0.0, 0.0, 0.0);(5.380000114440918, 83.38999938964844, 0.0, 2.690000057220459, 2.690000057220459, -2.690000057220459, 5.380000114440918, 0.0)
2024/05/03/12:43:34.405701;55293;1714765414;422067526;;['BL_Position', 'BL_Wheel', 'BR_Position', 'BR_Wheel', 'FL_Position', 'FL_Wheel', 'FR_Position', 'FR_Wheel'];(0.0, 634.2750244140625, 0.0, 632.0046997070312, 0.0, 632.2762451171875, 0.0, 636.7584838867188);(0.0, 0.0, 0.0, 0.0, 0.0, 0.0, 0.0, 0.0);(5.380000114440918, 83.38999938964844, 0.0, 2.690000057220459, 2.690000057220459, -2.690000057220459, 8.069999694824219, 0.0)
2024/05/03/12:43:34.425467;55294;1714765414;438095003;;['BL_Position', 'BL_Wheel', 'BR_Position', 'BR_Wheel', 'FL_Position', 'FL_Wheel', 'FR_Position', 'FR_Wheel'];(0.0, 634.2750244140625, 0.0015339808305725455, 632.0062255859375, 0.0, 632.2762451171875, 0.0, 636.7584838867188);(0.0, 0.0, 0.0, 0.0, 0.0, 0.0, 0.0, 0.0);(5.380000114440918, 83.38999938964844, 0.0, 2.690000057220459, 5.380000114440918, -2.690000057220459, 10.760000228881836, 0.0)
2024/05/03/12:43:34.437674;55295;1714765414;454065369;;['BL_Position', 'BL_Wheel', 'BR_Position', 'BR_Wheel', 'FL_Position', 'FL_Wheel', 'FR_Position', 'FR_Wheel'];(0.0, 634.2750244140625, 0.0, 632.0062255859375, 0.0, 632.2762451171875, 0.0, 636.7584838867188);(0.0, 0.0, 0.0, 0.0, 0.0, 0.0, 0.0, 0.0);(5.380000114440918, 83.38999938964844, 0.0, 2.690000057220459, 5.380000114440918, -2.690000057220459, 5.380000114440918, 0.0)
2024/05/03/12:43:34.463425;55296;1714765414;470085384;;['BL_Position', 'BL_Wheel', 'BR_Position', 'BR_Wheel', 'FL_Position', 'FL_Wheel', 'FR_Position', 'FR_Wheel'];(0.0, 634.2750244140625, 0.0, 632.0046997070312, 0.0, 632.2777709960938, 0.0, 636.7584838867188);(0.0, 0.0, 0.0, 0.0, 0.0, 0.0, 0.0, 0.0);(5.380000114440918, 83.38999938964844, 0.0, 2.690000057220459, 2.690000057220459, -2.690000057220459, 8.069999694824219, 0.0)
2024/05/03/12:43:34.469604;55297;1714765414;486050602;;['BL_Position', 'BL_Wheel', 'BR_Position', 'BR_Wheel', 'FL_Position', 'FL_Wheel', 'FR_Position', 'FR_Wheel'];(0.0, 634.2750244140625, 0.0015339808305725455, 632.0046997070312, 0.0, 632.2762451171875, -0.0015339808305725455, 636.7584838867188);(0.0, 0.0, 0.0, 0.0, 0.0, 0.0, 0.0, 0.0);(5.380000114440918, 83.38999938964844, 0.0, 2.690000057220459, 2.690000057220459, -2.690000057220459, 5.380000114440918, 0.0)
2024/05/03/12:43:34.485719;55298;1714765414;502040560;;['BL_Position', 'BL_Wheel', 'BR_Position', 'BR_Wheel', 'FL_Position', 'FL_Wheel', 'FR_Position', 'FR_Wheel'];(0.0, 634.2734375, 0.0015339808305725455, 632.0046997070312, 0.0, 632.2762451171875, -0.0015339808305725455, 636.7584838867188);(0.0, 0.0, 0.0, 0.0, 0.0, 0.0, 0.0, 0.0);(5.380000114440918, 83.38999938964844, 0.0, 2.690000057220459, 2.690000057220459, -2.690000057220459, 5.380000114440918, 0.0)
2024/05/03/12:43:34.501810;55299;1714765414;518009741;;['BL_Position', 'BL_Wheel', 'BR_Position', 'BR_Wheel', 'FL_Position', 'FL_Wheel', 'FR_Position', 'FR_Wheel'];(0.0, 634.2750244140625, 0.0015339808305725455, 632.0046997070312, 0.0, 632.2762451171875, 0.0, 636.7584838867188);(0.0, 0.0, 0.0, 0.0, 0.0, 0.0, 0.0, 0.0);(5.380000114440918, 83.38999938964844, 0.0, 2.690000057220459, 5.380000114440918, -2.690000057220459, 5.380000114440918, 0.0)
2024/05/03/12:43:34.528425;55300;1714765414;534064644;;['BL_Position', 'BL_Wheel', 'BR_Position', 'BR_Wheel', 'FL_Position', 'FL_Wheel', 'FR_Position', 'FR_Wheel'];(0.0, 634.2750244140625, 0.0, 632.0046997070312, -0.0015339808305725455, 632.2762451171875, -0.0015339808305725455, 636.7584838867188);(0.0, 0.0, 0.0, 0.0, 0.0, 0.0, 0.0, 0.0);(5.380000114440918, 83.38999938964844, 0.0, 2.690000057220459, 5.380000114440918, -2.690000057220459, 5.380000114440918, 0.0)
2024/05/03/12:43:34.533732;55301;1714765414;550044381;;['BL_Position', 'BL_Wheel', 'BR_Position', 'BR_Wheel', 'FL_Position', 'FL_Wheel', 'FR_Position', 'FR_Wheel'];(0.0, 634.2750244140625, 0.0, 632.0046997070312, 0.0, 632.2762451171875, -0.0015339808305725455, 636.7584838867188);(0.0, 0.0, 0.0, 0.0, 0.0, 0.0, 0.0, 0.0);(5.380000114440918, 83.38999938964844, 0.0, 2.690000057220459, 5.380000114440918, -2.690000057220459, 5.380000114440918, 0.0)
2024/05/03/12:43:34.551629;55302;1714765414;566021617;;['BL_Position', 'BL_Wheel', 'BR_Position', 'BR_Wheel', 'FL_Position', 'FL_Wheel', 'FR_Position', 'FR_Wheel'];(0.0, 634.2750244140625, 0.0, 632.0062255859375, 0.0, 632.2777709960938, -0.0015339808305725455, 636.7584838867188);(0.0, 0.0, 0.0, 0.0, 0.0, 0.0, 0.0, 0.0);(5.380000114440918, 83.38999938964844, 0.0, 2.690000057220459, 5.380000114440918, -2.690000057220459, 5.380000114440918, 0.0)
2024/05/03/12:43:34.566004;55303;1714765414;581995854;;['BL_Position', 'BL_Wheel', 'BR_Position', 'BR_Wheel', 'FL_Position', 'FL_Wheel', 'FR_Position', 'FR_Wheel'];(0.0, 634.2750244140625, 0.0015339808305725455, 632.0046997070312, 0.0, 632.2762451171875, -0.0015339808305725455, 636.7584838867188);(0.0, 0.0, 0.0, 0.0, 0.0, 0.0, 0.0, 0.0);(5.380000114440918, 83.38999938964844, 0.0, 2.690000057220459, 5.380000114440918, -2.690000057220459, 5.380000114440918, 0.0)
2024/05/03/12:43:34.581817;55304;1714765414;597998238;;['BL_Position', 'BL_Wheel', 'BR_Position', 'BR_Wheel', 'FL_Position', 'FL_Wheel', 'FR_Position', 'FR_Wheel'];(0.0, 634.2750244140625, 0.0, 632.0046997070312, 0.0, 632.2762451171875, -0.0015339808305725455, 636.7584838867188);(0.0, 0.0, 0.0, 0.0, 0.0, 0.0, 0.0, 0.0);(5.380000114440918, 83.38999938964844, 0.0, 2.690000057220459, 5.380000114440918, -2.690000057220459, 8.069999694824219, 0.0)
2024/05/03/12:43:34.597454;55305;1714765414;614040901;;['BL_Position', 'BL_Wheel', 'BR_Position', 'BR_Wheel', 'FL_Position', 'FL_Wheel', 'FR_Position', 'FR_Wheel'];(0.0, 634.2750244140625, 0.0, 632.0046997070312, 0.0, 632.2762451171875, -0.0015339808305725455, 636.7584838867188);(0.0, 0.0, 0.0, 0.0, 0.0, 0.0, 0.0, 0.0);(5.380000114440918, 83.38999938964844, 0.0, 2.690000057220459, 5.380000114440918, -2.690000057220459, 5.380000114440918, 0.0)
2024/05/03/12:43:34.613539;55306;1714765414;630019767;;['BL_Position', 'BL_Wheel', 'BR_Position', 'BR_Wheel', 'FL_Position', 'FL_Wheel', 'FR_Position', 'FR_Wheel'];(0.0, 634.2750244140625, 0.0, 632.0062255859375, 0.0, 632.2762451171875, 0.0, 636.7584838867188);(0.0, 0.0, 0.0, 0.0, 0.0, 0.0, 0.0, 0.0);(5.380000114440918, 83.38999938964844, 0.0, 2.690000057220459, 5.380000114440918, -2.690000057220459, 5.380000114440918, 0.0)
2024/05/03/12:43:34.631344;55307;1714765414;646060299;;['BL_Position', 'BL_Wheel', 'BR_Position', 'BR_Wheel', 'FL_Position', 'FL_Wheel', 'FR_Position', 'FR_Wheel'];(0.0, 634.2750244140625, 0.0015339808305725455, 632.0062255859375, 0.0, 632.2762451171875, -0.0015339808305725455, 636.7584838867188);(0.0, 0.0, 0.0, 0.0, 0.0, 0.0, 0.0, 0.0);(5.380000114440918, 83.38999938964844, 0.0, 2.690000057220459, 5.380000114440918, -2.690000057220459, 5.380000114440918, 0.0)
2024/05/03/12:43:34.648155;55308;1714765414;662016628;;['BL_Position', 'BL_Wheel', 'BR_Position', 'BR_Wheel', 'FL_Position', 'FL_Wheel', 'FR_Position', 'FR_Wheel'];(0.0, 634.2750244140625, 0.0015339808305725455, 632.0046997070312, 0.0, 632.2777709960938, -0.0015339808305725455, 636.7600708007812);(0.0, 0.0, 0.0, 0.0, 0.0, 0.0, 0.0, 0.0);(5.380000114440918, 83.38999938964844, 0.0, 2.690000057220459, 5.380000114440918, -2.690000057220459, 5.380000114440918, 0.0)
2024/05/03/12:43:34.664433;55309;1714765414;678039920;;['BL_Position', 'BL_Wheel', 'BR_Position', 'BR_Wheel', 'FL_Position', 'FL_Wheel', 'FR_Position', 'FR_Wheel'];(0.0, 634.2750244140625, 0.0015339808305725455, 632.0046997070312, 0.0, 632.2762451171875, 0.0, 636.7584838867188);(0.0, 0.0, 0.0, 0.0, 0.0, 0.0, 0.0, 0.0);(5.380000114440918, 83.38999938964844, 0.0, 2.690000057220459, 0.0, -2.690000057220459, 5.380000114440918, 0.0)
2024/05/03/12:43:34.677541;55310;1714765414;694032212;;['BL_Position', 'BL_Wheel', 'BR_Position', 'BR_Wheel', 'FL_Position', 'FL_Wheel', 'FR_Position', 'FR_Wheel'];(0.0, 634.2734375, 0.0, 632.0046997070312, 0.0, 632.2762451171875, 0.0, 636.7584838867188);(0.0, 0.0, 0.0, 0.0, 0.0, 0.0, 0.0, 0.0);(5.380000114440918, 83.38999938964844, 0.0, 2.690000057220459, 0.0, -2.690000057220459, 8.069999694824219, 0.0)
2024/05/03/12:43:34.694468;55311;1714765414;710038264;;['BL_Position', 'BL_Wheel', 'BR_Position', 'BR_Wheel', 'FL_Position', 'FL_Wheel', 'FR_Position', 'FR_Wheel'];(0.0, 634.2750244140625, 0.0015339808305725455, 632.0062255859375, 0.0, 632.2777709960938, -0.0015339808305725455, 636.7584838867188);(0.0, 0.0, 0.0, 0.0, 0.0, 0.0, 0.0, 0.0);(5.380000114440918, 83.38999938964844, 0.0, 2.690000057220459, 0.0, -2.690000057220459, 5.380000114440918, 0.0)
2024/05/03/12:43:34.710232;55312;1714765414;726046556;;['BL_Position', 'BL_Wheel', 'BR_Position', 'BR_Wheel', 'FL_Position', 'FL_Wheel', 'FR_Position', 'FR_Wheel'];(0.0, 634.2750244140625, 0.0015339808305725455, 632.0062255859375, 0.0, 632.2762451171875, -0.0015339808305725455, 636.7584838867188);(0.0, 0.0, 0.0, 0.0, 0.0, 0.0, 0.0, 0.0);(5.380000114440918, 83.38999938964844, 0.0, 2.690000057220459, 0.0, -2.690000057220459, 5.380000114440918, 0.0)
2024/05/03/12:43:34.732776;55313;1714765414;742102737;;['BL_Position', 'BL_Wheel', 'BR_Position', 'BR_Wheel', 'FL_Position', 'FL_Wheel', 'FR_Position', 'FR_Wheel'];(0.0, 634.2750244140625, 0.0015339808305725455, 632.0062255859375, 0.0, 632.2762451171875, 0.0, 636.7584838867188);(0.0, 0.0, 0.0, 0.0, 0.0, 0.0, 0.0, 0.0);(5.380000114440918, 83.38999938964844, 0.0, 2.690000057220459, 0.0, -2.690000057220459, 5.380000114440918, 0.0)
2024/05/03/12:43:34.741541;55314;1714765414;758051732;;['BL_Position', 'BL_Wheel', 'BR_Position', 'BR_Wheel', 'FL_Position', 'FL_Wheel', 'FR_Position', 'FR_Wheel'];(0.0, 634.2750244140625, 0.0015339808305725455, 632.0046997070312, 0.0, 632.2777709960938, 0.0, 636.7584838867188);(0.0, 0.0, 0.0, 0.0, 0.0, 0.0, 0.0, 0.0);(5.380000114440918, 83.38999938964844, 0.0, 2.690000057220459, 2.690000057220459, -2.690000057220459, 5.380000114440918, 0.0)
2024/05/03/12:43:34.763867;55315;1714765414;774083747;;['BL_Position', 'BL_Wheel', 'BR_Position', 'BR_Wheel', 'FL_Position', 'FL_Wheel', 'FR_Position', 'FR_Wheel'];(0.0, 634.2750244140625, 0.0, 632.0046997070312, 0.0, 632.2762451171875, 0.0, 636.7584838867188);(0.0, 0.0, 0.0, 0.0, 0.0, 0.0, 0.0, 0.0);(5.380000114440918, 83.38999938964844, 0.0, 2.690000057220459, 2.690000057220459, -2.690000057220459, 5.380000114440918, 0.0)
2024/05/03/12:43:34.773631;55316;1714765414;790078668;;['BL_Position', 'BL_Wheel', 'BR_Position', 'BR_Wheel', 'FL_Position', 'FL_Wheel', 'FR_Position', 'FR_Wheel'];(0.0, 634.2750244140625, 0.0015339808305725455, 632.0046997070312, 0.0, 632.2777709960938, 0.0, 636.7584838867188);(0.0, 0.0, 0.0, 0.0, 0.0, 0.0, 0.0, 0.0);(5.380000114440918, 83.38999938964844, 0.0, 2.690000057220459, 2.690000057220459, -2.690000057220459, 8.069999694824219, 0.0)
2024/05/03/12:43:34.790360;55317;1714765414;806202275;;['BL_Position', 'BL_Wheel', 'BR_Position', 'BR_Wheel', 'FL_Position', 'FL_Wheel', 'FR_Position', 'FR_Wheel'];(0.0, 634.2750244140625, 0.0015339808305725455, 632.0046997070312, 0.0, 632.2777709960938, 0.0, 636.7584838867188);(0.0, 0.0, 0.0, 0.0, 0.0, 0.0, 0.0, 0.0);(5.380000114440918, 83.38999938964844, 0.0, 2.690000057220459, 2.690000057220459, -2.690000057220459, 5.380000114440918, 0.0)
2024/05/03/12:43:34.805782;55318;1714765414;822083789;;['BL_Position', 'BL_Wheel', 'BR_Position', 'BR_Wheel', 'FL_Position', 'FL_Wheel', 'FR_Position', 'FR_Wheel'];(0.0, 634.2750244140625, 0.0015339808305725455, 632.0046997070312, 0.0, 632.2762451171875, -0.0015339808305725455, 636.7584838867188);(0.0, 0.0, 0.0, 0.0, 0.0, 0.0, 0.0, 0.0);(5.380000114440918, 83.38999938964844, 0.0, 2.690000057220459, 2.690000057220459, -2.690000057220459, 8.069999694824219, 0.0)
2024/05/03/12:43:34.821824;55319;1714765414;838032803;;['BL_Position', 'BL_Wheel', 'BR_Position', 'BR_Wheel', 'FL_Position', 'FL_Wheel', 'FR_Position', 'FR_Wheel'];(0.0, 634.2750244140625, 0.0015339808305725455, 632.0046997070312, 0.0, 632.2762451171875, -0.0015339808305725455, 636.7584838867188);(0.0, 0.0, 0.0, 0.0, 0.0, 0.0, 0.0, 0.0);(5.380000114440918, 83.38999938964844, 0.0, 2.690000057220459, 2.690000057220459, -2.690000057220459, 5.380000114440918, 0.0)
2024/05/03/12:43:34.838115;55320;1714765414;854665429;;['BL_Position', 'BL_Wheel', 'BR_Position', 'BR_Wheel', 'FL_Position', 'FL_Wheel', 'FR_Position', 'FR_Wheel'];(0.0, 634.2750244140625, 0.0, 632.0046997070312, 0.0, 632.2762451171875, 0.0, 636.7584838867188);(0.0, 0.0, 0.0, 0.0, 0.0, 0.0, 0.0, 0.0);(5.380000114440918, 83.38999938964844, 0.0, 2.690000057220459, 2.690000057220459, -2.690000057220459, 8.069999694824219, 0.0)
2024/05/03/12:43:34.854507;55321;1714765414;870687295;;['BL_Position', 'BL_Wheel', 'BR_Position', 'BR_Wheel', 'FL_Position', 'FL_Wheel', 'FR_Position', 'FR_Wheel'];(0.0, 634.2750244140625, 0.0015339808305725455, 632.0062255859375, 0.0, 632.2762451171875, -0.0015339808305725455, 636.7584838867188);(0.0, 0.0, 0.0, 0.0, 0.0, 0.0, 0.0, 0.0);(5.380000114440918, 83.38999938964844, 0.0, 2.690000057220459, 2.690000057220459, -2.690000057220459, 5.380000114440918, 0.0)
2024/05/03/12:43:34.872412;55322;1714765414;886266642;;['BL_Position', 'BL_Wheel', 'BR_Position', 'BR_Wheel', 'FL_Position', 'FL_Wheel', 'FR_Position', 'FR_Wheel'];(0.0, 634.2750244140625, 0.0, 632.0062255859375, 0.0, 632.2762451171875, 0.0, 636.7584838867188);(0.0, 0.0, 0.0, 0.0, 0.0, 0.0, 0.0, 0.0);(5.380000114440918, 83.38999938964844, 0.0, 2.690000057220459, 5.380000114440918, -2.690000057220459, 8.069999694824219, 0.0)
2024/05/03/12:43:34.885887;55323;1714765414;902026249;;['BL_Position', 'BL_Wheel', 'BR_Position', 'BR_Wheel', 'FL_Position', 'FL_Wheel', 'FR_Position', 'FR_Wheel'];(0.0, 634.2750244140625, 0.0015339808305725455, 632.0062255859375, 0.0, 632.2762451171875, -0.0015339808305725455, 636.7584838867188);(0.0, 0.0, 0.0, 0.0, 0.0, 0.0, 0.0, 0.0);(5.380000114440918, 83.38999938964844, 0.0, 2.690000057220459, 10.760000228881836, -2.690000057220459, 2.690000057220459, 0.0)
2024/05/03/12:43:34.902289;55324;1714765414;918029912;;['BL_Position', 'BL_Wheel', 'BR_Position', 'BR_Wheel', 'FL_Position', 'FL_Wheel', 'FR_Position', 'FR_Wheel'];(0.0, 634.2750244140625, 0.0015339808305725455, 632.0062255859375, 0.0, 632.2777709960938, -0.0015339808305725455, 636.7584838867188);(0.0, 0.0, 0.0, 0.0, 0.0, 0.0, 0.0, 0.0);(5.380000114440918, 83.38999938964844, 0.0, 2.690000057220459, 5.380000114440918, -2.690000057220459, 8.069999694824219, 0.0)
2024/05/03/12:43:34.917791;55325;1714765414;933992111;;['BL_Position', 'BL_Wheel', 'BR_Position', 'BR_Wheel', 'FL_Position', 'FL_Wheel', 'FR_Position', 'FR_Wheel'];(0.0, 634.2750244140625, 0.0015339808305725455, 632.0062255859375, 0.0, 632.2762451171875, -0.0015339808305725455, 636.7584838867188);(0.0, 0.0, 0.0, 0.0, 0.0, 0.0, 0.0, 0.0);(5.380000114440918, 83.38999938964844, 0.0, 2.690000057220459, 5.380000114440918, -2.690000057220459, 5.380000114440918, 0.0)
2024/05/03/12:43:34.937788;55326;1714765414;950052644;;['BL_Position', 'BL_Wheel', 'BR_Position', 'BR_Wheel', 'FL_Position', 'FL_Wheel', 'FR_Position', 'FR_Wheel'];(0.0, 634.2750244140625, 0.0015339808305725455, 632.0046997070312, 0.0, 632.2762451171875, -0.0015339808305725455, 636.7584838867188);(0.0, 0.0, 0.0, 0.0, 0.0, 0.0, 0.0, 0.0);(5.380000114440918, 83.38999938964844, 0.0, 2.690000057220459, 5.380000114440918, -2.690000057220459, 5.380000114440918, 0.0)
2024/05/03/12:43:34.950016;55327;1714765414;965986843;;['BL_Position', 'BL_Wheel', 'BR_Position', 'BR_Wheel', 'FL_Position', 'FL_Wheel', 'FR_Position', 'FR_Wheel'];(0.0, 634.2750244140625, 0.0015339808305725455, 632.0046997070312, 0.0, 632.2777709960938, -0.0015339808305725455, 636.7584838867188);(0.0, 0.0, 0.0, 0.0, 0.0, 0.0, 0.0, 0.0);(5.380000114440918, 83.38999938964844, 0.0, 2.690000057220459, 5.380000114440918, -2.690000057220459, 10.760000228881836, 0.0)
2024/05/03/12:43:34.969495;55328;1714765414;981966839;;['BL_Position', 'BL_Wheel', 'BR_Position', 'BR_Wheel', 'FL_Position', 'FL_Wheel', 'FR_Position', 'FR_Wheel'];(0.0, 634.2734375, 0.0015339808305725455, 632.0046997070312, 0.0, 632.2762451171875, -0.0015339808305725455, 636.7584838867188);(0.0, 0.0, 0.0, 0.0, 0.0, 0.0, 0.0, 0.0);(5.380000114440918, 83.38999938964844, 0.0, 2.690000057220459, 0.0, -2.690000057220459, 5.380000114440918, 0.0)
2024/05/03/12:43:34.981887;55329;1714765414;997983094;;['BL_Position', 'BL_Wheel', 'BR_Position', 'BR_Wheel', 'FL_Position', 'FL_Wheel', 'FR_Position', 'FR_Wheel'];(0.0, 634.2750244140625, 0.0015339808305725455, 632.0046997070312, 0.0, 632.2762451171875, 0.0, 636.7584838867188);(0.0, 0.0, 0.0, 0.0, 0.0, 0.0, 0.0, 0.0);(5.380000114440918, 83.38999938964844, 0.0, 2.690000057220459, 5.380000114440918, -2.690000057220459, 5.380000114440918, 0.0)
2024/05/03/12:43:34.997845;55330;1714765415;14100830;;['BL_Position', 'BL_Wheel', 'BR_Position', 'BR_Wheel', 'FL_Position', 'FL_Wheel', 'FR_Position', 'FR_Wheel'];(0.0, 634.2750244140625, 0.0, 632.0062255859375, 0.0, 632.2762451171875, -0.0015339808305725455, 636.7584838867188);(0.0, 0.0, 0.0, 0.0, 0.0, 0.0, 0.0, 0.0);(5.380000114440918, 83.38999938964844, 0.0, 2.690000057220459, 5.380000114440918, -2.690000057220459, 5.380000114440918, 0.0)
2024/05/03/12:43:35.013749;55331;1714765415;30032030;;['BL_Position', 'BL_Wheel', 'BR_Position', 'BR_Wheel', 'FL_Position', 'FL_Wheel', 'FR_Position', 'FR_Wheel'];(0.0, 634.2750244140625, 0.0, 632.0062255859375, 0.0, 632.2777709960938, 0.0, 636.7584838867188);(0.0, 0.0, 0.0, 0.0, 0.0, 0.0, 0.0, 0.0);(5.380000114440918, 83.38999938964844, 0.0, 2.690000057220459, 5.380000114440918, -2.690000057220459, 5.380000114440918, 0.0)
2024/05/03/12:43:35.040361;55332;1714765415;46019766;;['BL_Position', 'BL_Wheel', 'BR_Position', 'BR_Wheel', 'FL_Position', 'FL_Wheel', 'FR_Position', 'FR_Wheel'];(0.0, 634.2750244140625, 0.0015339808305725455, 632.0046997070312, 0.0, 632.2762451171875, 0.0, 636.7584838867188);(0.0, 0.0, 0.0, 0.0, 0.0, 0.0, 0.0, 0.0);(5.380000114440918, 83.38999938964844, 0.0, 2.690000057220459, 5.380000114440918, -2.690000057220459, 10.760000228881836, 0.0)
2024/05/03/12:43:35.046283;55333;1714765415;62032280;;['BL_Position', 'BL_Wheel', 'BR_Position', 'BR_Wheel', 'FL_Position', 'FL_Wheel', 'FR_Position', 'FR_Wheel'];(0.0, 634.2750244140625, 0.0, 632.0062255859375, 0.0, 632.2777709960938, -0.0015339808305725455, 636.7584838867188);(0.0, 0.0, 0.0, 0.0, 0.0, 0.0, 0.0, 0.0);(5.380000114440918, 83.38999938964844, 0.0, 2.690000057220459, 5.380000114440918, -2.690000057220459, 5.380000114440918, 0.0)
2024/05/03/12:43:35.065385;55334;1714765415;78021239;;['BL_Position', 'BL_Wheel', 'BR_Position', 'BR_Wheel', 'FL_Position', 'FL_Wheel', 'FR_Position', 'FR_Wheel'];(0.0, 634.2750244140625, 0.0015339808305725455, 632.0046997070312, 0.0, 632.2762451171875, -0.0015339808305725455, 636.7584838867188);(0.0, 0.0, 0.0, 0.0, 0.0, 0.0, 0.0, 0.0);(5.380000114440918, 83.38999938964844, 0.0, 2.690000057220459, 5.380000114440918, -2.690000057220459, 8.069999694824219, 0.0)
2024/05/03/12:43:35.077743;55335;1714765415;94037568;;['BL_Position', 'BL_Wheel', 'BR_Position', 'BR_Wheel', 'FL_Position', 'FL_Wheel', 'FR_Position', 'FR_Wheel'];(0.0, 634.2750244140625, 0.0015339808305725455, 632.0046997070312, 0.0, 632.2762451171875, -0.0015339808305725455, 636.7584838867188);(0.0, 0.0, 0.0, 0.0, 0.0, 0.0, 0.0, 0.0);(5.380000114440918, 83.38999938964844, 0.0, 2.690000057220459, 5.380000114440918, -2.690000057220459, 5.380000114440918, 0.0)
2024/05/03/12:43:35.093656;55336;1714765415;109987934;;['BL_Position', 'BL_Wheel', 'BR_Position', 'BR_Wheel', 'FL_Position', 'FL_Wheel', 'FR_Position', 'FR_Wheel'];(0.0, 634.2734375, 0.0015339808305725455, 632.0046997070312, 0.0, 632.2762451171875, 0.0, 636.7600708007812);(0.0, 0.0, 0.0, 0.0, 0.0, 0.0, 0.0, 0.0);(5.380000114440918, 83.38999938964844, 0.0, 2.690000057220459, 5.380000114440918, -2.690000057220459, 5.380000114440918, 0.0)
2024/05/03/12:43:35.110792;55337;1714765415;126053300;;['BL_Position', 'BL_Wheel', 'BR_Position', 'BR_Wheel', 'FL_Position', 'FL_Wheel', 'FR_Position', 'FR_Wheel'];(0.0, 634.2750244140625, 0.0015339808305725455, 632.0046997070312, 0.0, 632.2762451171875, -0.0015339808305725455, 636.7584838867188);(0.0, 0.0, 0.0, 0.0, 0.0, 0.0, 0.0, 0.0);(5.380000114440918, 83.38999938964844, 0.0, 2.690000057220459, 5.380000114440918, -2.690000057220459, 5.380000114440918, 0.0)
2024/05/03/12:43:35.126337;55338;1714765415;142018629;;['BL_Position', 'BL_Wheel', 'BR_Position', 'BR_Wheel', 'FL_Position', 'FL_Wheel', 'FR_Position', 'FR_Wheel'];(0.0, 634.2750244140625, 0.0015339808305725455, 632.0046997070312, 0.0, 632.2762451171875, -0.0015339808305725455, 636.7584838867188);(0.0, 0.0, 0.0, 0.0, 0.0, 0.0, 0.0, 0.0);(5.380000114440918, 83.38999938964844, 0.0, 2.690000057220459, 5.380000114440918, -2.690000057220459, 5.380000114440918, 0.0)
2024/05/03/12:43:35.142217;55339;1714765415;158010069;;['BL_Position', 'BL_Wheel', 'BR_Position', 'BR_Wheel', 'FL_Position', 'FL_Wheel', 'FR_Position', 'FR_Wheel'];(0.0, 634.2734375, 0.0015339808305725455, 632.0062255859375, 0.0, 632.2762451171875, 0.0, 636.7584838867188);(0.0, 0.0, 0.0, 0.0, 0.0, 0.0, 0.0, 0.0);(5.380000114440918, 83.38999938964844, 0.0, 2.690000057220459, 5.380000114440918, -2.690000057220459, 5.380000114440918, 0.0)
2024/05/03/12:43:35.159456;55340;1714765415;174046250;;['BL_Position', 'BL_Wheel', 'BR_Position', 'BR_Wheel', 'FL_Position', 'FL_Wheel', 'FR_Position', 'FR_Wheel'];(0.0, 634.2750244140625, 0.0015339808305725455, 632.0046997070312, 0.0, 632.2777709960938, -0.0015339808305725455, 636.7584838867188);(0.0, 0.0, 0.0, 0.0, 0.0, 0.0, 0.0, 0.0);(5.380000114440918, 83.38999938964844, 0.0, 2.690000057220459, 5.380000114440918, -2.690000057220459, 5.380000114440918, 0.0)
2024/05/03/12:43:35.173750;55341;1714765415;189982450;;['BL_Position', 'BL_Wheel', 'BR_Position', 'BR_Wheel', 'FL_Position', 'FL_Wheel', 'FR_Position', 'FR_Wheel'];(0.0, 634.2750244140625, 0.0015339808305725455, 632.0046997070312, 0.0, 632.2777709960938, 0.0, 636.7584838867188);(0.0, 0.0, 0.0, 0.0, 0.0, 0.0, 0.0, 0.0);(5.380000114440918, 83.38999938964844, 0.0, 2.690000057220459, 13.450000762939453, -2.690000057220459, 8.069999694824219, 0.0)
2024/05/03/12:43:35.189826;55342;1714765415;206078631;;['BL_Position', 'BL_Wheel', 'BR_Position', 'BR_Wheel', 'FL_Position', 'FL_Wheel', 'FR_Position', 'FR_Wheel'];(0.0, 634.2750244140625, 0.0, 632.0046997070312, 0.0, 632.2762451171875, -0.0015339808305725455, 636.7584838867188);(0.0, 0.0, 0.0, 0.0, 0.0, 0.0, 0.0, 0.0);(5.380000114440918, 83.38999938964844, 0.0, 2.690000057220459, 5.380000114440918, -2.690000057220459, 5.380000114440918, 0.0)
2024/05/03/12:43:35.206095;55343;1714765415;222074145;;['BL_Position', 'BL_Wheel', 'BR_Position', 'BR_Wheel', 'FL_Position', 'FL_Wheel', 'FR_Position', 'FR_Wheel'];(0.0, 634.2750244140625, 0.0015339808305725455, 632.0046997070312, 0.0, 632.2762451171875, -0.0015339808305725455, 636.7584838867188);(0.0, 0.0, 0.0, 0.0, 0.0, 0.0, 0.0, 0.0);(5.380000114440918, 83.38999938964844, 0.0, 2.690000057220459, 5.380000114440918, -2.690000057220459, 5.380000114440918, 0.0)
2024/05/03/12:43:35.222492;55344;1714765415;238062381;;['BL_Position', 'BL_Wheel', 'BR_Position', 'BR_Wheel', 'FL_Position', 'FL_Wheel', 'FR_Position', 'FR_Wheel'];(-0.0015339808305725455, 634.2750244140625, 0.0015339808305725455, 632.0046997070312, 0.0, 632.2762451171875, 0.0, 636.7584838867188);(0.0, 0.0, 0.0, 0.0, 0.0, 0.0, 0.0, 0.0);(5.380000114440918, 83.38999938964844, 0.0, 2.690000057220459, 5.380000114440918, -2.690000057220459, 5.380000114440918, 0.0)
2024/05/03/12:43:35.245266;55345;1714765415;254115303;;['BL_Position', 'BL_Wheel', 'BR_Position', 'BR_Wheel', 'FL_Position', 'FL_Wheel', 'FR_Position', 'FR_Wheel'];(0.0, 634.2750244140625, 0.0015339808305725455, 632.0062255859375, 0.0, 632.2777709960938, -0.0015339808305725455, 636.7584838867188);(0.0, 0.0, 0.0, 0.0, 0.0, 0.0, 0.0, 0.0);(5.380000114440918, 83.38999938964844, 0.0, 2.690000057220459, 5.380000114440918, -2.690000057220459, 8.069999694824219, 0.0)
2024/05/03/12:43:35.253926;55346;1714765415;270070910;;['BL_Position', 'BL_Wheel', 'BR_Position', 'BR_Wheel', 'FL_Position', 'FL_Wheel', 'FR_Position', 'FR_Wheel'];(0.0, 634.2750244140625, 0.0, 632.0046997070312, 0.0, 632.2762451171875, -0.0015339808305725455, 636.7584838867188);(0.0, 0.0, 0.0, 0.0, 0.0, 0.0, 0.0, 0.0);(5.380000114440918, 83.38999938964844, 0.0, 2.690000057220459, 5.380000114440918, -2.690000057220459, 8.069999694824219, 0.0)
2024/05/03/12:43:35.269907;55347;1714765415;286012591;;['BL_Position', 'BL_Wheel', 'BR_Position', 'BR_Wheel', 'FL_Position', 'FL_Wheel', 'FR_Position', 'FR_Wheel'];(0.0, 634.2750244140625, 0.0015339808305725455, 632.0046997070312, 0.0, 632.2777709960938, 0.0, 636.7584838867188);(0.0, 0.0, 0.0, 0.0, 0.0, 0.0, 0.0, 0.0);(5.380000114440918, 83.38999938964844, 0.0, 2.690000057220459, 5.380000114440918, -2.690000057220459, 5.380000114440918, 0.0)
2024/05/03/12:43:35.285686;55348;1714765415;302022364;;['BL_Position', 'BL_Wheel', 'BR_Position', 'BR_Wheel', 'FL_Position', 'FL_Wheel', 'FR_Position', 'FR_Wheel'];(0.0, 634.2750244140625, 0.0015339808305725455, 632.0046997070312, 0.0, 632.2762451171875, -0.0015339808305725455, 636.7584838867188);(0.0, 0.0, 0.0, 0.0, 0.0, 0.0, 0.0, 0.0);(5.380000114440918, 83.38999938964844, 0.0, 2.690000057220459, 5.380000114440918, -2.690000057220459, 5.380000114440918, 0.0)
2024/05/03/12:43:35.300216;55349;1714765415;318008230;;['BL_Position', 'BL_Wheel', 'BR_Position', 'BR_Wheel', 'FL_Position', 'FL_Wheel', 'FR_Position', 'FR_Wheel'];(0.0, 634.2750244140625, 0.0, 632.0046997070312, 0.0, 632.2762451171875, -0.0015339808305725455, 636.7584838867188);(0.0, 0.0, 0.0, 0.0, 0.0, 0.0, 0.0, 0.0);(5.380000114440918, 83.38999938964844, 0.0, 2.690000057220459, 0.0, -2.690000057220459, 5.380000114440918, 0.0)
2024/05/03/12:43:35.317685;55350;1714765415;333998374;;['BL_Position', 'BL_Wheel', 'BR_Position', 'BR_Wheel', 'FL_Position', 'FL_Wheel', 'FR_Position', 'FR_Wheel'];(0.0, 634.2750244140625, 0.0, 632.0046997070312, 0.0, 632.2777709960938, -0.0015339808305725455, 636.7584838867188);(0.0, 0.0, 0.0, 0.0, 0.0, 0.0, 0.0, 0.0);(5.380000114440918, 83.38999938964844, 0.0, 2.690000057220459, 0.0, -2.690000057220459, 5.380000114440918, 0.0)
2024/05/03/12:43:35.332301;55351;1714765415;350000111;;['BL_Position', 'BL_Wheel', 'BR_Position', 'BR_Wheel', 'FL_Position', 'FL_Wheel', 'FR_Position', 'FR_Wheel'];(0.0, 634.2750244140625, 0.0015339808305725455, 632.0062255859375, 0.0, 632.2762451171875, 0.0, 636.7584838867188);(0.0, 0.0, 0.0, 0.0, 0.0, 0.0, 0.0, 0.0);(5.380000114440918, 83.38999938964844, 0.0, 2.690000057220459, 5.380000114440918, -2.690000057220459, 5.380000114440918, 0.0)
2024/05/03/12:43:35.348375;55352;1714765415;365992014;;['BL_Position', 'BL_Wheel', 'BR_Position', 'BR_Wheel', 'FL_Position', 'FL_Wheel', 'FR_Position', 'FR_Wheel'];(0.0, 634.2750244140625, 0.0, 632.0046997070312, 0.0, 632.2762451171875, 0.0, 636.7584838867188);(0.0, 0.0, 0.0, 0.0, 0.0, 0.0, 0.0, 0.0);(5.380000114440918, 83.38999938964844, 0.0, 2.690000057220459, 5.380000114440918, -2.690000057220459, 5.380000114440918, 0.0)
2024/05/03/12:43:35.368716;55353;1714765415;381962269;;['BL_Position', 'BL_Wheel', 'BR_Position', 'BR_Wheel', 'FL_Position', 'FL_Wheel', 'FR_Position', 'FR_Wheel'];(0.0, 634.2734375, 0.0, 632.0062255859375, 0.0, 632.2762451171875, -0.0015339808305725455, 636.7584838867188);(0.0, 0.0, 0.0, 0.0, 0.0, 0.0, 0.0, 0.0);(5.380000114440918, 83.38999938964844, 0.0, 2.690000057220459, 5.380000114440918, -2.690000057220459, 8.069999694824219, 0.0)
2024/05/03/12:43:35.383574;55354;1714765415;397970894;;['BL_Position', 'BL_Wheel', 'BR_Position', 'BR_Wheel', 'FL_Position', 'FL_Wheel', 'FR_Position', 'FR_Wheel'];(0.0, 634.2750244140625, 0.0015339808305725455, 632.0062255859375, 0.0, 632.2762451171875, 0.0, 636.7600708007812);(0.0, 0.0, 0.0, 0.0, 0.0, 0.0, 0.0, 0.0);(5.380000114440918, 83.38999938964844, 0.0, 2.690000057220459, 5.380000114440918, -2.690000057220459, 5.380000114440918, 0.0)
2024/05/03/12:43:35.398073;55355;1714765415;414009001;;['BL_Position', 'BL_Wheel', 'BR_Position', 'BR_Wheel', 'FL_Position', 'FL_Wheel', 'FR_Position', 'FR_Wheel'];(0.0, 634.2750244140625, 0.0015339808305725455, 632.0062255859375, 0.0, 632.2762451171875, -0.0015339808305725455, 636.7584838867188);(0.0, 0.0, 0.0, 0.0, 0.0, 0.0, 0.0, 0.0);(5.380000114440918, 83.38999938964844, 0.0, 2.690000057220459, 5.380000114440918, -2.690000057220459, 8.069999694824219, 0.0)
2024/05/03/12:43:35.412927;55356;1714765415;430086163;;['BL_Position', 'BL_Wheel', 'BR_Position', 'BR_Wheel', 'FL_Position', 'FL_Wheel', 'FR_Position', 'FR_Wheel'];(0.0, 634.2750244140625, 0.0, 632.0062255859375, 0.0, 632.2762451171875, -0.0015339808305725455, 636.7584838867188);(0.0, 0.0, 0.0, 0.0, 0.0, 0.0, 0.0, 0.0);(5.380000114440918, 83.38999938964844, 0.0, 2.690000057220459, 5.380000114440918, -2.690000057220459, 8.069999694824219, 0.0)
2024/05/03/12:43:35.430721;55357;1714765415;446035974;;['BL_Position', 'BL_Wheel', 'BR_Position', 'BR_Wheel', 'FL_Position', 'FL_Wheel', 'FR_Position', 'FR_Wheel'];(0.0, 634.2750244140625, 0.0, 632.0046997070312, 0.0, 632.2762451171875, -0.0015339808305725455, 636.7584838867188);(0.0, 0.0, 0.0, 0.0, 0.0, 0.0, 0.0, 0.0);(5.380000114440918, 83.38999938964844, 0.0, 2.690000057220459, 5.380000114440918, -2.690000057220459, 5.380000114440918, 0.0)
2024/05/03/12:43:35.449577;55358;1714765415;462005173;;['BL_Position', 'BL_Wheel', 'BR_Position', 'BR_Wheel', 'FL_Position', 'FL_Wheel', 'FR_Position', 'FR_Wheel'];(0.0, 634.2750244140625, 0.0015339808305725455, 632.0062255859375, 0.0, 632.2762451171875, -0.0015339808305725455, 636.7584838867188);(0.0, 0.0, 0.0, 0.0, 0.0, 0.0, 0.0, 0.0);(5.380000114440918, 83.38999938964844, 0.0, 2.690000057220459, 5.380000114440918, -2.690000057220459, 8.069999694824219, 0.0)
2024/05/03/12:43:35.461649;55359;1714765415;478081076;;['BL_Position', 'BL_Wheel', 'BR_Position', 'BR_Wheel', 'FL_Position', 'FL_Wheel', 'FR_Position', 'FR_Wheel'];(0.0, 634.2750244140625, 0.0015339808305725455, 632.0046997070312, 0.0, 632.2762451171875, 0.0, 636.7569580078125);(0.0, 0.0, 0.0, 0.0, 0.0, 0.0, 0.0, 0.0);(5.380000114440918, 83.38999938964844, 0.0, 2.690000057220459, 5.380000114440918, -2.690000057220459, 8.069999694824219, 0.0)
2024/05/03/12:43:35.486220;55360;1714765415;494041368;;['BL_Position', 'BL_Wheel', 'BR_Position', 'BR_Wheel', 'FL_Position', 'FL_Wheel', 'FR_Position', 'FR_Wheel'];(0.0, 634.2750244140625, 0.0015339808305725455, 632.0046997070312, 0.0, 632.2762451171875, 0.0, 636.7584838867188);(0.0, 0.0, 0.0, 0.0, 0.0, 0.0, 0.0, 0.0);(5.380000114440918, 83.38999938964844, 0.0, 2.690000057220459, 0.0, -2.690000057220459, 5.380000114440918, 0.0)
2024/05/03/12:43:35.493609;55361;1714765415;510045753;;['BL_Position', 'BL_Wheel', 'BR_Position', 'BR_Wheel', 'FL_Position', 'FL_Wheel', 'FR_Position', 'FR_Wheel'];(0.0, 634.2750244140625, 0.0, 632.0046997070312, 0.0, 632.2777709960938, 0.0, 636.7584838867188);(0.0, 0.0, 0.0, 0.0, 0.0, 0.0, 0.0, 0.0);(5.380000114440918, 83.38999938964844, 0.0, 2.690000057220459, 2.690000057220459, -2.690000057220459, 5.380000114440918, 0.0)
2024/05/03/12:43:35.509938;55362;1714765415;526048712;;['BL_Position', 'BL_Wheel', 'BR_Position', 'BR_Wheel', 'FL_Position', 'FL_Wheel', 'FR_Position', 'FR_Wheel'];(0.0, 634.2750244140625, 0.0015339808305725455, 632.0046997070312, 0.0, 632.2762451171875, -0.0015339808305725455, 636.7584838867188);(0.0, 0.0, 0.0, 0.0, 0.0, 0.0, 0.0, 0.0);(5.380000114440918, 83.38999938964844, 0.0, 2.690000057220459, 5.380000114440918, -2.690000057220459, 5.380000114440918, 0.0)
2024/05/03/12:43:35.526633;55363;1714765415;542109633;;['BL_Position', 'BL_Wheel', 'BR_Position', 'BR_Wheel', 'FL_Position', 'FL_Wheel', 'FR_Position', 'FR_Wheel'];(0.0, 634.2750244140625, 0.0015339808305725455, 632.0062255859375, 0.0, 632.2762451171875, -0.0015339808305725455, 636.7584838867188);(0.0, 0.0, 0.0, 0.0, 0.0, 0.0, 0.0, 0.0);(5.380000114440918, 83.38999938964844, 0.0, 2.690000057220459, 5.380000114440918, -2.690000057220459, 5.380000114440918, 0.0)
2024/05/03/12:43:35.552573;55364;1714765415;558004647;;['BL_Position', 'BL_Wheel', 'BR_Position', 'BR_Wheel', 'FL_Position', 'FL_Wheel', 'FR_Position', 'FR_Wheel'];(0.0, 634.2750244140625, 0.0, 632.0062255859375, 0.0, 632.2762451171875, 0.0, 636.7584838867188);(0.0, 0.0, 0.0, 0.0, 0.0, 0.0, 0.0, 0.0);(5.380000114440918, 83.38999938964844, 0.0, 2.690000057220459, 5.380000114440918, -2.690000057220459, 5.380000114440918, 0.0)
2024/05/03/12:43:35.557758;55365;1714765415;574031365;;['BL_Position', 'BL_Wheel', 'BR_Position', 'BR_Wheel', 'FL_Position', 'FL_Wheel', 'FR_Position', 'FR_Wheel'];(0.0, 634.2750244140625, 0.0015339808305725455, 632.0062255859375, 0.0, 632.2762451171875, -0.0015339808305725455, 636.7584838867188);(0.0, 0.0, 0.0, 0.0, 0.0, 0.0, 0.0, 0.0);(5.380000114440918, 83.38999938964844, 0.0, 2.690000057220459, 5.380000114440918, -2.690000057220459, 8.069999694824219, 0.0)
2024/05/03/12:43:35.574483;55366;1714765415;590003713;;['BL_Position', 'BL_Wheel', 'BR_Position', 'BR_Wheel', 'FL_Position', 'FL_Wheel', 'FR_Position', 'FR_Wheel'];(0.0, 634.2750244140625, 0.0015339808305725455, 632.0046997070312, 0.0, 632.2762451171875, -0.0015339808305725455, 636.7584838867188);(0.0, 0.0, 0.0, 0.0, 0.0, 0.0, 0.0, 0.0);(5.380000114440918, 83.38999938964844, 0.0, 2.690000057220459, 5.380000114440918, -2.690000057220459, 5.380000114440918, 0.0)
2024/05/03/12:43:35.590088;55367;1714765415;606026931;;['BL_Position', 'BL_Wheel', 'BR_Position', 'BR_Wheel', 'FL_Position', 'FL_Wheel', 'FR_Position', 'FR_Wheel'];(0.0, 634.2750244140625, 0.0015339808305725455, 632.0046997070312, 0.0, 632.2777709960938, 0.0, 636.7584838867188);(0.0, 0.0, 0.0, 0.0, 0.0, 0.0, 0.0, 0.0);(5.380000114440918, 83.38999938964844, 0.0, 2.690000057220459, 0.0, -2.690000057220459, 5.380000114440918, 0.0)
2024/05/03/12:43:35.605744;55368;1714765415;622027797;;['BL_Position', 'BL_Wheel', 'BR_Position', 'BR_Wheel', 'FL_Position', 'FL_Wheel', 'FR_Position', 'FR_Wheel'];(0.0, 634.2750244140625, 0.0015339808305725455, 632.0046997070312, 0.0, 632.2762451171875, 0.0, 636.7584838867188);(0.0, 0.0, 0.0, 0.0, 0.0, 0.0, 0.0, 0.0);(5.380000114440918, 83.38999938964844, 0.0, 2.690000057220459, 0.0, -2.690000057220459, 5.380000114440918, 0.0)
2024/05/03/12:43:35.623093;55369;1714765415;638674996;;['BL_Position', 'BL_Wheel', 'BR_Position', 'BR_Wheel', 'FL_Position', 'FL_Wheel', 'FR_Position', 'FR_Wheel'];(-0.0015339808305725455, 634.2750244140625, 0.0, 632.0046997070312, 0.0, 632.2762451171875, 0.0, 636.7584838867188);(0.0, 0.0, 0.0, 0.0, 0.0, 0.0, 0.0, 0.0);(5.380000114440918, 83.38999938964844, 0.0, 2.690000057220459, 0.0, -2.690000057220459, 8.069999694824219, 0.0)
2024/05/03/12:43:35.638240;55370;1714765415;653989751;;['BL_Position', 'BL_Wheel', 'BR_Position', 'BR_Wheel', 'FL_Position', 'FL_Wheel', 'FR_Position', 'FR_Wheel'];(-0.0015339808305725455, 634.2750244140625, 0.0015339808305725455, 632.0046997070312, 0.0, 632.2762451171875, 0.0, 636.7584838867188);(0.0, 0.0, 0.0, 0.0, 0.0, 0.0, 0.0, 0.0);(5.380000114440918, 83.38999938964844, 0.0, 2.690000057220459, 0.0, -2.690000057220459, 5.380000114440918, 0.0)
2024/05/03/12:43:35.654058;55371;1714765415;669957803;;['BL_Position', 'BL_Wheel', 'BR_Position', 'BR_Wheel', 'FL_Position', 'FL_Wheel', 'FR_Position', 'FR_Wheel'];(0.0, 634.2750244140625, 0.0015339808305725455, 632.0046997070312, 0.0, 632.2762451171875, 0.0, 636.7600708007812);(0.0, 0.0, 0.0, 0.0, 0.0, 0.0, 0.0, 0.0);(5.380000114440918, 83.38999938964844, 0.0, 2.690000057220459, 5.380000114440918, -2.690000057220459, 5.380000114440918, 0.0)
2024/05/03/12:43:35.671778;55372;1714765415;686084743;;['BL_Position', 'BL_Wheel', 'BR_Position', 'BR_Wheel', 'FL_Position', 'FL_Wheel', 'FR_Position', 'FR_Wheel'];(0.0, 634.2750244140625, 0.0015339808305725455, 632.0062255859375, 0.0, 632.2777709960938, -0.0015339808305725455, 636.7584838867188);(0.0, 0.0, 0.0, 0.0, 0.0, 0.0, 0.0, 0.0);(5.380000114440918, 83.38999938964844, 0.0, 2.690000057220459, 5.380000114440918, -2.690000057220459, 8.069999694824219, 0.0)
2024/05/03/12:43:35.688978;55373;1714765415;702405164;;['BL_Position', 'BL_Wheel', 'BR_Position', 'BR_Wheel', 'FL_Position', 'FL_Wheel', 'FR_Position', 'FR_Wheel'];(0.0, 634.2750244140625, 0.0015339808305725455, 632.0046997070312, 0.0, 632.2762451171875, -0.0015339808305725455, 636.7584838867188);(0.0, 0.0, 0.0, 0.0, 0.0, 0.0, 0.0, 0.0);(5.380000114440918, 83.38999938964844, 0.0, 2.690000057220459, 2.690000057220459, -2.690000057220459, 8.069999694824219, 0.0)
2024/05/03/12:43:35.704866;55374;1714765415;717999808;;['BL_Position', 'BL_Wheel', 'BR_Position', 'BR_Wheel', 'FL_Position', 'FL_Wheel', 'FR_Position', 'FR_Wheel'];(0.0, 634.2750244140625, 0.0015339808305725455, 632.0046997070312, 0.0, 632.2762451171875, 0.0, 636.7584838867188);(0.0, 0.0, 0.0, 0.0, 0.0, 0.0, 0.0, 0.0);(5.380000114440918, 83.38999938964844, 0.0, 2.690000057220459, 2.690000057220459, -2.690000057220459, 5.380000114440918, 0.0)
2024/05/03/12:43:35.720911;55375;1714765415;734282452;;['BL_Position', 'BL_Wheel', 'BR_Position', 'BR_Wheel', 'FL_Position', 'FL_Wheel', 'FR_Position', 'FR_Wheel'];(0.0, 634.2750244140625, 0.0015339808305725455, 632.0062255859375, 0.0, 632.2762451171875, 0.0, 636.7584838867188);(0.0, 0.0, 0.0, 0.0, 0.0, 0.0, 0.0, 0.0);(5.380000114440918, 83.38999938964844, 0.0, 2.690000057220459, 2.690000057220459, -2.690000057220459, 8.069999694824219, 0.0)
2024/05/03/12:43:35.733460;55376;1714765415;749985281;;['BL_Position', 'BL_Wheel', 'BR_Position', 'BR_Wheel', 'FL_Position', 'FL_Wheel', 'FR_Position', 'FR_Wheel'];(0.0, 634.2734375, 0.0015339808305725455, 632.0062255859375, 0.0, 632.2777709960938, -0.0015339808305725455, 636.7584838867188);(0.0, 0.0, 0.0, 0.0, 0.0, 0.0, 0.0, 0.0);(5.380000114440918, 83.38999938964844, 0.0, 2.690000057220459, 2.690000057220459, -2.690000057220459, 5.380000114440918, 0.0)
2024/05/03/12:43:35.756989;55377;1714765415;766102351;;['BL_Position', 'BL_Wheel', 'BR_Position', 'BR_Wheel', 'FL_Position', 'FL_Wheel', 'FR_Position', 'FR_Wheel'];(0.0, 634.2750244140625, 0.0015339808305725455, 632.0046997070312, 0.0, 632.2777709960938, 0.0, 636.7584838867188);(0.0, 0.0, 0.0, 0.0, 0.0, 0.0, 0.0, 0.0);(5.380000114440918, 83.38999938964844, 0.0, 2.690000057220459, 5.380000114440918, -2.690000057220459, 5.380000114440918, 0.0)
2024/05/03/12:43:35.765388;55378;1714765415;782010606;;['BL_Position', 'BL_Wheel', 'BR_Position', 'BR_Wheel', 'FL_Position', 'FL_Wheel', 'FR_Position', 'FR_Wheel'];(0.0, 634.2750244140625, 0.0, 632.0062255859375, 0.0, 632.2762451171875, 0.0, 636.7584838867188);(0.0, 0.0, 0.0, 0.0, 0.0, 0.0, 0.0, 0.0);(5.380000114440918, 83.38999938964844, 0.0, 2.690000057220459, 5.380000114440918, -2.690000057220459, 5.380000114440918, 0.0)
2024/05/03/12:43:35.781943;55379;1714765415;798066009;;['BL_Position', 'BL_Wheel', 'BR_Position', 'BR_Wheel', 'FL_Position', 'FL_Wheel', 'FR_Position', 'FR_Wheel'];(0.0, 634.2750244140625, 0.0015339808305725455, 632.0046997070312, 0.0, 632.2762451171875, 0.0, 636.7584838867188);(0.0, 0.0, 0.0, 0.0, 0.0, 0.0, 0.0, 0.0);(5.380000114440918, 83.38999938964844, 0.0, 2.690000057220459, 5.380000114440918, -2.690000057220459, 5.380000114440918, 0.0)
2024/05/03/12:43:35.798403;55380;1714765415;813979690;;['BL_Position', 'BL_Wheel', 'BR_Position', 'BR_Wheel', 'FL_Position', 'FL_Wheel', 'FR_Position', 'FR_Wheel'];(0.0, 634.2750244140625, 0.0, 632.0046997070312, 0.0, 632.2762451171875, -0.0015339808305725455, 636.7584838867188);(0.0, 0.0, 0.0, 0.0, 0.0, 0.0, 0.0, 0.0);(5.380000114440918, 83.38999938964844, 0.0, 2.690000057220459, 5.380000114440918, -2.690000057220459, 5.380000114440918, 0.0)
2024/05/03/12:43:35.814127;55381;1714765415;829961797;;['BL_Position', 'BL_Wheel', 'BR_Position', 'BR_Wheel', 'FL_Position', 'FL_Wheel', 'FR_Position', 'FR_Wheel'];(0.0, 634.2750244140625, 0.0015339808305725455, 632.0062255859375, -0.0015339808305725455, 632.2762451171875, -0.0015339808305725455, 636.7584838867188);(0.0, 0.0, 0.0, 0.0, 0.0, 0.0, 0.0, 0.0);(5.380000114440918, 83.38999938964844, 0.0, 2.690000057220459, 5.380000114440918, -2.690000057220459, 5.380000114440918, 0.0)
