time;.header.seq;.header.stamp.secs;.header.stamp.nsecs;.header.frame_id;.name;.position;.velocity;.effort
2024/05/03/12:58:23.001907;110832;1714766303;13298546;;['BL_Position', 'BL_Wheel', 'BR_Position', 'BR_Wheel', 'FL_Position', 'FL_Wheel', 'FR_Position', 'FR_Wheel'];(0.0, 1586.2374267578125, 0.0076699042692780495, 1584.21875, 0.003067961661145091, 1583.9349365234375, 0.0, 1588.45703125);(0.0, 0.0, 0.0, 0.0, 0.0, 0.0, 0.0, 0.0);(5.380000114440918, 29.59000015258789, -67.25, 5.380000114440918, -26.900001525878906, 0.0, 2.690000057220459, 0.0)
2024/05/03/12:58:23.006653;110833;1714766303;29334008;;['BL_Position', 'BL_Wheel', 'BR_Position', 'BR_Wheel', 'FL_Position', 'FL_Wheel', 'FR_Position', 'FR_Wheel'];(0.0, 1586.2374267578125, 0.006135923322290182, 1584.21875, 0.003067961661145091, 1583.9364013671875, 0.0, 1588.45703125);(0.0, 0.0, 0.0, 0.0, 0.0, 0.0, 0.0, 0.0);(5.380000114440918, 29.59000015258789, -69.94000244140625, 5.380000114440918, -24.21000099182129, 0.0, 2.690000057220459, 0.0)
2024/05/03/12:58:23.022066;110834;1714766303;45361803;;['BL_Position', 'BL_Wheel', 'BR_Position', 'BR_Wheel', 'FL_Position', 'FL_Wheel', 'FR_Position', 'FR_Wheel'];(0.0, 1586.2374267578125, 0.006135923322290182, 1584.21875, 0.003067961661145091, 1583.9349365234375, 0.0, 1588.45703125);(0.0, 0.0, 0.0, 0.0, 0.0, 0.0, 0.0, 0.0);(5.380000114440918, 29.59000015258789, -67.25, 5.380000114440918, -24.21000099182129, 0.0, 2.690000057220459, 0.0)
2024/05/03/12:58:23.038308;110835;1714766303;61392673;;['BL_Position', 'BL_Wheel', 'BR_Position', 'BR_Wheel', 'FL_Position', 'FL_Wheel', 'FR_Position', 'FR_Wheel'];(0.0, 1586.2374267578125, 0.006135923322290182, 1584.21875, 0.003067961661145091, 1583.9349365234375, 0.0, 1588.45703125);(0.0, 0.0, 0.0, 0.0, 0.0, 0.0, 0.0, 0.0);(5.380000114440918, 29.59000015258789, -72.6300048828125, 5.380000114440918, -24.21000099182129, 0.0, 2.690000057220459, 0.0)
2024/05/03/12:58:23.054795;110836;1714766303;77367190;;['BL_Position', 'BL_Wheel', 'BR_Position', 'BR_Wheel', 'FL_Position', 'FL_Wheel', 'FR_Position', 'FR_Wheel'];(0.0, 1586.2374267578125, 0.0076699042692780495, 1584.21875, 0.003067961661145091, 1583.9349365234375, 0.0, 1588.45703125);(0.0, 0.0, 0.0, 0.0, 0.0, 0.0, 0.0, 0.0);(5.380000114440918, 29.59000015258789, -72.6300048828125, 5.380000114440918, -24.21000099182129, 0.0, 2.690000057220459, 0.0)
2024/05/03/12:58:23.071237;110837;1714766303;93327467;;['BL_Position', 'BL_Wheel', 'BR_Position', 'BR_Wheel', 'FL_Position', 'FL_Wheel', 'FR_Position', 'FR_Wheel'];(0.0, 1586.2374267578125, 0.006135923322290182, 1584.21875, 0.004601942375302315, 1583.9349365234375, 0.0, 1588.45703125);(0.0, 0.0, 0.0, 0.0, 0.0, 0.0, 0.0, 0.0);(8.069999694824219, 29.59000015258789, -67.25, 5.380000114440918, -26.900001525878906, 0.0, 2.690000057220459, 0.0)
2024/05/03/12:58:23.091070;110838;1714766303;109343336;;['BL_Position', 'BL_Wheel', 'BR_Position', 'BR_Wheel', 'FL_Position', 'FL_Wheel', 'FR_Position', 'FR_Wheel'];(0.0, 1586.2374267578125, 0.006135923322290182, 1584.21875, 0.003067961661145091, 1583.9349365234375, 0.0, 1588.45703125);(0.0, 0.0, 0.0, 0.0, 0.0, 0.0, 0.0, 0.0);(5.380000114440918, 29.59000015258789, -67.25, 5.380000114440918, -24.21000099182129, 0.0, 2.690000057220459, 0.0)
2024/05/03/12:58:23.102815;110839;1714766303;125344224;;['BL_Position', 'BL_Wheel', 'BR_Position', 'BR_Wheel', 'FL_Position', 'FL_Wheel', 'FR_Position', 'FR_Wheel'];(0.0, 1586.2374267578125, 0.0076699042692780495, 1584.2171630859375, 0.003067961661145091, 1583.9349365234375, 0.0, 1588.45703125);(0.0, 0.0, 0.0, 0.0, 0.0, 0.0, 0.0, 0.0);(5.380000114440918, 29.59000015258789, -67.25, 5.380000114440918, -24.21000099182129, 0.0, 2.690000057220459, 0.0)
2024/05/03/12:58:23.118785;110840;1714766303;141327705;;['BL_Position', 'BL_Wheel', 'BR_Position', 'BR_Wheel', 'FL_Position', 'FL_Wheel', 'FR_Position', 'FR_Wheel'];(0.0, 1586.2374267578125, 0.006135923322290182, 1584.21875, 0.003067961661145091, 1583.9364013671875, -0.0015339808305725455, 1588.45703125);(0.0, 0.0, 0.0, 0.0, 0.0, 0.0, 0.0, 0.0);(5.380000114440918, 29.59000015258789, -69.94000244140625, 5.380000114440918, -26.900001525878906, 0.0, 2.690000057220459, 0.0)
2024/05/03/12:58:23.134766;110841;1714766303;157377759;;['BL_Position', 'BL_Wheel', 'BR_Position', 'BR_Wheel', 'FL_Position', 'FL_Wheel', 'FR_Position', 'FR_Wheel'];(0.0, 1586.2374267578125, 0.006135923322290182, 1584.21875, 0.003067961661145091, 1583.9364013671875, 0.0, 1588.45703125);(0.0, 0.0, 0.0, 0.0, 0.0, 0.0, 0.0, 0.0);(5.380000114440918, 29.59000015258789, -69.94000244140625, 5.380000114440918, -24.21000099182129, 0.0, 2.690000057220459, 0.0)
2024/05/03/12:58:23.149068;110842;1714766303;173315221;;['BL_Position', 'BL_Wheel', 'BR_Position', 'BR_Wheel', 'FL_Position', 'FL_Wheel', 'FR_Position', 'FR_Wheel'];(0.0, 1586.2374267578125, 0.006135923322290182, 1584.21875, 0.003067961661145091, 1583.9364013671875, 0.0, 1588.45703125);(0.0, 0.0, 0.0, 0.0, 0.0, 0.0, 0.0, 0.0);(8.069999694824219, 29.59000015258789, -75.31999969482422, 5.380000114440918, -29.59000015258789, 0.0, 2.690000057220459, 0.0)
2024/05/03/12:58:23.169864;110843;1714766303;189300201;;['BL_Position', 'BL_Wheel', 'BR_Position', 'BR_Wheel', 'FL_Position', 'FL_Wheel', 'FR_Position', 'FR_Wheel'];(-0.0015339808305725455, 1586.2374267578125, 0.006135923322290182, 1584.21875, 0.003067961661145091, 1583.9364013671875, 0.0, 1588.45703125);(0.0, 0.0, 0.0, 0.0, 0.0, 0.0, 0.0, 0.0);(5.380000114440918, 29.59000015258789, -72.6300048828125, 5.380000114440918, -24.21000099182129, 0.0, 2.690000057220459, 0.0)
2024/05/03/12:58:23.180615;110844;1714766303;205312052;;['BL_Position', 'BL_Wheel', 'BR_Position', 'BR_Wheel', 'FL_Position', 'FL_Wheel', 'FR_Position', 'FR_Wheel'];(0.0, 1586.2374267578125, 0.006135923322290182, 1584.21875, 0.003067961661145091, 1583.9349365234375, 0.0, 1588.45703125);(0.0, 0.0, 0.0, 0.0, 0.0, 0.0, 0.0, 0.0);(5.380000114440918, 29.59000015258789, -75.31999969482422, 5.380000114440918, -24.21000099182129, 0.0, 2.690000057220459, 0.0)
2024/05/03/12:58:23.198505;110845;1714766303;221322496;;['BL_Position', 'BL_Wheel', 'BR_Position', 'BR_Wheel', 'FL_Position', 'FL_Wheel', 'FR_Position', 'FR_Wheel'];(0.0, 1586.2374267578125, 0.006135923322290182, 1584.21875, 0.003067961661145091, 1583.9349365234375, 0.0, 1588.45703125);(0.0, 0.0, 0.0, 0.0, 0.0, 0.0, 0.0, 0.0);(5.380000114440918, 29.59000015258789, -72.6300048828125, 5.380000114440918, -24.21000099182129, 0.0, 2.690000057220459, 0.0)
2024/05/03/12:58:23.215482;110846;1714766303;237352735;;['BL_Position', 'BL_Wheel', 'BR_Position', 'BR_Wheel', 'FL_Position', 'FL_Wheel', 'FR_Position', 'FR_Wheel'];(0.0, 1586.2374267578125, 0.006135923322290182, 1584.21875, 0.003067961661145091, 1583.9349365234375, 0.0, 1588.45703125);(0.0, 0.0, 0.0, 0.0, 0.0, 0.0, 0.0, 0.0);(5.380000114440918, 29.59000015258789, -67.25, 5.380000114440918, -26.900001525878906, 0.0, 2.690000057220459, 0.0)
2024/05/03/12:58:23.231266;110847;1714766303;253546253;;['BL_Position', 'BL_Wheel', 'BR_Position', 'BR_Wheel', 'FL_Position', 'FL_Wheel', 'FR_Position', 'FR_Wheel'];(0.0, 1586.2374267578125, 0.006135923322290182, 1584.21875, 0.003067961661145091, 1583.9349365234375, 0.0, 1588.45703125);(0.0, 0.0, 0.0, 0.0, 0.0, 0.0, 0.0, 0.0);(5.380000114440918, 29.59000015258789, -67.25, 5.380000114440918, -26.900001525878906, 0.0, 2.690000057220459, 0.0)
2024/05/03/12:58:23.249571;110848;1714766303;269581789;;['BL_Position', 'BL_Wheel', 'BR_Position', 'BR_Wheel', 'FL_Position', 'FL_Wheel', 'FR_Position', 'FR_Wheel'];(0.0, 1586.2374267578125, 0.006135923322290182, 1584.21875, 0.003067961661145091, 1583.9364013671875, 0.0, 1588.45703125);(0.0, 0.0, 0.0, 0.0, 0.0, 0.0, 0.0, 0.0);(5.380000114440918, 29.59000015258789, -69.94000244140625, 5.380000114440918, -24.21000099182129, 0.0, 2.690000057220459, 0.0)
2024/05/03/12:58:23.272987;110849;1714766303;285387010;;['BL_Position', 'BL_Wheel', 'BR_Position', 'BR_Wheel', 'FL_Position', 'FL_Wheel', 'FR_Position', 'FR_Wheel'];(0.0, 1586.2374267578125, 0.006135923322290182, 1584.21875, 0.003067961661145091, 1583.9349365234375, 0.0, 1588.45703125);(0.0, 0.0, 0.0, 0.0, 0.0, 0.0, 0.0, 0.0);(5.380000114440918, 29.59000015258789, -72.6300048828125, 5.380000114440918, -24.21000099182129, 0.0, 2.690000057220459, 0.0)
2024/05/03/12:58:23.279059;110850;1714766303;301336361;;['BL_Position', 'BL_Wheel', 'BR_Position', 'BR_Wheel', 'FL_Position', 'FL_Wheel', 'FR_Position', 'FR_Wheel'];(0.0, 1586.2374267578125, 0.006135923322290182, 1584.21875, 0.003067961661145091, 1583.9364013671875, 0.0, 1588.45703125);(0.0, 0.0, 0.0, 0.0, 0.0, 0.0, 0.0, 0.0);(5.380000114440918, 29.59000015258789, -69.94000244140625, 5.380000114440918, -26.900001525878906, 0.0, 2.690000057220459, 0.0)
2024/05/03/12:58:23.295226;110851;1714766303;317321712;;['BL_Position', 'BL_Wheel', 'BR_Position', 'BR_Wheel', 'FL_Position', 'FL_Wheel', 'FR_Position', 'FR_Wheel'];(0.0, 1586.2374267578125, 0.006135923322290182, 1584.21875, 0.003067961661145091, 1583.9349365234375, 0.0, 1588.45703125);(0.0, 0.0, 0.0, 0.0, 0.0, 0.0, 0.0, 0.0);(5.380000114440918, 29.59000015258789, -67.25, 5.380000114440918, -26.900001525878906, 0.0, 2.690000057220459, 0.0)
2024/05/03/12:58:23.310952;110852;1714766303;333306729;;['BL_Position', 'BL_Wheel', 'BR_Position', 'BR_Wheel', 'FL_Position', 'FL_Wheel', 'FR_Position', 'FR_Wheel'];(0.0, 1586.2374267578125, 0.006135923322290182, 1584.21875, 0.003067961661145091, 1583.9364013671875, 0.0, 1588.45703125);(0.0, 0.0, 0.0, 0.0, 0.0, 0.0, 0.0, 0.0);(5.380000114440918, 29.59000015258789, -67.25, 5.380000114440918, -26.900001525878906, 0.0, 2.690000057220459, 0.0)
2024/05/03/12:58:23.326754;110853;1714766303;349335062;;['BL_Position', 'BL_Wheel', 'BR_Position', 'BR_Wheel', 'FL_Position', 'FL_Wheel', 'FR_Position', 'FR_Wheel'];(0.0, 1586.2374267578125, 0.0076699042692780495, 1584.21875, 0.003067961661145091, 1583.9364013671875, 0.0, 1588.45703125);(0.0, 0.0, 0.0, 0.0, 0.0, 0.0, 0.0, 0.0);(5.380000114440918, 29.59000015258789, -69.94000244140625, 5.380000114440918, -26.900001525878906, 0.0, 2.690000057220459, 0.0)
2024/05/03/12:58:23.342766;110854;1714766303;365412135;;['BL_Position', 'BL_Wheel', 'BR_Position', 'BR_Wheel', 'FL_Position', 'FL_Wheel', 'FR_Position', 'FR_Wheel'];(0.0, 1586.2374267578125, 0.0076699042692780495, 1584.21875, 0.003067961661145091, 1583.9349365234375, 0.0, 1588.45703125);(0.0, 0.0, 0.0, 0.0, 0.0, 0.0, 0.0, 0.0);(5.380000114440918, 29.59000015258789, -69.94000244140625, 5.380000114440918, -24.21000099182129, 0.0, 2.690000057220459, 0.0)
2024/05/03/12:58:23.358501;110855;1714766303;381370356;;['BL_Position', 'BL_Wheel', 'BR_Position', 'BR_Wheel', 'FL_Position', 'FL_Wheel', 'FR_Position', 'FR_Wheel'];(-0.0015339808305725455, 1586.2374267578125, 0.006135923322290182, 1584.21875, 0.003067961661145091, 1583.9349365234375, 0.0, 1588.45703125);(0.0, 0.0, 0.0, 0.0, 0.0, 0.0, 0.0, 0.0);(5.380000114440918, 29.59000015258789, -69.94000244140625, 5.380000114440918, -24.21000099182129, 0.0, 2.690000057220459, 0.0)
2024/05/03/12:58:23.374693;110856;1714766303;397362651;;['BL_Position', 'BL_Wheel', 'BR_Position', 'BR_Wheel', 'FL_Position', 'FL_Wheel', 'FR_Position', 'FR_Wheel'];(0.0, 1586.239013671875, 0.0076699042692780495, 1584.21875, 0.003067961661145091, 1583.9349365234375, 0.0, 1588.45703125);(0.0, 0.0, 0.0, 0.0, 0.0, 0.0, 0.0, 0.0);(5.380000114440918, 29.59000015258789, -72.6300048828125, 5.380000114440918, -26.900001525878906, 0.0, 2.690000057220459, 0.0)
2024/05/03/12:58:23.400251;110857;1714766303;413387391;;['BL_Position', 'BL_Wheel', 'BR_Position', 'BR_Wheel', 'FL_Position', 'FL_Wheel', 'FR_Position', 'FR_Wheel'];(0.0, 1586.2374267578125, 0.0076699042692780495, 1584.21875, 0.003067961661145091, 1583.9349365234375, 0.0, 1588.45703125);(0.0, 0.0, 0.0, 0.0, 0.0, 0.0, 0.0, 0.0);(5.380000114440918, 29.59000015258789, -67.25, 5.380000114440918, -26.900001525878906, 0.0, 2.690000057220459, 0.0)
2024/05/03/12:58:23.408990;110858;1714766303;429310908;;['BL_Position', 'BL_Wheel', 'BR_Position', 'BR_Wheel', 'FL_Position', 'FL_Wheel', 'FR_Position', 'FR_Wheel'];(0.0, 1586.2374267578125, 0.0076699042692780495, 1584.21875, 0.003067961661145091, 1583.9349365234375, 0.0, 1588.45703125);(0.0, 0.0, 0.0, 0.0, 0.0, 0.0, 0.0, 0.0);(5.380000114440918, 29.59000015258789, -69.94000244140625, 5.380000114440918, -26.900001525878906, 0.0, 2.690000057220459, 0.0)
2024/05/03/12:58:23.425611;110859;1714766303;447603074;;['BL_Position', 'BL_Wheel', 'BR_Position', 'BR_Wheel', 'FL_Position', 'FL_Wheel', 'FR_Position', 'FR_Wheel'];(0.0, 1586.2374267578125, 0.006135923322290182, 1584.21875, 0.003067961661145091, 1583.9349365234375, 0.0, 1588.45703125);(0.0, 0.0, 0.0, 0.0, 0.0, 0.0, 0.0, 0.0);(5.380000114440918, 29.59000015258789, -69.94000244140625, 5.380000114440918, -26.900001525878906, 0.0, 2.690000057220459, 0.0)
2024/05/03/12:58:23.438882;110860;1714766303;461318795;;['BL_Position', 'BL_Wheel', 'BR_Position', 'BR_Wheel', 'FL_Position', 'FL_Wheel', 'FR_Position', 'FR_Wheel'];(0.0, 1586.2374267578125, 0.006135923322290182, 1584.21875, 0.003067961661145091, 1583.9349365234375, 0.0, 1588.45556640625);(0.0, 0.0, 0.0, 0.0, 0.0, 0.0, 0.0, 0.0);(5.380000114440918, 29.59000015258789, -72.6300048828125, 5.380000114440918, -24.21000099182129, 0.0, 2.690000057220459, 0.0)
2024/05/03/12:58:23.455622;110861;1714766303;477817424;;['BL_Position', 'BL_Wheel', 'BR_Position', 'BR_Wheel', 'FL_Position', 'FL_Wheel', 'FR_Position', 'FR_Wheel'];(-0.0015339808305725455, 1586.2374267578125, 0.006135923322290182, 1584.21875, 0.003067961661145091, 1583.9349365234375, -0.0015339808305725455, 1588.45703125);(0.0, 0.0, 0.0, 0.0, 0.0, 0.0, 0.0, 0.0);(8.069999694824219, 29.59000015258789, -69.94000244140625, 5.380000114440918, -24.21000099182129, 0.0, 2.690000057220459, 0.0)
2024/05/03/12:58:23.477418;110862;1714766303;493478812;;['BL_Position', 'BL_Wheel', 'BR_Position', 'BR_Wheel', 'FL_Position', 'FL_Wheel', 'FR_Position', 'FR_Wheel'];(0.0, 1586.2374267578125, 0.006135923322290182, 1584.21875, 0.003067961661145091, 1583.9364013671875, 0.0, 1588.45703125);(0.0, 0.0, 0.0, 0.0, 0.0, 0.0, 0.0, 0.0);(5.380000114440918, 29.59000015258789, -69.94000244140625, 5.380000114440918, -26.900001525878906, 0.0, 2.690000057220459, 0.0)
2024/05/03/12:58:23.486801;110863;1714766303;509353329;;['BL_Position', 'BL_Wheel', 'BR_Position', 'BR_Wheel', 'FL_Position', 'FL_Wheel', 'FR_Position', 'FR_Wheel'];(-0.0015339808305725455, 1586.2374267578125, 0.006135923322290182, 1584.21875, 0.003067961661145091, 1583.9349365234375, 0.0, 1588.45703125);(0.0, 0.0, 0.0, 0.0, 0.0, 0.0, 0.0, 0.0);(5.380000114440918, 29.59000015258789, -72.6300048828125, 5.380000114440918, -24.21000099182129, 0.0, 5.380000114440918, 0.0)
2024/05/03/12:58:23.502992;110864;1714766303;525357069;;['BL_Position', 'BL_Wheel', 'BR_Position', 'BR_Wheel', 'FL_Position', 'FL_Wheel', 'FR_Position', 'FR_Wheel'];(0.0, 1586.2374267578125, 0.0076699042692780495, 1584.21875, 0.003067961661145091, 1583.9349365234375, 0.0, 1588.45703125);(0.0, 0.0, 0.0, 0.0, 0.0, 0.0, 0.0, 0.0);(5.380000114440918, 29.59000015258789, -72.6300048828125, 5.380000114440918, -26.900001525878906, 0.0, 2.690000057220459, 0.0)
2024/05/03/12:58:23.518874;110865;1714766303;541310549;;['BL_Position', 'BL_Wheel', 'BR_Position', 'BR_Wheel', 'FL_Position', 'FL_Wheel', 'FR_Position', 'FR_Wheel'];(0.0, 1586.2374267578125, 0.006135923322290182, 1584.21875, 0.003067961661145091, 1583.9364013671875, -0.0015339808305725455, 1588.45703125);(0.0, 0.0, 0.0, 0.0, 0.0, 0.0, 0.0, 0.0);(5.380000114440918, 29.59000015258789, -69.94000244140625, 5.380000114440918, -26.900001525878906, 0.0, 2.690000057220459, 0.0)
2024/05/03/12:58:23.534728;110866;1714766303;557319382;;['BL_Position', 'BL_Wheel', 'BR_Position', 'BR_Wheel', 'FL_Position', 'FL_Wheel', 'FR_Position', 'FR_Wheel'];(0.0, 1586.2374267578125, 0.006135923322290182, 1584.21875, 0.003067961661145091, 1583.9364013671875, 0.0, 1588.45703125);(0.0, 0.0, 0.0, 0.0, 0.0, 0.0, 0.0, 0.0);(5.380000114440918, 29.59000015258789, -69.94000244140625, 5.380000114440918, -24.21000099182129, 0.0, 2.690000057220459, 0.0)
2024/05/03/12:58:23.550533;110867;1714766303;573313714;;['BL_Position', 'BL_Wheel', 'BR_Position', 'BR_Wheel', 'FL_Position', 'FL_Wheel', 'FR_Position', 'FR_Wheel'];(0.0, 1586.2374267578125, 0.006135923322290182, 1584.21875, 0.003067961661145091, 1583.9349365234375, 0.0, 1588.45703125);(0.0, 0.0, 0.0, 0.0, 0.0, 0.0, 0.0, 0.0);(5.380000114440918, 29.59000015258789, -75.31999969482422, 5.380000114440918, -24.21000099182129, 0.0, 2.690000057220459, 0.0)
2024/05/03/12:58:23.566627;110868;1714766303;589359694;;['BL_Position', 'BL_Wheel', 'BR_Position', 'BR_Wheel', 'FL_Position', 'FL_Wheel', 'FR_Position', 'FR_Wheel'];(0.0, 1586.2374267578125, 0.006135923322290182, 1584.21875, 0.003067961661145091, 1583.9349365234375, 0.0, 1588.45703125);(0.0, 0.0, 0.0, 0.0, 0.0, 0.0, 0.0, 0.0);(5.380000114440918, 29.59000015258789, -72.6300048828125, 5.380000114440918, -26.900001525878906, 0.0, 5.380000114440918, 0.0)
2024/05/03/12:58:23.582927;110869;1714766303;605299064;;['BL_Position', 'BL_Wheel', 'BR_Position', 'BR_Wheel', 'FL_Position', 'FL_Wheel', 'FR_Position', 'FR_Wheel'];(0.0, 1586.2374267578125, 0.0076699042692780495, 1584.21875, 0.003067961661145091, 1583.9349365234375, 0.0, 1588.45703125);(0.0, 0.0, 0.0, 0.0, 0.0, 0.0, 0.0, 0.0);(5.380000114440918, 29.59000015258789, -69.94000244140625, 5.380000114440918, -24.21000099182129, 0.0, 2.690000057220459, 0.0)
2024/05/03/12:58:23.606183;110870;1714766303;621276915;;['BL_Position', 'BL_Wheel', 'BR_Position', 'BR_Wheel', 'FL_Position', 'FL_Wheel', 'FR_Position', 'FR_Wheel'];(0.0, 1586.2374267578125, 0.006135923322290182, 1584.21875, 0.003067961661145091, 1583.9349365234375, 0.0, 1588.45703125);(0.0, 0.0, 0.0, 0.0, 0.0, 0.0, 0.0, 0.0);(5.380000114440918, 29.59000015258789, -67.25, 5.380000114440918, -26.900001525878906, 0.0, 2.690000057220459, 0.0)
2024/05/03/12:58:23.614623;110871;1714766303;637372191;;['BL_Position', 'BL_Wheel', 'BR_Position', 'BR_Wheel', 'FL_Position', 'FL_Wheel', 'FR_Position', 'FR_Wheel'];(0.0, 1586.2374267578125, 0.006135923322290182, 1584.21875, 0.003067961661145091, 1583.9349365234375, 0.0, 1588.45703125);(0.0, 0.0, 0.0, 0.0, 0.0, 0.0, 0.0, 0.0);(5.380000114440918, 29.59000015258789, -67.25, 5.380000114440918, -24.21000099182129, 0.0, 2.690000057220459, 0.0)
2024/05/03/12:58:23.631037;110872;1714766303;653322505;;['BL_Position', 'BL_Wheel', 'BR_Position', 'BR_Wheel', 'FL_Position', 'FL_Wheel', 'FR_Position', 'FR_Wheel'];(0.0, 1586.2374267578125, 0.006135923322290182, 1584.21875, 0.003067961661145091, 1583.9364013671875, 0.0, 1588.45703125);(0.0, 0.0, 0.0, 0.0, 0.0, 0.0, 0.0, 0.0);(5.380000114440918, 29.59000015258789, -67.25, 5.380000114440918, -24.21000099182129, 0.0, 2.690000057220459, 0.0)
2024/05/03/12:58:23.646640;110873;1714766303;669316949;;['BL_Position', 'BL_Wheel', 'BR_Position', 'BR_Wheel', 'FL_Position', 'FL_Wheel', 'FR_Position', 'FR_Wheel'];(0.0, 1586.2374267578125, 0.006135923322290182, 1584.21875, 0.003067961661145091, 1583.9349365234375, -0.0015339808305725455, 1588.45703125);(0.0, 0.0, 0.0, 0.0, 0.0, 0.0, 0.0, 0.0);(5.380000114440918, 29.59000015258789, -67.25, 5.380000114440918, -24.21000099182129, 0.0, 2.690000057220459, 0.0)
2024/05/03/12:58:23.663039;110874;1714766303;685328299;;['BL_Position', 'BL_Wheel', 'BR_Position', 'BR_Wheel', 'FL_Position', 'FL_Wheel', 'FR_Position', 'FR_Wheel'];(0.0, 1586.2374267578125, 0.0076699042692780495, 1584.21875, 0.003067961661145091, 1583.9349365234375, 0.0, 1588.45703125);(0.0, 0.0, 0.0, 0.0, 0.0, 0.0, 0.0, 0.0);(5.380000114440918, 29.59000015258789, -69.94000244140625, 5.380000114440918, -24.21000099182129, 0.0, 2.690000057220459, 0.0)
2024/05/03/12:58:23.682223;110875;1714766303;701345761;;['BL_Position', 'BL_Wheel', 'BR_Position', 'BR_Wheel', 'FL_Position', 'FL_Wheel', 'FR_Position', 'FR_Wheel'];(-0.0015339808305725455, 1586.2374267578125, 0.006135923322290182, 1584.21875, 0.003067961661145091, 1583.9349365234375, 0.0, 1588.45703125);(0.0, 0.0, 0.0, 0.0, 0.0, 0.0, 0.0, 0.0);(5.380000114440918, 29.59000015258789, -67.25, 5.380000114440918, -24.21000099182129, 0.0, 2.690000057220459, 0.0)
2024/05/03/12:58:23.694376;110876;1714766303;717314057;;['BL_Position', 'BL_Wheel', 'BR_Position', 'BR_Wheel', 'FL_Position', 'FL_Wheel', 'FR_Position', 'FR_Wheel'];(0.0, 1586.2374267578125, 0.006135923322290182, 1584.21875, 0.003067961661145091, 1583.9349365234375, 0.0, 1588.45556640625);(0.0, 0.0, 0.0, 0.0, 0.0, 0.0, 0.0, 0.0);(5.380000114440918, 29.59000015258789, -72.6300048828125, 5.380000114440918, -26.900001525878906, 0.0, 2.690000057220459, 0.0)
2024/05/03/12:58:23.713697;110877;1714766303;733348611;;['BL_Position', 'BL_Wheel', 'BR_Position', 'BR_Wheel', 'FL_Position', 'FL_Wheel', 'FR_Position', 'FR_Wheel'];(-0.0015339808305725455, 1586.2374267578125, 0.006135923322290182, 1584.21875, 0.004601942375302315, 1583.9349365234375, 0.0, 1588.45703125);(0.0, 0.0, 0.0, 0.0, 0.0, 0.0, 0.0, 0.0);(5.380000114440918, 29.59000015258789, -69.94000244140625, 5.380000114440918, -26.900001525878906, 0.0, 2.690000057220459, 0.0)
2024/05/03/12:58:23.727147;110878;1714766303;749335703;;['BL_Position', 'BL_Wheel', 'BR_Position', 'BR_Wheel', 'FL_Position', 'FL_Wheel', 'FR_Position', 'FR_Wheel'];(-0.0015339808305725455, 1586.2374267578125, 0.006135923322290182, 1584.21875, 0.003067961661145091, 1583.9349365234375, 0.0, 1588.45703125);(0.0, 0.0, 0.0, 0.0, 0.0, 0.0, 0.0, 0.0);(5.380000114440918, 29.59000015258789, -72.6300048828125, 5.380000114440918, -24.21000099182129, 0.0, 2.690000057220459, 0.0)
2024/05/03/12:58:23.742531;110879;1714766303;765341961;;['BL_Position', 'BL_Wheel', 'BR_Position', 'BR_Wheel', 'FL_Position', 'FL_Wheel', 'FR_Position', 'FR_Wheel'];(0.0, 1586.2374267578125, 0.006135923322290182, 1584.21875, 0.003067961661145091, 1583.9349365234375, 0.0, 1588.45703125);(0.0, 0.0, 0.0, 0.0, 0.0, 0.0, 0.0, 0.0);(8.069999694824219, 29.59000015258789, -69.94000244140625, 5.380000114440918, -24.21000099182129, 0.0, 2.690000057220459, 0.0)
2024/05/03/12:58:23.758593;110880;1714766303;781313275;;['BL_Position', 'BL_Wheel', 'BR_Position', 'BR_Wheel', 'FL_Position', 'FL_Wheel', 'FR_Position', 'FR_Wheel'];(-0.0015339808305725455, 1586.2374267578125, 0.006135923322290182, 1584.21875, 0.003067961661145091, 1583.9364013671875, 0.0, 1588.45703125);(0.0, 0.0, 0.0, 0.0, 0.0, 0.0, 0.0, 0.0);(5.380000114440918, 29.59000015258789, -69.94000244140625, 5.380000114440918, -24.21000099182129, 0.0, 2.690000057220459, 0.0)
2024/05/03/12:58:23.808606;110881;1714766303;797288051;;['BL_Position', 'BL_Wheel', 'BR_Position', 'BR_Wheel', 'FL_Position', 'FL_Wheel', 'FR_Position', 'FR_Wheel'];(0.0, 1586.2374267578125, 0.006135923322290182, 1584.21875, 0.003067961661145091, 1583.9349365234375, 0.0, 1588.45703125);(0.0, 0.0, 0.0, 0.0, 0.0, 0.0, 0.0, 0.0);(5.380000114440918, 29.59000015258789, -69.94000244140625, 5.380000114440918, -26.900001525878906, 0.0, 2.690000057220459, 0.0)
2024/05/03/12:58:23.808639;110882;1714766303;813300291;;['BL_Position', 'BL_Wheel', 'BR_Position', 'BR_Wheel', 'FL_Position', 'FL_Wheel', 'FR_Position', 'FR_Wheel'];(0.0, 1586.2374267578125, 0.006135923322290182, 1584.21875, 0.003067961661145091, 1583.9349365234375, 0.0, 1588.45703125);(0.0, 0.0, 0.0, 0.0, 0.0, 0.0, 0.0, 0.0);(5.380000114440918, 29.59000015258789, -67.25, 5.380000114440918, -24.21000099182129, 0.0, 2.690000057220459, 0.0)
2024/05/03/12:58:23.808660;110883;1714766303;829349161;;['BL_Position', 'BL_Wheel', 'BR_Position', 'BR_Wheel', 'FL_Position', 'FL_Wheel', 'FR_Position', 'FR_Wheel'];(0.0, 1586.2374267578125, 0.006135923322290182, 1584.21875, 0.003067961661145091, 1583.9349365234375, 0.0, 1588.45703125);(0.0, 0.0, 0.0, 0.0, 0.0, 0.0, 0.0, 0.0);(5.380000114440918, 29.59000015258789, -67.25, 5.380000114440918, -24.21000099182129, 0.0, 2.690000057220459, 0.0)
2024/05/03/12:58:23.832563;110884;1714766303;845321567;;['BL_Position', 'BL_Wheel', 'BR_Position', 'BR_Wheel', 'FL_Position', 'FL_Wheel', 'FR_Position', 'FR_Wheel'];(-0.0015339808305725455, 1586.2374267578125, 0.006135923322290182, 1584.21875, 0.003067961661145091, 1583.9364013671875, 0.0, 1588.45703125);(0.0, 0.0, 0.0, 0.0, 0.0, 0.0, 0.0, 0.0);(5.380000114440918, 29.59000015258789, -69.94000244140625, 5.380000114440918, -26.900001525878906, 0.0, 2.690000057220459, 0.0)
2024/05/03/12:58:23.863776;110885;1714766303;861352640;;['BL_Position', 'BL_Wheel', 'BR_Position', 'BR_Wheel', 'FL_Position', 'FL_Wheel', 'FR_Position', 'FR_Wheel'];(0.0, 1586.2374267578125, 0.006135923322290182, 1584.21875, 0.003067961661145091, 1583.9364013671875, 0.0, 1588.45703125);(0.0, 0.0, 0.0, 0.0, 0.0, 0.0, 0.0, 0.0);(5.380000114440918, 29.59000015258789, -69.94000244140625, 5.380000114440918, -26.900001525878906, 0.0, 2.690000057220459, 0.0)
2024/05/03/12:58:23.863914;110886;1714766303;877332046;;['BL_Position', 'BL_Wheel', 'BR_Position', 'BR_Wheel', 'FL_Position', 'FL_Wheel', 'FR_Position', 'FR_Wheel'];(-0.0015339808305725455, 1586.2374267578125, 0.006135923322290182, 1584.21875, 0.003067961661145091, 1583.9364013671875, 0.0, 1588.45703125);(0.0, 0.0, 0.0, 0.0, 0.0, 0.0, 0.0, 0.0);(5.380000114440918, 29.59000015258789, -67.25, 5.380000114440918, -24.21000099182129, 0.0, 2.690000057220459, 0.0)
2024/05/03/12:58:23.869503;110887;1714766303;893298008;;['BL_Position', 'BL_Wheel', 'BR_Position', 'BR_Wheel', 'FL_Position', 'FL_Wheel', 'FR_Position', 'FR_Wheel'];(-0.0015339808305725455, 1586.2374267578125, 0.006135923322290182, 1584.21875, 0.003067961661145091, 1583.9349365234375, 0.0, 1588.45703125);(0.0, 0.0, 0.0, 0.0, 0.0, 0.0, 0.0, 0.0);(5.380000114440918, 29.59000015258789, -67.25, 5.380000114440918, -24.21000099182129, 0.0, 2.690000057220459, 0.0)
2024/05/03/12:58:23.887905;110888;1714766303;909333118;;['BL_Position', 'BL_Wheel', 'BR_Position', 'BR_Wheel', 'FL_Position', 'FL_Wheel', 'FR_Position', 'FR_Wheel'];(0.0, 1586.2374267578125, 0.006135923322290182, 1584.21875, 0.003067961661145091, 1583.9349365234375, 0.0, 1588.45703125);(0.0, 0.0, 0.0, 0.0, 0.0, 0.0, 0.0, 0.0);(5.380000114440918, 29.59000015258789, -67.25, 5.380000114440918, -26.900001525878906, 0.0, 2.690000057220459, 0.0)
2024/05/03/12:58:23.915519;110889;1714766303;925291173;;['BL_Position', 'BL_Wheel', 'BR_Position', 'BR_Wheel', 'FL_Position', 'FL_Wheel', 'FR_Position', 'FR_Wheel'];(0.0, 1586.2374267578125, 0.006135923322290182, 1584.21875, 0.003067961661145091, 1583.9364013671875, 0.0, 1588.45703125);(0.0, 0.0, 0.0, 0.0, 0.0, 0.0, 0.0, 0.0);(5.380000114440918, 29.59000015258789, -67.25, 5.380000114440918, -24.21000099182129, 0.0, 5.380000114440918, 0.0)
2024/05/03/12:58:23.922383;110890;1714766303;941289116;;['BL_Position', 'BL_Wheel', 'BR_Position', 'BR_Wheel', 'FL_Position', 'FL_Wheel', 'FR_Position', 'FR_Wheel'];(0.0, 1586.2374267578125, 0.0076699042692780495, 1584.21875, 0.003067961661145091, 1583.9349365234375, 0.0, 1588.45703125);(0.0, 0.0, 0.0, 0.0, 0.0, 0.0, 0.0, 0.0);(5.380000114440918, 29.59000015258789, -69.94000244140625, 5.380000114440918, -24.21000099182129, 0.0, 5.380000114440918, 0.0)
2024/05/03/12:58:23.934807;110891;1714766303;957286652;;['BL_Position', 'BL_Wheel', 'BR_Position', 'BR_Wheel', 'FL_Position', 'FL_Wheel', 'FR_Position', 'FR_Wheel'];(0.0, 1586.2374267578125, 0.006135923322290182, 1584.21875, 0.003067961661145091, 1583.9364013671875, 0.0, 1588.45703125);(0.0, 0.0, 0.0, 0.0, 0.0, 0.0, 0.0, 0.0);(5.380000114440918, 29.59000015258789, -69.94000244140625, 5.380000114440918, -24.21000099182129, 0.0, 5.380000114440918, 0.0)
2024/05/03/12:58:23.950721;110892;1714766303;973291929;;['BL_Position', 'BL_Wheel', 'BR_Position', 'BR_Wheel', 'FL_Position', 'FL_Wheel', 'FR_Position', 'FR_Wheel'];(0.0, 1586.2374267578125, 0.0076699042692780495, 1584.21875, 0.003067961661145091, 1583.9364013671875, 0.0, 1588.45703125);(0.0, 0.0, 0.0, 0.0, 0.0, 0.0, 0.0, 0.0);(5.380000114440918, 29.59000015258789, -69.94000244140625, 5.380000114440918, -26.900001525878906, 0.0, 2.690000057220459, 0.0)
2024/05/03/12:58:23.967037;110893;1714766303;989297021;;['BL_Position', 'BL_Wheel', 'BR_Position', 'BR_Wheel', 'FL_Position', 'FL_Wheel', 'FR_Position', 'FR_Wheel'];(0.0, 1586.2374267578125, 0.006135923322290182, 1584.21875, 0.003067961661145091, 1583.9364013671875, 0.0, 1588.45703125);(0.0, 0.0, 0.0, 0.0, 0.0, 0.0, 0.0, 0.0);(5.380000114440918, 29.59000015258789, -67.25, 5.380000114440918, -26.900001525878906, 0.0, 2.690000057220459, 0.0)
2024/05/03/12:58:23.989507;110894;1714766304;5262779;;['BL_Position', 'BL_Wheel', 'BR_Position', 'BR_Wheel', 'FL_Position', 'FL_Wheel', 'FR_Position', 'FR_Wheel'];(0.0, 1586.2374267578125, 0.006135923322290182, 1584.21875, 0.003067961661145091, 1583.9364013671875, 0.0, 1588.45556640625);(0.0, 0.0, 0.0, 0.0, 0.0, 0.0, 0.0, 0.0);(5.380000114440918, 29.59000015258789, -72.6300048828125, 5.380000114440918, -26.900001525878906, 0.0, 2.690000057220459, 0.0)
2024/05/03/12:58:23.998703;110895;1714766304;21321445;;['BL_Position', 'BL_Wheel', 'BR_Position', 'BR_Wheel', 'FL_Position', 'FL_Wheel', 'FR_Position', 'FR_Wheel'];(0.0, 1586.2374267578125, 0.006135923322290182, 1584.21875, 0.003067961661145091, 1583.9349365234375, 0.0, 1588.45703125);(0.0, 0.0, 0.0, 0.0, 0.0, 0.0, 0.0, 0.0);(5.380000114440918, 29.59000015258789, -67.25, 5.380000114440918, -26.900001525878906, 0.0, 2.690000057220459, 0.0)
2024/05/03/12:58:24.018123;110896;1714766304;37383721;;['BL_Position', 'BL_Wheel', 'BR_Position', 'BR_Wheel', 'FL_Position', 'FL_Wheel', 'FR_Position', 'FR_Wheel'];(0.0, 1586.2374267578125, 0.006135923322290182, 1584.2171630859375, 0.003067961661145091, 1583.9364013671875, 0.0, 1588.45703125);(0.0, 0.0, 0.0, 0.0, 0.0, 0.0, 0.0, 0.0);(5.380000114440918, 29.59000015258789, -72.6300048828125, 5.380000114440918, -24.21000099182129, 0.0, 2.690000057220459, 0.0)
2024/05/03/12:58:24.030540;110897;1714766304;53347683;;['BL_Position', 'BL_Wheel', 'BR_Position', 'BR_Wheel', 'FL_Position', 'FL_Wheel', 'FR_Position', 'FR_Wheel'];(0.0, 1586.2374267578125, 0.006135923322290182, 1584.21875, 0.003067961661145091, 1583.9349365234375, 0.0, 1588.45703125);(0.0, 0.0, 0.0, 0.0, 0.0, 0.0, 0.0, 0.0);(5.380000114440918, 29.59000015258789, -69.94000244140625, 5.380000114440918, -26.900001525878906, 0.0, 2.690000057220459, 0.0)
2024/05/03/12:58:24.046959;110898;1714766304;69360386;;['BL_Position', 'BL_Wheel', 'BR_Position', 'BR_Wheel', 'FL_Position', 'FL_Wheel', 'FR_Position', 'FR_Wheel'];(0.0, 1586.2374267578125, 0.006135923322290182, 1584.21875, 0.003067961661145091, 1583.9349365234375, 0.0, 1588.45703125);(0.0, 0.0, 0.0, 0.0, 0.0, 0.0, 0.0, 0.0);(5.380000114440918, 29.59000015258789, -67.25, 5.380000114440918, -26.900001525878906, 0.0, 2.690000057220459, 0.0)
2024/05/03/12:58:24.062937;110899;1714766304;85302459;;['BL_Position', 'BL_Wheel', 'BR_Position', 'BR_Wheel', 'FL_Position', 'FL_Wheel', 'FR_Position', 'FR_Wheel'];(0.0, 1586.2374267578125, 0.006135923322290182, 1584.21875, 0.003067961661145091, 1583.9349365234375, 0.0, 1588.45703125);(0.0, 0.0, 0.0, 0.0, 0.0, 0.0, 0.0, 0.0);(5.380000114440918, 29.59000015258789, -67.25, 5.380000114440918, -26.900001525878906, 0.0, 2.690000057220459, 0.0)
2024/05/03/12:58:24.079094;110900;1714766304;101306699;;['BL_Position', 'BL_Wheel', 'BR_Position', 'BR_Wheel', 'FL_Position', 'FL_Wheel', 'FR_Position', 'FR_Wheel'];(0.0, 1586.2374267578125, 0.006135923322290182, 1584.21875, 0.003067961661145091, 1583.9349365234375, 0.0, 1588.45703125);(0.0, 0.0, 0.0, 0.0, 0.0, 0.0, 0.0, 0.0);(5.380000114440918, 29.59000015258789, -69.94000244140625, 5.380000114440918, -26.900001525878906, 0.0, 2.690000057220459, 0.0)
2024/05/03/12:58:24.094622;110901;1714766304;117286087;;['BL_Position', 'BL_Wheel', 'BR_Position', 'BR_Wheel', 'FL_Position', 'FL_Wheel', 'FR_Position', 'FR_Wheel'];(0.0, 1586.2374267578125, 0.006135923322290182, 1584.21875, 0.003067961661145091, 1583.9349365234375, 0.0, 1588.45703125);(0.0, 0.0, 0.0, 0.0, 0.0, 0.0, 0.0, 0.0);(5.380000114440918, 29.59000015258789, -69.94000244140625, 5.380000114440918, -24.21000099182129, 0.0, 2.690000057220459, 0.0)
2024/05/03/12:58:24.111793;110902;1714766304;133312549;;['BL_Position', 'BL_Wheel', 'BR_Position', 'BR_Wheel', 'FL_Position', 'FL_Wheel', 'FR_Position', 'FR_Wheel'];(0.0, 1586.2374267578125, 0.006135923322290182, 1584.21875, 0.003067961661145091, 1583.9349365234375, 0.0, 1588.45703125);(0.0, 0.0, 0.0, 0.0, 0.0, 0.0, 0.0, 0.0);(5.380000114440918, 29.59000015258789, -67.25, 5.380000114440918, -24.21000099182129, 0.0, 2.690000057220459, 0.0)
2024/05/03/12:58:24.125527;110903;1714766304;149318992;;['BL_Position', 'BL_Wheel', 'BR_Position', 'BR_Wheel', 'FL_Position', 'FL_Wheel', 'FR_Position', 'FR_Wheel'];(0.0, 1586.2374267578125, 0.006135923322290182, 1584.21875, 0.003067961661145091, 1583.9349365234375, 0.0, 1588.45703125);(0.0, 0.0, 0.0, 0.0, 0.0, 0.0, 0.0, 0.0);(5.380000114440918, 29.59000015258789, -67.25, 5.380000114440918, -24.21000099182129, 0.0, 2.690000057220459, 0.0)
2024/05/03/12:58:24.142647;110904;1714766304;165360232;;['BL_Position', 'BL_Wheel', 'BR_Position', 'BR_Wheel', 'FL_Position', 'FL_Wheel', 'FR_Position', 'FR_Wheel'];(0.0, 1586.2374267578125, 0.006135923322290182, 1584.21875, 0.003067961661145091, 1583.9349365234375, 0.0, 1588.45556640625);(0.0, 0.0, 0.0, 0.0, 0.0, 0.0, 0.0, 0.0);(5.380000114440918, 29.59000015258789, -69.94000244140625, 5.380000114440918, -26.900001525878906, 0.0, 2.690000057220459, 0.0)
2024/05/03/12:58:24.158478;110905;1714766304;181338527;;['BL_Position', 'BL_Wheel', 'BR_Position', 'BR_Wheel', 'FL_Position', 'FL_Wheel', 'FR_Position', 'FR_Wheel'];(0.0, 1586.2374267578125, 0.006135923322290182, 1584.21875, 0.003067961661145091, 1583.9349365234375, 0.0, 1588.45703125);(0.0, 0.0, 0.0, 0.0, 0.0, 0.0, 0.0, 0.0);(5.380000114440918, 29.59000015258789, -67.25, 5.380000114440918, -26.900001525878906, 0.0, 2.690000057220459, 0.0)
2024/05/03/12:58:24.174610;110906;1714766304;197323952;;['BL_Position', 'BL_Wheel', 'BR_Position', 'BR_Wheel', 'FL_Position', 'FL_Wheel', 'FR_Position', 'FR_Wheel'];(0.0, 1586.2374267578125, 0.006135923322290182, 1584.21875, 0.003067961661145091, 1583.9349365234375, 0.0, 1588.45703125);(0.0, 0.0, 0.0, 0.0, 0.0, 0.0, 0.0, 0.0);(5.380000114440918, 29.59000015258789, -75.31999969482422, 5.380000114440918, -24.21000099182129, 0.0, 2.690000057220459, 0.0)
2024/05/03/12:58:24.194281;110907;1714766304;213322117;;['BL_Position', 'BL_Wheel', 'BR_Position', 'BR_Wheel', 'FL_Position', 'FL_Wheel', 'FR_Position', 'FR_Wheel'];(0.0, 1586.2374267578125, 0.006135923322290182, 1584.21875, 0.003067961661145091, 1583.9364013671875, 0.0, 1588.45703125);(0.0, 0.0, 0.0, 0.0, 0.0, 0.0, 0.0, 0.0);(5.380000114440918, 29.59000015258789, -75.31999969482422, 5.380000114440918, -24.21000099182129, 0.0, 2.690000057220459, 0.0)
2024/05/03/12:58:24.206486;110908;1714766304;229296191;;['BL_Position', 'BL_Wheel', 'BR_Position', 'BR_Wheel', 'FL_Position', 'FL_Wheel', 'FR_Position', 'FR_Wheel'];(0.0, 1586.2374267578125, 0.006135923322290182, 1584.21875, 0.003067961661145091, 1583.9364013671875, 0.0, 1588.45703125);(0.0, 0.0, 0.0, 0.0, 0.0, 0.0, 0.0, 0.0);(5.380000114440918, 29.59000015258789, -75.31999969482422, 5.380000114440918, -26.900001525878906, 0.0, 2.690000057220459, 0.0)
2024/05/03/12:58:24.221800;110909;1714766304;245295893;;['BL_Position', 'BL_Wheel', 'BR_Position', 'BR_Wheel', 'FL_Position', 'FL_Wheel', 'FR_Position', 'FR_Wheel'];(0.0, 1586.2374267578125, 0.006135923322290182, 1584.21875, 0.003067961661145091, 1583.9349365234375, 0.0, 1588.45703125);(0.0, 0.0, 0.0, 0.0, 0.0, 0.0, 0.0, 0.0);(5.380000114440918, 29.59000015258789, -67.25, 5.380000114440918, -24.21000099182129, 0.0, 2.690000057220459, 0.0)
2024/05/03/12:58:24.238738;110910;1714766304;261361670;;['BL_Position', 'BL_Wheel', 'BR_Position', 'BR_Wheel', 'FL_Position', 'FL_Wheel', 'FR_Position', 'FR_Wheel'];(0.0, 1586.2374267578125, 0.006135923322290182, 1584.21875, 0.003067961661145091, 1583.9349365234375, 0.0, 1588.45703125);(0.0, 0.0, 0.0, 0.0, 0.0, 0.0, 0.0, 0.0);(5.380000114440918, 29.59000015258789, -69.94000244140625, 5.380000114440918, -26.900001525878906, 0.0, 2.690000057220459, 0.0)
2024/05/03/12:58:24.256598;110911;1714766304;277381687;;['BL_Position', 'BL_Wheel', 'BR_Position', 'BR_Wheel', 'FL_Position', 'FL_Wheel', 'FR_Position', 'FR_Wheel'];(0.0, 1586.2374267578125, 0.006135923322290182, 1584.21875, 0.003067961661145091, 1583.9364013671875, 0.0, 1588.45703125);(0.0, 0.0, 0.0, 0.0, 0.0, 0.0, 0.0, 0.0);(5.380000114440918, 29.59000015258789, -72.6300048828125, 5.380000114440918, -24.21000099182129, 0.0, 2.690000057220459, 0.0)
2024/05/03/12:58:24.271435;110912;1714766304;293273964;;['BL_Position', 'BL_Wheel', 'BR_Position', 'BR_Wheel', 'FL_Position', 'FL_Wheel', 'FR_Position', 'FR_Wheel'];(0.0, 1586.239013671875, 0.006135923322290182, 1584.21875, 0.003067961661145091, 1583.9364013671875, 0.0, 1588.45703125);(0.0, 0.0, 0.0, 0.0, 0.0, 0.0, 0.0, 0.0);(5.380000114440918, 29.59000015258789, -69.94000244140625, 5.380000114440918, -24.21000099182129, 0.0, 2.690000057220459, 0.0)
2024/05/03/12:58:24.296931;110913;1714766304;309320667;;['BL_Position', 'BL_Wheel', 'BR_Position', 'BR_Wheel', 'FL_Position', 'FL_Wheel', 'FR_Position', 'FR_Wheel'];(0.0, 1586.2374267578125, 0.006135923322290182, 1584.21875, 0.003067961661145091, 1583.9364013671875, 0.0, 1588.45703125);(0.0, 0.0, 0.0, 0.0, 0.0, 0.0, 0.0, 0.0);(5.380000114440918, 29.59000015258789, -69.94000244140625, 5.380000114440918, -24.21000099182129, 0.0, 2.690000057220459, 0.0)
2024/05/03/12:58:24.302937;110914;1714766304;325294499;;['BL_Position', 'BL_Wheel', 'BR_Position', 'BR_Wheel', 'FL_Position', 'FL_Wheel', 'FR_Position', 'FR_Wheel'];(0.0, 1586.2374267578125, 0.006135923322290182, 1584.21875, 0.003067961661145091, 1583.9364013671875, 0.0, 1588.45703125);(0.0, 0.0, 0.0, 0.0, 0.0, 0.0, 0.0, 0.0);(5.380000114440918, 29.59000015258789, -72.6300048828125, 5.380000114440918, -24.21000099182129, 0.0, 2.690000057220459, 0.0)
2024/05/03/12:58:24.321163;110915;1714766304;341296480;;['BL_Position', 'BL_Wheel', 'BR_Position', 'BR_Wheel', 'FL_Position', 'FL_Wheel', 'FR_Position', 'FR_Wheel'];(0.0, 1586.2374267578125, 0.006135923322290182, 1584.2171630859375, 0.003067961661145091, 1583.9349365234375, 0.0, 1588.45703125);(0.0, 0.0, 0.0, 0.0, 0.0, 0.0, 0.0, 0.0);(5.380000114440918, 29.59000015258789, -75.31999969482422, 5.380000114440918, -26.900001525878906, 0.0, 2.690000057220459, 0.0)
2024/05/03/12:58:24.334791;110916;1714766304;357340293;;['BL_Position', 'BL_Wheel', 'BR_Position', 'BR_Wheel', 'FL_Position', 'FL_Wheel', 'FR_Position', 'FR_Wheel'];(0.0, 1586.2374267578125, 0.0076699042692780495, 1584.21875, 0.003067961661145091, 1583.9364013671875, 0.0, 1588.45703125);(0.0, 0.0, 0.0, 0.0, 0.0, 0.0, 0.0, 0.0);(5.380000114440918, 29.59000015258789, -75.31999969482422, 5.380000114440918, -24.21000099182129, 0.0, 2.690000057220459, 0.0)
2024/05/03/12:58:24.350685;110917;1714766304;373275663;;['BL_Position', 'BL_Wheel', 'BR_Position', 'BR_Wheel', 'FL_Position', 'FL_Wheel', 'FR_Position', 'FR_Wheel'];(0.0, 1586.2374267578125, 0.006135923322290182, 1584.21875, 0.003067961661145091, 1583.9364013671875, 0.0, 1588.45703125);(0.0, 0.0, 0.0, 0.0, 0.0, 0.0, 0.0, 0.0);(5.380000114440918, 29.59000015258789, -72.6300048828125, 5.380000114440918, -24.21000099182129, 0.0, 2.690000057220459, 0.0)
2024/05/03/12:58:24.366915;110918;1714766304;389295254;;['BL_Position', 'BL_Wheel', 'BR_Position', 'BR_Wheel', 'FL_Position', 'FL_Wheel', 'FR_Position', 'FR_Wheel'];(0.0, 1586.239013671875, 0.006135923322290182, 1584.21875, 0.003067961661145091, 1583.9364013671875, 0.0, 1588.45703125);(0.0, 0.0, 0.0, 0.0, 0.0, 0.0, 0.0, 0.0);(5.380000114440918, 29.59000015258789, -67.25, 5.380000114440918, -24.21000099182129, 0.0, 2.690000057220459, 0.0)
2024/05/03/12:58:24.381639;110919;1714766304;405302902;;['BL_Position', 'BL_Wheel', 'BR_Position', 'BR_Wheel', 'FL_Position', 'FL_Wheel', 'FR_Position', 'FR_Wheel'];(0.0, 1586.2374267578125, 0.006135923322290182, 1584.21875, 0.003067961661145091, 1583.9349365234375, 0.0, 1588.45703125);(0.0, 0.0, 0.0, 0.0, 0.0, 0.0, 0.0, 0.0);(5.380000114440918, 29.59000015258789, -67.25, 5.380000114440918, -26.900001525878906, 0.0, 2.690000057220459, 0.0)
2024/05/03/12:58:24.399051;110920;1714766304;421273863;;['BL_Position', 'BL_Wheel', 'BR_Position', 'BR_Wheel', 'FL_Position', 'FL_Wheel', 'FR_Position', 'FR_Wheel'];(0.0, 1586.2374267578125, 0.006135923322290182, 1584.21875, 0.003067961661145091, 1583.9349365234375, 0.0, 1588.45556640625);(0.0, 0.0, 0.0, 0.0, 0.0, 0.0, 0.0, 0.0);(5.380000114440918, 29.59000015258789, -69.94000244140625, 5.380000114440918, -24.21000099182129, 0.0, 2.690000057220459, 0.0)
2024/05/03/12:58:24.424514;110921;1714766304;437361362;;['BL_Position', 'BL_Wheel', 'BR_Position', 'BR_Wheel', 'FL_Position', 'FL_Wheel', 'FR_Position', 'FR_Wheel'];(0.0, 1586.2374267578125, 0.006135923322290182, 1584.21875, 0.003067961661145091, 1583.9364013671875, 0.0, 1588.45703125);(0.0, 0.0, 0.0, 0.0, 0.0, 0.0, 0.0, 0.0);(5.380000114440918, 29.59000015258789, -69.94000244140625, 5.380000114440918, -24.21000099182129, 0.0, 2.690000057220459, 0.0)
2024/05/03/12:58:24.434866;110922;1714766304;453317769;;['BL_Position', 'BL_Wheel', 'BR_Position', 'BR_Wheel', 'FL_Position', 'FL_Wheel', 'FR_Position', 'FR_Wheel'];(0.0, 1586.2374267578125, 0.0076699042692780495, 1584.21875, 0.003067961661145091, 1583.9349365234375, 0.0, 1588.45703125);(0.0, 0.0, 0.0, 0.0, 0.0, 0.0, 0.0, 0.0);(5.380000114440918, 29.59000015258789, -69.94000244140625, 5.380000114440918, -26.900001525878906, 0.0, 2.690000057220459, 0.0)
2024/05/03/12:58:24.447058;110923;1714766304;469292768;;['BL_Position', 'BL_Wheel', 'BR_Position', 'BR_Wheel', 'FL_Position', 'FL_Wheel', 'FR_Position', 'FR_Wheel'];(0.0, 1586.2374267578125, 0.006135923322290182, 1584.21875, 0.003067961661145091, 1583.9349365234375, 0.0, 1588.45703125);(0.0, 0.0, 0.0, 0.0, 0.0, 0.0, 0.0, 0.0);(5.380000114440918, 29.59000015258789, -69.94000244140625, 5.380000114440918, -24.21000099182129, 0.0, 2.690000057220459, 0.0)
2024/05/03/12:58:24.461410;110924;1714766304;485322563;;['BL_Position', 'BL_Wheel', 'BR_Position', 'BR_Wheel', 'FL_Position', 'FL_Wheel', 'FR_Position', 'FR_Wheel'];(0.0, 1586.2374267578125, 0.006135923322290182, 1584.21875, 0.003067961661145091, 1583.9364013671875, 0.0, 1588.45703125);(0.0, 0.0, 0.0, 0.0, 0.0, 0.0, 0.0, 0.0);(5.380000114440918, 29.59000015258789, -75.31999969482422, 5.380000114440918, -26.900001525878906, 0.0, 2.690000057220459, 0.0)
2024/05/03/12:58:24.479550;110925;1714766304;501336932;;['BL_Position', 'BL_Wheel', 'BR_Position', 'BR_Wheel', 'FL_Position', 'FL_Wheel', 'FR_Position', 'FR_Wheel'];(0.0, 1586.2374267578125, 0.006135923322290182, 1584.21875, 0.003067961661145091, 1583.9364013671875, 0.0, 1588.45556640625);(0.0, 0.0, 0.0, 0.0, 0.0, 0.0, 0.0, 0.0);(5.380000114440918, 29.59000015258789, -72.6300048828125, 5.380000114440918, -26.900001525878906, 0.0, 2.690000057220459, 0.0)
2024/05/03/12:58:24.501766;110926;1714766304;517292635;;['BL_Position', 'BL_Wheel', 'BR_Position', 'BR_Wheel', 'FL_Position', 'FL_Wheel', 'FR_Position', 'FR_Wheel'];(0.0, 1586.2374267578125, 0.006135923322290182, 1584.21875, 0.003067961661145091, 1583.9349365234375, 0.0, 1588.45556640625);(0.0, 0.0, 0.0, 0.0, 0.0, 0.0, 0.0, 0.0);(5.380000114440918, 29.59000015258789, -69.94000244140625, 5.380000114440918, -26.900001525878906, 0.0, 2.690000057220459, 0.0)
2024/05/03/12:58:24.511138;110927;1714766304;533383208;;['BL_Position', 'BL_Wheel', 'BR_Position', 'BR_Wheel', 'FL_Position', 'FL_Wheel', 'FR_Position', 'FR_Wheel'];(0.0, 1586.2374267578125, 0.006135923322290182, 1584.21875, 0.003067961661145091, 1583.9349365234375, 0.0, 1588.45703125);(0.0, 0.0, 0.0, 0.0, 0.0, 0.0, 0.0, 0.0);(5.380000114440918, 29.59000015258789, -69.94000244140625, 5.380000114440918, -26.900001525878906, 0.0, 2.690000057220459, 0.0)
2024/05/03/12:58:24.531049;110928;1714766304;549346855;;['BL_Position', 'BL_Wheel', 'BR_Position', 'BR_Wheel', 'FL_Position', 'FL_Wheel', 'FR_Position', 'FR_Wheel'];(0.0, 1586.2374267578125, 0.006135923322290182, 1584.2171630859375, 0.003067961661145091, 1583.9349365234375, 0.0, 1588.45703125);(0.0, 0.0, 0.0, 0.0, 0.0, 0.0, 0.0, 0.0);(5.380000114440918, 29.59000015258789, -69.94000244140625, 5.380000114440918, -26.900001525878906, 0.0, 2.690000057220459, 0.0)
2024/05/03/12:58:24.542492;110929;1714766304;565316188;;['BL_Position', 'BL_Wheel', 'BR_Position', 'BR_Wheel', 'FL_Position', 'FL_Wheel', 'FR_Position', 'FR_Wheel'];(0.0, 1586.2374267578125, 0.006135923322290182, 1584.21875, 0.003067961661145091, 1583.9349365234375, 0.0, 1588.45703125);(0.0, 0.0, 0.0, 0.0, 0.0, 0.0, 0.0, 0.0);(5.380000114440918, 29.59000015258789, -69.94000244140625, 5.380000114440918, -24.21000099182129, 0.0, 2.690000057220459, 0.0)
2024/05/03/12:58:24.558834;110930;1714766304;581356668;;['BL_Position', 'BL_Wheel', 'BR_Position', 'BR_Wheel', 'FL_Position', 'FL_Wheel', 'FR_Position', 'FR_Wheel'];(-0.0015339808305725455, 1586.2374267578125, 0.006135923322290182, 1584.21875, 0.003067961661145091, 1583.9364013671875, 0.0, 1588.45703125);(0.0, 0.0, 0.0, 0.0, 0.0, 0.0, 0.0, 0.0);(5.380000114440918, 29.59000015258789, -75.31999969482422, 5.380000114440918, -26.900001525878906, 0.0, 2.690000057220459, 0.0)
2024/05/03/12:58:24.574597;110931;1714766304;597270834;;['BL_Position', 'BL_Wheel', 'BR_Position', 'BR_Wheel', 'FL_Position', 'FL_Wheel', 'FR_Position', 'FR_Wheel'];(0.0, 1586.2374267578125, 0.006135923322290182, 1584.21875, 0.003067961661145091, 1583.9349365234375, 0.0, 1588.45703125);(0.0, 0.0, 0.0, 0.0, 0.0, 0.0, 0.0, 0.0);(5.380000114440918, 29.59000015258789, -72.6300048828125, 5.380000114440918, -24.21000099182129, 0.0, 2.690000057220459, 0.0)
2024/05/03/12:58:24.590514;110932;1714766304;613285870;;['BL_Position', 'BL_Wheel', 'BR_Position', 'BR_Wheel', 'FL_Position', 'FL_Wheel', 'FR_Position', 'FR_Wheel'];(-0.0015339808305725455, 1586.2374267578125, 0.006135923322290182, 1584.21875, 0.003067961661145091, 1583.9349365234375, 0.0, 1588.45703125);(0.0, 0.0, 0.0, 0.0, 0.0, 0.0, 0.0, 0.0);(5.380000114440918, 29.59000015258789, -69.94000244140625, 5.380000114440918, -26.900001525878906, 0.0, 2.690000057220459, 0.0)
2024/05/03/12:58:24.606601;110933;1714766304;629294887;;['BL_Position', 'BL_Wheel', 'BR_Position', 'BR_Wheel', 'FL_Position', 'FL_Wheel', 'FR_Position', 'FR_Wheel'];(0.0, 1586.2374267578125, 0.0076699042692780495, 1584.21875, 0.003067961661145091, 1583.9349365234375, 0.0, 1588.45703125);(0.0, 0.0, 0.0, 0.0, 0.0, 0.0, 0.0, 0.0);(5.380000114440918, 29.59000015258789, -69.94000244140625, 5.380000114440918, -24.21000099182129, 0.0, 2.690000057220459, 0.0)
2024/05/03/12:58:24.626949;110934;1714766304;645652349;;['BL_Position', 'BL_Wheel', 'BR_Position', 'BR_Wheel', 'FL_Position', 'FL_Wheel', 'FR_Position', 'FR_Wheel'];(0.0, 1586.2374267578125, 0.0076699042692780495, 1584.21875, 0.003067961661145091, 1583.9349365234375, 0.0, 1588.45703125);(0.0, 0.0, 0.0, 0.0, 0.0, 0.0, 0.0, 0.0);(5.380000114440918, 29.59000015258789, -69.94000244140625, 5.380000114440918, -24.21000099182129, 0.0, 2.690000057220459, 0.0)
2024/05/03/12:58:24.638756;110935;1714766304;661343496;;['BL_Position', 'BL_Wheel', 'BR_Position', 'BR_Wheel', 'FL_Position', 'FL_Wheel', 'FR_Position', 'FR_Wheel'];(0.0, 1586.2374267578125, 0.006135923322290182, 1584.21875, 0.003067961661145091, 1583.9349365234375, 0.0, 1588.45703125);(0.0, 0.0, 0.0, 0.0, 0.0, 0.0, 0.0, 0.0);(8.069999694824219, 29.59000015258789, -69.94000244140625, 5.380000114440918, -24.21000099182129, 0.0, 2.690000057220459, 0.0)
2024/05/03/12:58:24.654954;110936;1714766304;677287384;;['BL_Position', 'BL_Wheel', 'BR_Position', 'BR_Wheel', 'FL_Position', 'FL_Wheel', 'FR_Position', 'FR_Wheel'];(0.0, 1586.2374267578125, 0.006135923322290182, 1584.21875, 0.003067961661145091, 1583.9364013671875, 0.0, 1588.45703125);(0.0, 0.0, 0.0, 0.0, 0.0, 0.0, 0.0, 0.0);(5.380000114440918, 29.59000015258789, -67.25, 5.380000114440918, -26.900001525878906, 0.0, 2.690000057220459, 0.0)
2024/05/03/12:58:24.670530;110937;1714766304;693341013;;['BL_Position', 'BL_Wheel', 'BR_Position', 'BR_Wheel', 'FL_Position', 'FL_Wheel', 'FR_Position', 'FR_Wheel'];(0.0, 1586.2374267578125, 0.0076699042692780495, 1584.21875, 0.003067961661145091, 1583.9349365234375, 0.0, 1588.45703125);(0.0, 0.0, 0.0, 0.0, 0.0, 0.0, 0.0, 0.0);(5.380000114440918, 29.59000015258789, -69.94000244140625, 5.380000114440918, -24.21000099182129, 0.0, 2.690000057220459, 0.0)
2024/05/03/12:58:24.686531;110938;1714766304;709282660;;['BL_Position', 'BL_Wheel', 'BR_Position', 'BR_Wheel', 'FL_Position', 'FL_Wheel', 'FR_Position', 'FR_Wheel'];(0.0, 1586.2374267578125, 0.006135923322290182, 1584.21875, 0.003067961661145091, 1583.9364013671875, 0.0, 1588.45703125);(0.0, 0.0, 0.0, 0.0, 0.0, 0.0, 0.0, 0.0);(5.380000114440918, 29.59000015258789, -67.25, 5.380000114440918, -24.21000099182129, 0.0, 2.690000057220459, 0.0)
2024/05/03/12:58:24.705954;110939;1714766304;725265714;;['BL_Position', 'BL_Wheel', 'BR_Position', 'BR_Wheel', 'FL_Position', 'FL_Wheel', 'FR_Position', 'FR_Wheel'];(0.0, 1586.2374267578125, 0.006135923322290182, 1584.21875, 0.003067961661145091, 1583.9364013671875, 0.0, 1588.45703125);(0.0, 0.0, 0.0, 0.0, 0.0, 0.0, 0.0, 0.0);(5.380000114440918, 29.59000015258789, -69.94000244140625, 5.380000114440918, -24.21000099182129, 0.0, 2.690000057220459, 0.0)
2024/05/03/12:58:24.719421;110940;1714766304;741275750;;['BL_Position', 'BL_Wheel', 'BR_Position', 'BR_Wheel', 'FL_Position', 'FL_Wheel', 'FR_Position', 'FR_Wheel'];(0.0, 1586.2374267578125, 0.0076699042692780495, 1584.21875, 0.003067961661145091, 1583.9349365234375, 0.0, 1588.45703125);(0.0, 0.0, 0.0, 0.0, 0.0, 0.0, 0.0, 0.0);(5.380000114440918, 29.59000015258789, -69.94000244140625, 5.380000114440918, -26.900001525878906, 0.0, 2.690000057220459, 0.0)
2024/05/03/12:58:24.736149;110941;1714766304;757268268;;['BL_Position', 'BL_Wheel', 'BR_Position', 'BR_Wheel', 'FL_Position', 'FL_Wheel', 'FR_Position', 'FR_Wheel'];(0.0, 1586.2374267578125, 0.006135923322290182, 1584.21875, 0.003067961661145091, 1583.9349365234375, 0.0, 1588.45703125);(0.0, 0.0, 0.0, 0.0, 0.0, 0.0, 0.0, 0.0);(5.380000114440918, 29.59000015258789, -67.25, 5.380000114440918, -24.21000099182129, 0.0, 2.690000057220459, 0.0)
2024/05/03/12:58:24.750755;110942;1714766304;773233082;;['BL_Position', 'BL_Wheel', 'BR_Position', 'BR_Wheel', 'FL_Position', 'FL_Wheel', 'FR_Position', 'FR_Wheel'];(0.0, 1586.2374267578125, 0.006135923322290182, 1584.21875, 0.003067961661145091, 1583.9349365234375, 0.0, 1588.45703125);(0.0, 0.0, 0.0, 0.0, 0.0, 0.0, 0.0, 0.0);(5.380000114440918, 29.59000015258789, -69.94000244140625, 5.380000114440918, -26.900001525878906, 0.0, 2.690000057220459, 0.0)
2024/05/03/12:58:24.766846;110943;1714766304;789214210;;['BL_Position', 'BL_Wheel', 'BR_Position', 'BR_Wheel', 'FL_Position', 'FL_Wheel', 'FR_Position', 'FR_Wheel'];(0.0, 1586.2374267578125, 0.006135923322290182, 1584.21875, 0.003067961661145091, 1583.9364013671875, 0.0, 1588.45703125);(0.0, 0.0, 0.0, 0.0, 0.0, 0.0, 0.0, 0.0);(5.380000114440918, 29.59000015258789, -67.25, 5.380000114440918, -24.21000099182129, 0.0, 2.690000057220459, 0.0)
2024/05/03/12:58:24.782431;110944;1714766304;805270487;;['BL_Position', 'BL_Wheel', 'BR_Position', 'BR_Wheel', 'FL_Position', 'FL_Wheel', 'FR_Position', 'FR_Wheel'];(0.0, 1586.2374267578125, 0.006135923322290182, 1584.21875, 0.003067961661145091, 1583.9349365234375, 0.0, 1588.45703125);(0.0, 0.0, 0.0, 0.0, 0.0, 0.0, 0.0, 0.0);(5.380000114440918, 29.59000015258789, -69.94000244140625, 5.380000114440918, -24.21000099182129, 0.0, 2.690000057220459, 0.0)
2024/05/03/12:58:24.808693;110945;1714766304;821313338;;['BL_Position', 'BL_Wheel', 'BR_Position', 'BR_Wheel', 'FL_Position', 'FL_Wheel', 'FR_Position', 'FR_Wheel'];(0.0, 1586.2374267578125, 0.006135923322290182, 1584.21875, 0.003067961661145091, 1583.9349365234375, 0.0, 1588.45703125);(0.0, 0.0, 0.0, 0.0, 0.0, 0.0, 0.0, 0.0);(5.380000114440918, 29.59000015258789, -69.94000244140625, 5.380000114440918, -24.21000099182129, 0.0, 2.690000057220459, 0.0)
2024/05/03/12:58:24.814427;110946;1714766304;837280022;;['BL_Position', 'BL_Wheel', 'BR_Position', 'BR_Wheel', 'FL_Position', 'FL_Wheel', 'FR_Position', 'FR_Wheel'];(0.0, 1586.2374267578125, 0.006135923322290182, 1584.21875, 0.003067961661145091, 1583.9349365234375, 0.0, 1588.45703125);(0.0, 0.0, 0.0, 0.0, 0.0, 0.0, 0.0, 0.0);(5.380000114440918, 29.59000015258789, -69.94000244140625, 5.380000114440918, -24.21000099182129, 0.0, 2.690000057220459, 0.0)
2024/05/03/12:58:24.835434;110947;1714766304;853738873;;['BL_Position', 'BL_Wheel', 'BR_Position', 'BR_Wheel', 'FL_Position', 'FL_Wheel', 'FR_Position', 'FR_Wheel'];(0.0, 1586.2374267578125, 0.006135923322290182, 1584.21875, 0.003067961661145091, 1583.9349365234375, 0.0, 1588.45703125);(0.0, 0.0, 0.0, 0.0, 0.0, 0.0, 0.0, 0.0);(5.380000114440918, 29.59000015258789, -69.94000244140625, 5.380000114440918, -24.21000099182129, 0.0, 2.690000057220459, 0.0)
2024/05/03/12:58:24.846465;110948;1714766304;869277613;;['BL_Position', 'BL_Wheel', 'BR_Position', 'BR_Wheel', 'FL_Position', 'FL_Wheel', 'FR_Position', 'FR_Wheel'];(0.0, 1586.2374267578125, 0.006135923322290182, 1584.21875, 0.003067961661145091, 1583.9349365234375, 0.0, 1588.45703125);(0.0, 0.0, 0.0, 0.0, 0.0, 0.0, 0.0, 0.0);(5.380000114440918, 29.59000015258789, -75.31999969482422, 5.380000114440918, -24.21000099182129, 0.0, 2.690000057220459, 0.0)
2024/05/03/12:58:24.863371;110949;1714766304;885343093;;['BL_Position', 'BL_Wheel', 'BR_Position', 'BR_Wheel', 'FL_Position', 'FL_Wheel', 'FR_Position', 'FR_Wheel'];(0.0, 1586.2374267578125, 0.006135923322290182, 1584.21875, 0.003067961661145091, 1583.9349365234375, 0.0, 1588.45703125);(0.0, 0.0, 0.0, 0.0, 0.0, 0.0, 0.0, 0.0);(5.380000114440918, 29.59000015258789, -67.25, 5.380000114440918, -24.21000099182129, 0.0, 2.690000057220459, 0.0)
2024/05/03/12:58:24.878459;110950;1714766304;901261759;;['BL_Position', 'BL_Wheel', 'BR_Position', 'BR_Wheel', 'FL_Position', 'FL_Wheel', 'FR_Position', 'FR_Wheel'];(0.0, 1586.2374267578125, 0.006135923322290182, 1584.21875, 0.003067961661145091, 1583.9364013671875, 0.0, 1588.45703125);(0.0, 0.0, 0.0, 0.0, 0.0, 0.0, 0.0, 0.0);(5.380000114440918, 29.59000015258789, -67.25, 5.380000114440918, -24.21000099182129, 0.0, 2.690000057220459, 0.0)
2024/05/03/12:58:24.894588;110951;1714766304;917234832;;['BL_Position', 'BL_Wheel', 'BR_Position', 'BR_Wheel', 'FL_Position', 'FL_Wheel', 'FR_Position', 'FR_Wheel'];(0.0, 1586.2374267578125, 0.006135923322290182, 1584.21875, 0.003067961661145091, 1583.9349365234375, 0.0, 1588.45703125);(0.0, 0.0, 0.0, 0.0, 0.0, 0.0, 0.0, 0.0);(8.069999694824219, 29.59000015258789, -67.25, 5.380000114440918, -24.21000099182129, 0.0, 2.690000057220459, 0.0)
2024/05/03/12:58:24.910860;110952;1714766304;933310534;;['BL_Position', 'BL_Wheel', 'BR_Position', 'BR_Wheel', 'FL_Position', 'FL_Wheel', 'FR_Position', 'FR_Wheel'];(0.0, 1586.2374267578125, 0.006135923322290182, 1584.21875, 0.003067961661145091, 1583.9364013671875, 0.0, 1588.45703125);(0.0, 0.0, 0.0, 0.0, 0.0, 0.0, 0.0, 0.0);(5.380000114440918, 29.59000015258789, -69.94000244140625, 5.380000114440918, -24.21000099182129, 0.0, 2.690000057220459, 0.0)
2024/05/03/12:58:24.935355;110953;1714766304;949268089;;['BL_Position', 'BL_Wheel', 'BR_Position', 'BR_Wheel', 'FL_Position', 'FL_Wheel', 'FR_Position', 'FR_Wheel'];(0.0, 1586.2374267578125, 0.006135923322290182, 1584.21875, 0.003067961661145091, 1583.9364013671875, 0.0, 1588.45703125);(0.0, 0.0, 0.0, 0.0, 0.0, 0.0, 0.0, 0.0);(5.380000114440918, 29.59000015258789, -69.94000244140625, 5.380000114440918, -24.21000099182129, 0.0, 2.690000057220459, 0.0)
2024/05/03/12:58:24.945504;110954;1714766304;965313866;;['BL_Position', 'BL_Wheel', 'BR_Position', 'BR_Wheel', 'FL_Position', 'FL_Wheel', 'FR_Position', 'FR_Wheel'];(0.0, 1586.2374267578125, 0.0076699042692780495, 1584.21875, 0.003067961661145091, 1583.9364013671875, 0.0, 1588.45703125);(0.0, 0.0, 0.0, 0.0, 0.0, 0.0, 0.0, 0.0);(5.380000114440918, 29.59000015258789, -69.94000244140625, 5.380000114440918, -26.900001525878906, 0.0, 2.690000057220459, 0.0)
2024/05/03/12:58:24.960353;110955;1714766304;981275476;;['BL_Position', 'BL_Wheel', 'BR_Position', 'BR_Wheel', 'FL_Position', 'FL_Wheel', 'FR_Position', 'FR_Wheel'];(0.0, 1586.2374267578125, 0.006135923322290182, 1584.21875, 0.003067961661145091, 1583.9349365234375, 0.0, 1588.45703125);(0.0, 0.0, 0.0, 0.0, 0.0, 0.0, 0.0, 0.0);(5.380000114440918, 29.59000015258789, -72.6300048828125, 5.380000114440918, -26.900001525878906, 0.0, 2.690000057220459, 0.0)
2024/05/03/12:58:24.981448;110956;1714766304;997283438;;['BL_Position', 'BL_Wheel', 'BR_Position', 'BR_Wheel', 'FL_Position', 'FL_Wheel', 'FR_Position', 'FR_Wheel'];(-0.0015339808305725455, 1586.2374267578125, 0.006135923322290182, 1584.21875, 0.003067961661145091, 1583.9349365234375, 0.0, 1588.45703125);(0.0, 0.0, 0.0, 0.0, 0.0, 0.0, 0.0, 0.0);(5.380000114440918, 29.59000015258789, -67.25, 5.380000114440918, -24.21000099182129, 0.0, 2.690000057220459, 0.0)
2024/05/03/12:58:24.990402;110957;1714766305;13268807;;['BL_Position', 'BL_Wheel', 'BR_Position', 'BR_Wheel', 'FL_Position', 'FL_Wheel', 'FR_Position', 'FR_Wheel'];(0.0, 1586.2374267578125, 0.006135923322290182, 1584.21875, 0.003067961661145091, 1583.9349365234375, 0.0, 1588.45703125);(0.0, 0.0, 0.0, 0.0, 0.0, 0.0, 0.0, 0.0);(5.380000114440918, 29.59000015258789, -67.25, 5.380000114440918, -24.21000099182129, 0.0, 2.690000057220459, 0.0)
2024/05/03/12:58:25.013483;110958;1714766305;29277269;;['BL_Position', 'BL_Wheel', 'BR_Position', 'BR_Wheel', 'FL_Position', 'FL_Wheel', 'FR_Position', 'FR_Wheel'];(0.0, 1586.2374267578125, 0.006135923322290182, 1584.21875, 0.003067961661145091, 1583.9349365234375, 0.0, 1588.45703125);(0.0, 0.0, 0.0, 0.0, 0.0, 0.0, 0.0, 0.0);(5.380000114440918, 29.59000015258789, -72.6300048828125, 5.380000114440918, -26.900001525878906, 0.0, 2.690000057220459, 0.0)
2024/05/03/12:58:25.021970;110959;1714766305;45300101;;['BL_Position', 'BL_Wheel', 'BR_Position', 'BR_Wheel', 'FL_Position', 'FL_Wheel', 'FR_Position', 'FR_Wheel'];(0.0, 1586.2374267578125, 0.006135923322290182, 1584.21875, 0.003067961661145091, 1583.9349365234375, 0.0, 1588.45556640625);(0.0, 0.0, 0.0, 0.0, 0.0, 0.0, 0.0, 0.0);(5.380000114440918, 29.59000015258789, -67.25, 5.380000114440918, -24.21000099182129, 0.0, 2.690000057220459, 0.0)
2024/05/03/12:58:25.038852;110960;1714766305;61328989;;['BL_Position', 'BL_Wheel', 'BR_Position', 'BR_Wheel', 'FL_Position', 'FL_Wheel', 'FR_Position', 'FR_Wheel'];(0.0, 1586.2374267578125, 0.006135923322290182, 1584.21875, 0.003067961661145091, 1583.9349365234375, 0.0, 1588.45703125);(0.0, 0.0, 0.0, 0.0, 0.0, 0.0, 0.0, 0.0);(5.380000114440918, 29.59000015258789, -75.31999969482422, 5.380000114440918, -24.21000099182129, 0.0, 2.690000057220459, 0.0)
2024/05/03/12:58:25.055138;110961;1714766305;77436062;;['BL_Position', 'BL_Wheel', 'BR_Position', 'BR_Wheel', 'FL_Position', 'FL_Wheel', 'FR_Position', 'FR_Wheel'];(0.0, 1586.2374267578125, 0.006135923322290182, 1584.21875, 0.003067961661145091, 1583.9349365234375, 0.0, 1588.45556640625);(0.0, 0.0, 0.0, 0.0, 0.0, 0.0, 0.0, 0.0);(5.380000114440918, 29.59000015258789, -69.94000244140625, 5.380000114440918, -24.21000099182129, 0.0, 2.690000057220459, 0.0)
2024/05/03/12:58:25.069724;110962;1714766305;93363746;;['BL_Position', 'BL_Wheel', 'BR_Position', 'BR_Wheel', 'FL_Position', 'FL_Wheel', 'FR_Position', 'FR_Wheel'];(0.0, 1586.2374267578125, 0.006135923322290182, 1584.21875, 0.003067961661145091, 1583.9349365234375, 0.0, 1588.45703125);(0.0, 0.0, 0.0, 0.0, 0.0, 0.0, 0.0, 0.0);(5.380000114440918, 29.59000015258789, -67.25, 5.380000114440918, -24.21000099182129, 0.0, 2.690000057220459, 0.0)
