time;.header.seq;.header.stamp.secs;.header.stamp.nsecs;.header.frame_id;.name;.position;.velocity;.effort
2024/05/03/12:53:20.108019;91901;1714766000;128463023;;['BL_Position', 'BL_Wheel', 'BR_Position', 'BR_Wheel', 'FL_Position', 'FL_Wheel', 'FR_Position', 'FR_Wheel'];(1.5707963705062866, 1268.9427490234375, 1.5707963705062866, 1266.85498046875, 1.5707963705062866, 1266.7122802734375, 1.5707963705062866, 1271.249755859375);(0.0, 0.0, 0.0, 0.0, 0.0, 0.0, 0.0, 0.0);(0.0, 61.87000274658203, 0.0, 5.380000114440918, 0.0, -2.690000057220459, 10.760000228881836, 0.0)
2024/05/03/12:53:20.122573;91902;1714766000;144406021;;['BL_Position', 'BL_Wheel', 'BR_Position', 'BR_Wheel', 'FL_Position', 'FL_Wheel', 'FR_Position', 'FR_Wheel'];(1.5707963705062866, 1268.9427490234375, 1.5707963705062866, 1266.85498046875, 1.572330355644226, 1266.7122802734375, 1.5707963705062866, 1271.248291015625);(0.0, 0.0, 0.0, 0.0, 0.0, 0.0, 0.0, 0.0);(0.0, 61.87000274658203, 0.0, 5.380000114440918, 2.690000057220459, -2.690000057220459, 8.069999694824219, 0.0)
2024/05/03/12:53:20.138707;91903;1714766000;160393927;;['BL_Position', 'BL_Wheel', 'BR_Position', 'BR_Wheel', 'FL_Position', 'FL_Wheel', 'FR_Position', 'FR_Wheel'];(1.5707963705062866, 1268.9427490234375, 1.5707963705062866, 1266.85498046875, 1.5707963705062866, 1266.7122802734375, 1.5707963705062866, 1271.248291015625);(0.0, 0.0, 0.0, 0.0, 0.0, 0.0, 0.0, 0.0);(0.0, 61.87000274658203, 0.0, 5.380000114440918, 0.0, -2.690000057220459, 5.380000114440918, 0.0)
2024/05/03/12:53:20.161610;91904;1714766000;176365925;;['BL_Position', 'BL_Wheel', 'BR_Position', 'BR_Wheel', 'FL_Position', 'FL_Wheel', 'FR_Position', 'FR_Wheel'];(1.5707963705062866, 1268.9427490234375, 1.572330355644226, 1266.85498046875, 1.5707963705062866, 1266.7122802734375, 1.5692623853683472, 1271.249755859375);(0.0, 0.0, 0.0, 0.0, 0.0, 0.0, 0.0, 0.0);(0.0, 61.87000274658203, 0.0, 5.380000114440918, 0.0, -2.690000057220459, 10.760000228881836, 0.0)
2024/05/03/12:53:20.170240;91905;1714766000;192355924;;['BL_Position', 'BL_Wheel', 'BR_Position', 'BR_Wheel', 'FL_Position', 'FL_Wheel', 'FR_Position', 'FR_Wheel'];(1.5707963705062866, 1268.9427490234375, 1.5707963705062866, 1266.85498046875, 1.5707963705062866, 1266.7122802734375, 1.5692623853683472, 1271.248291015625);(0.0, 0.0, 0.0, 0.0, 0.0, 0.0, 0.0, 0.0);(0.0, 61.87000274658203, 0.0, 5.380000114440918, 0.0, -2.690000057220459, 10.760000228881836, 0.0)
2024/05/03/12:53:20.192871;91906;1714766000;208401792;;['BL_Position', 'BL_Wheel', 'BR_Position', 'BR_Wheel', 'FL_Position', 'FL_Wheel', 'FR_Position', 'FR_Wheel'];(1.5707963705062866, 1268.9427490234375, 1.572330355644226, 1266.85498046875, 1.5707963705062866, 1266.7122802734375, 1.5707963705062866, 1271.249755859375);(0.0, 0.0, 0.0, 0.0, 0.0, 0.0, 0.0, 0.0);(0.0, 61.87000274658203, 0.0, 5.380000114440918, 0.0, -2.690000057220459, 8.069999694824219, 0.0)
2024/05/03/12:53:20.205226;91907;1714766000;227196476;;['BL_Position', 'BL_Wheel', 'BR_Position', 'BR_Wheel', 'FL_Position', 'FL_Wheel', 'FR_Position', 'FR_Wheel'];(1.5707963705062866, 1268.9427490234375, 1.572330355644226, 1266.85498046875, 1.5707963705062866, 1266.7122802734375, 1.5707963705062866, 1271.249755859375);(0.0, 0.0, 0.0, 0.0, 0.0, 0.0, 0.0, 0.0);(0.0, 61.87000274658203, 0.0, 5.380000114440918, 0.0, -2.690000057220459, 8.069999694824219, 0.0)
2024/05/03/12:53:20.218765;91908;1714766000;240460993;;['BL_Position', 'BL_Wheel', 'BR_Position', 'BR_Wheel', 'FL_Position', 'FL_Wheel', 'FR_Position', 'FR_Wheel'];(1.5707963705062866, 1268.9427490234375, 1.572330355644226, 1266.85498046875, 1.5707963705062866, 1266.7122802734375, 1.5692623853683472, 1271.248291015625);(0.0, 0.0, 0.0, 0.0, 0.0, 0.0, 0.0, 0.0);(0.0, 61.87000274658203, 0.0, 5.380000114440918, 0.0, -2.690000057220459, 5.380000114440918, 0.0)
2024/05/03/12:53:20.234082;91909;1714766000;256363677;;['BL_Position', 'BL_Wheel', 'BR_Position', 'BR_Wheel', 'FL_Position', 'FL_Wheel', 'FR_Position', 'FR_Wheel'];(1.5707963705062866, 1268.9427490234375, 1.572330355644226, 1266.85498046875, 1.5707963705062866, 1266.7122802734375, 1.5692623853683472, 1271.248291015625);(0.0, 0.0, 0.0, 0.0, 0.0, 0.0, 0.0, 0.0);(2.690000057220459, 61.87000274658203, 0.0, 5.380000114440918, 0.0, -2.690000057220459, 8.069999694824219, 0.0)
2024/05/03/12:53:20.250839;91910;1714766000;272770508;;['BL_Position', 'BL_Wheel', 'BR_Position', 'BR_Wheel', 'FL_Position', 'FL_Wheel', 'FR_Position', 'FR_Wheel'];(1.5707963705062866, 1268.9427490234375, 1.5707963705062866, 1266.85498046875, 1.5707963705062866, 1266.7122802734375, 1.5692623853683472, 1271.248291015625);(0.0, 0.0, 0.0, 0.0, 0.0, 0.0, 0.0, 0.0);(0.0, 61.87000274658203, 0.0, 5.380000114440918, 0.0, -2.690000057220459, 8.069999694824219, 0.0)
2024/05/03/12:53:20.268955;91911;1714766000;288668710;;['BL_Position', 'BL_Wheel', 'BR_Position', 'BR_Wheel', 'FL_Position', 'FL_Wheel', 'FR_Position', 'FR_Wheel'];(1.5707963705062866, 1268.9427490234375, 1.572330355644226, 1266.85498046875, 1.572330355644226, 1266.7122802734375, 1.5692623853683472, 1271.249755859375);(0.0, 0.0, 0.0, 0.0, 0.0, 0.0, 0.0, 0.0);(0.0, 61.87000274658203, 0.0, 5.380000114440918, 0.0, -2.690000057220459, 8.069999694824219, 0.0)
2024/05/03/12:53:20.295728;91912;1714766000;304360394;;['BL_Position', 'BL_Wheel', 'BR_Position', 'BR_Wheel', 'FL_Position', 'FL_Wheel', 'FR_Position', 'FR_Wheel'];(1.5707963705062866, 1268.9427490234375, 1.572330355644226, 1266.85498046875, 1.5707963705062866, 1266.7122802734375, 1.5692623853683472, 1271.248291015625);(0.0, 0.0, 0.0, 0.0, 0.0, 0.0, 0.0, 0.0);(0.0, 61.87000274658203, 0.0, 5.380000114440918, 0.0, -2.690000057220459, 8.069999694824219, 0.0)
2024/05/03/12:53:20.300771;91913;1714766000;320369096;;['BL_Position', 'BL_Wheel', 'BR_Position', 'BR_Wheel', 'FL_Position', 'FL_Wheel', 'FR_Position', 'FR_Wheel'];(1.5707963705062866, 1268.9427490234375, 1.572330355644226, 1266.85498046875, 1.572330355644226, 1266.7122802734375, 1.5707963705062866, 1271.248291015625);(0.0, 0.0, 0.0, 0.0, 0.0, 0.0, 0.0, 0.0);(0.0, 61.87000274658203, 0.0, 5.380000114440918, 0.0, -2.690000057220459, 5.380000114440918, 0.0)
2024/05/03/12:53:20.314744;91914;1714766000;336343520;;['BL_Position', 'BL_Wheel', 'BR_Position', 'BR_Wheel', 'FL_Position', 'FL_Wheel', 'FR_Position', 'FR_Wheel'];(1.5707963705062866, 1268.9427490234375, 1.5707963705062866, 1266.85498046875, 1.5707963705062866, 1266.7122802734375, 1.5692623853683472, 1271.248291015625);(0.0, 0.0, 0.0, 0.0, 0.0, 0.0, 0.0, 0.0);(0.0, 61.87000274658203, 0.0, 5.380000114440918, 0.0, -2.690000057220459, 10.760000228881836, 0.0)
2024/05/03/12:53:20.330356;91915;1714766000;352351408;;['BL_Position', 'BL_Wheel', 'BR_Position', 'BR_Wheel', 'FL_Position', 'FL_Wheel', 'FR_Position', 'FR_Wheel'];(1.5707963705062866, 1268.9427490234375, 1.572330355644226, 1266.85498046875, 1.5707963705062866, 1266.710693359375, 1.5707963705062866, 1271.248291015625);(0.0, 0.0, 0.0, 0.0, 0.0, 0.0, 0.0, 0.0);(0.0, 61.87000274658203, 0.0, 5.380000114440918, 0.0, -2.690000057220459, 8.069999694824219, 0.0)
2024/05/03/12:53:20.353523;91916;1714766000;368415388;;['BL_Position', 'BL_Wheel', 'BR_Position', 'BR_Wheel', 'FL_Position', 'FL_Wheel', 'FR_Position', 'FR_Wheel'];(1.5707963705062866, 1268.9427490234375, 1.5707963705062866, 1266.85498046875, 1.5707963705062866, 1266.7122802734375, 1.5692623853683472, 1271.248291015625);(0.0, 0.0, 0.0, 0.0, 0.0, 0.0, 0.0, 0.0);(0.0, 61.87000274658203, 0.0, 5.380000114440918, 0.0, -2.690000057220459, 8.069999694824219, 0.0)
2024/05/03/12:53:20.372183;91917;1714766000;384335905;;['BL_Position', 'BL_Wheel', 'BR_Position', 'BR_Wheel', 'FL_Position', 'FL_Wheel', 'FR_Position', 'FR_Wheel'];(1.5707963705062866, 1268.9427490234375, 1.5707963705062866, 1266.85498046875, 1.5707963705062866, 1266.7122802734375, 1.5707963705062866, 1271.249755859375);(0.0, 0.0, 0.0, 0.0, 0.0, 0.0, 0.0, 0.0);(0.0, 61.87000274658203, 0.0, 5.380000114440918, 0.0, -2.690000057220459, 10.760000228881836, 0.0)
2024/05/03/12:53:20.379460;91918;1714766000;400368273;;['BL_Position', 'BL_Wheel', 'BR_Position', 'BR_Wheel', 'FL_Position', 'FL_Wheel', 'FR_Position', 'FR_Wheel'];(1.5707963705062866, 1268.9427490234375, 1.572330355644226, 1266.85498046875, 1.5707963705062866, 1266.7122802734375, 1.5692623853683472, 1271.248291015625);(0.0, 0.0, 0.0, 0.0, 0.0, 0.0, 0.0, 0.0);(0.0, 61.87000274658203, 0.0, 5.380000114440918, 0.0, -2.690000057220459, 10.760000228881836, 0.0)
2024/05/03/12:53:20.396973;91919;1714766000;416387438;;['BL_Position', 'BL_Wheel', 'BR_Position', 'BR_Wheel', 'FL_Position', 'FL_Wheel', 'FR_Position', 'FR_Wheel'];(1.5707963705062866, 1268.9427490234375, 1.5707963705062866, 1266.85498046875, 1.5707963705062866, 1266.7122802734375, 1.5692623853683472, 1271.248291015625);(0.0, 0.0, 0.0, 0.0, 0.0, 0.0, 0.0, 0.0);(0.0, 61.87000274658203, 0.0, 5.380000114440918, 0.0, -2.690000057220459, 8.069999694824219, 0.0)
2024/05/03/12:53:20.409383;91920;1714766000;432401752;;['BL_Position', 'BL_Wheel', 'BR_Position', 'BR_Wheel', 'FL_Position', 'FL_Wheel', 'FR_Position', 'FR_Wheel'];(1.5707963705062866, 1268.9427490234375, 1.572330355644226, 1266.85498046875, 1.5707963705062866, 1266.7122802734375, 1.5692623853683472, 1271.248291015625);(0.0, 0.0, 0.0, 0.0, 0.0, 0.0, 0.0, 0.0);(0.0, 61.87000274658203, 0.0, 5.380000114440918, 0.0, -2.690000057220459, 10.760000228881836, 0.0)
2024/05/03/12:53:20.426098;91921;1714766000;448394565;;['BL_Position', 'BL_Wheel', 'BR_Position', 'BR_Wheel', 'FL_Position', 'FL_Wheel', 'FR_Position', 'FR_Wheel'];(1.5707963705062866, 1268.9427490234375, 1.572330355644226, 1266.85498046875, 1.5707963705062866, 1266.7122802734375, 1.5692623853683472, 1271.249755859375);(0.0, 0.0, 0.0, 0.0, 0.0, 0.0, 0.0, 0.0);(0.0, 61.87000274658203, 0.0, 5.380000114440918, 0.0, -2.690000057220459, 8.069999694824219, 0.0)
2024/05/03/12:53:20.442105;91922;1714766000;464363156;;['BL_Position', 'BL_Wheel', 'BR_Position', 'BR_Wheel', 'FL_Position', 'FL_Wheel', 'FR_Position', 'FR_Wheel'];(1.5707963705062866, 1268.9427490234375, 1.5707963705062866, 1266.85498046875, 1.5707963705062866, 1266.7122802734375, 1.5692623853683472, 1271.248291015625);(0.0, 0.0, 0.0, 0.0, 0.0, 0.0, 0.0, 0.0);(0.0, 61.87000274658203, 0.0, 5.380000114440918, 0.0, -2.690000057220459, 10.760000228881836, 0.0)
2024/05/03/12:53:20.469326;91923;1714766000;480362451;;['BL_Position', 'BL_Wheel', 'BR_Position', 'BR_Wheel', 'FL_Position', 'FL_Wheel', 'FR_Position', 'FR_Wheel'];(1.5707963705062866, 1268.9427490234375, 1.572330355644226, 1266.85498046875, 1.5707963705062866, 1266.7122802734375, 1.5692623853683472, 1271.249755859375);(0.0, 0.0, 0.0, 0.0, 0.0, 0.0, 0.0, 0.0);(0.0, 61.87000274658203, 0.0, 5.380000114440918, 0.0, -2.690000057220459, 8.069999694824219, 0.0)
2024/05/03/12:53:20.474253;91924;1714766000;496363264;;['BL_Position', 'BL_Wheel', 'BR_Position', 'BR_Wheel', 'FL_Position', 'FL_Wheel', 'FR_Position', 'FR_Wheel'];(1.5707963705062866, 1268.9427490234375, 1.572330355644226, 1266.85498046875, 1.5707963705062866, 1266.7122802734375, 1.5707963705062866, 1271.249755859375);(0.0, 0.0, 0.0, 0.0, 0.0, 0.0, 0.0, 0.0);(0.0, 61.87000274658203, 0.0, 5.380000114440918, 0.0, -2.690000057220459, 8.069999694824219, 0.0)
2024/05/03/12:53:20.495093;91925;1714766000;512345725;;['BL_Position', 'BL_Wheel', 'BR_Position', 'BR_Wheel', 'FL_Position', 'FL_Wheel', 'FR_Position', 'FR_Wheel'];(1.5707963705062866, 1268.9427490234375, 1.5707963705062866, 1266.85498046875, 1.5707963705062866, 1266.7122802734375, 1.5692623853683472, 1271.248291015625);(0.0, 0.0, 0.0, 0.0, 0.0, 0.0, 0.0, 0.0);(0.0, 61.87000274658203, 0.0, 5.380000114440918, 0.0, -2.690000057220459, 10.760000228881836, 0.0)
2024/05/03/12:53:20.506761;91926;1714766000;528337946;;['BL_Position', 'BL_Wheel', 'BR_Position', 'BR_Wheel', 'FL_Position', 'FL_Wheel', 'FR_Position', 'FR_Wheel'];(1.5707963705062866, 1268.9427490234375, 1.5707963705062866, 1266.85498046875, 1.5707963705062866, 1266.7122802734375, 1.5692623853683472, 1271.248291015625);(0.0, 0.0, 0.0, 0.0, 0.0, 0.0, 0.0, 0.0);(0.0, 61.87000274658203, 0.0, 5.380000114440918, 0.0, -2.690000057220459, 8.069999694824219, 0.0)
2024/05/03/12:53:20.525314;91927;1714766000;544385203;;['BL_Position', 'BL_Wheel', 'BR_Position', 'BR_Wheel', 'FL_Position', 'FL_Wheel', 'FR_Position', 'FR_Wheel'];(1.5707963705062866, 1268.9427490234375, 1.5707963705062866, 1266.85498046875, 1.5707963705062866, 1266.7122802734375, 1.5692623853683472, 1271.249755859375);(0.0, 0.0, 0.0, 0.0, 0.0, 0.0, 0.0, 0.0);(0.0, 61.87000274658203, 0.0, 5.380000114440918, 0.0, -2.690000057220459, 10.760000228881836, 0.0)
2024/05/03/12:53:20.547258;91928;1714766000;560369943;;['BL_Position', 'BL_Wheel', 'BR_Position', 'BR_Wheel', 'FL_Position', 'FL_Wheel', 'FR_Position', 'FR_Wheel'];(1.5707963705062866, 1268.9427490234375, 1.5707963705062866, 1266.85498046875, 1.5707963705062866, 1266.7122802734375, 1.5707963705062866, 1271.249755859375);(0.0, 0.0, 0.0, 0.0, 0.0, 0.0, 0.0, 0.0);(2.690000057220459, 61.87000274658203, 0.0, 5.380000114440918, 0.0, -2.690000057220459, 5.380000114440918, 0.0)
2024/05/03/12:53:20.552759;91929;1714766000;576364737;;['BL_Position', 'BL_Wheel', 'BR_Position', 'BR_Wheel', 'FL_Position', 'FL_Wheel', 'FR_Position', 'FR_Wheel'];(1.5707963705062866, 1268.9427490234375, 1.572330355644226, 1266.85498046875, 1.5707963705062866, 1266.7122802734375, 1.5692623853683472, 1271.248291015625);(0.0, 0.0, 0.0, 0.0, 0.0, 0.0, 0.0, 0.0);(0.0, 61.87000274658203, 0.0, 5.380000114440918, 0.0, -2.690000057220459, 5.380000114440918, 0.0)
2024/05/03/12:53:20.571160;91930;1714766000;592341125;;['BL_Position', 'BL_Wheel', 'BR_Position', 'BR_Wheel', 'FL_Position', 'FL_Wheel', 'FR_Position', 'FR_Wheel'];(1.5707963705062866, 1268.9427490234375, 1.5707963705062866, 1266.85498046875, 1.5707963705062866, 1266.7122802734375, 1.5707963705062866, 1271.249755859375);(0.0, 0.0, 0.0, 0.0, 0.0, 0.0, 0.0, 0.0);(0.0, 61.87000274658203, 0.0, 5.380000114440918, 0.0, -2.690000057220459, 10.760000228881836, 0.0)
2024/05/03/12:53:20.586009;91931;1714766000;608358975;;['BL_Position', 'BL_Wheel', 'BR_Position', 'BR_Wheel', 'FL_Position', 'FL_Wheel', 'FR_Position', 'FR_Wheel'];(1.572330355644226, 1268.9427490234375, 1.5707963705062866, 1266.85498046875, 1.5707963705062866, 1266.7122802734375, 1.5707963705062866, 1271.249755859375);(0.0, 0.0, 0.0, 0.0, 0.0, 0.0, 0.0, 0.0);(0.0, 61.87000274658203, 0.0, 5.380000114440918, 0.0, -2.690000057220459, 10.760000228881836, 0.0)
2024/05/03/12:53:20.606475;91932;1714766000;624385418;;['BL_Position', 'BL_Wheel', 'BR_Position', 'BR_Wheel', 'FL_Position', 'FL_Wheel', 'FR_Position', 'FR_Wheel'];(1.5707963705062866, 1268.9427490234375, 1.572330355644226, 1266.85498046875, 1.5707963705062866, 1266.7122802734375, 1.5692623853683472, 1271.249755859375);(0.0, 0.0, 0.0, 0.0, 0.0, 0.0, 0.0, 0.0);(0.0, 61.87000274658203, 0.0, 5.380000114440918, 0.0, -2.690000057220459, 10.760000228881836, 0.0)
2024/05/03/12:53:20.620558;91933;1714766000;640463083;;['BL_Position', 'BL_Wheel', 'BR_Position', 'BR_Wheel', 'FL_Position', 'FL_Wheel', 'FR_Position', 'FR_Wheel'];(1.5707963705062866, 1268.9427490234375, 1.572330355644226, 1266.85498046875, 1.5707963705062866, 1266.7122802734375, 1.5692623853683472, 1271.248291015625);(0.0, 0.0, 0.0, 0.0, 0.0, 0.0, 0.0, 0.0);(0.0, 61.87000274658203, 0.0, 5.380000114440918, 0.0, -2.690000057220459, 10.760000228881836, 0.0)
2024/05/03/12:53:20.634098;91934;1714766000;656371285;;['BL_Position', 'BL_Wheel', 'BR_Position', 'BR_Wheel', 'FL_Position', 'FL_Wheel', 'FR_Position', 'FR_Wheel'];(1.5707963705062866, 1268.9427490234375, 1.5707963705062866, 1266.85498046875, 1.5707963705062866, 1266.7122802734375, 1.5692623853683472, 1271.248291015625);(0.0, 0.0, 0.0, 0.0, 0.0, 0.0, 0.0, 0.0);(0.0, 61.87000274658203, 0.0, 5.380000114440918, 0.0, -2.690000057220459, 8.069999694824219, 0.0)
2024/05/03/12:53:20.650361;91935;1714766000;672348061;;['BL_Position', 'BL_Wheel', 'BR_Position', 'BR_Wheel', 'FL_Position', 'FL_Wheel', 'FR_Position', 'FR_Wheel'];(1.5707963705062866, 1268.9427490234375, 1.572330355644226, 1266.85498046875, 1.5707963705062866, 1266.7122802734375, 1.5692623853683472, 1271.248291015625);(0.0, 0.0, 0.0, 0.0, 0.0, 0.0, 0.0, 0.0);(0.0, 61.87000274658203, 0.0, 5.380000114440918, 0.0, -2.690000057220459, 10.760000228881836, 0.0)
2024/05/03/12:53:20.674143;91936;1714766000;688339411;;['BL_Position', 'BL_Wheel', 'BR_Position', 'BR_Wheel', 'FL_Position', 'FL_Wheel', 'FR_Position', 'FR_Wheel'];(1.5707963705062866, 1268.9427490234375, 1.5707963705062866, 1266.85498046875, 1.5707963705062866, 1266.7122802734375, 1.5692623853683472, 1271.248291015625);(0.0, 0.0, 0.0, 0.0, 0.0, 0.0, 0.0, 0.0);(0.0, 61.87000274658203, 0.0, 5.380000114440918, 0.0, -2.690000057220459, 10.760000228881836, 0.0)
2024/05/03/12:53:20.682298;91937;1714766000;704364780;;['BL_Position', 'BL_Wheel', 'BR_Position', 'BR_Wheel', 'FL_Position', 'FL_Wheel', 'FR_Position', 'FR_Wheel'];(1.5707963705062866, 1268.9427490234375, 1.572330355644226, 1266.85498046875, 1.5707963705062866, 1266.7122802734375, 1.5692623853683472, 1271.248291015625);(0.0, 0.0, 0.0, 0.0, 0.0, 0.0, 0.0, 0.0);(0.0, 61.87000274658203, 0.0, 5.380000114440918, 0.0, -2.690000057220459, 8.069999694824219, 0.0)
2024/05/03/12:53:20.704779;91938;1714766000;720340130;;['BL_Position', 'BL_Wheel', 'BR_Position', 'BR_Wheel', 'FL_Position', 'FL_Wheel', 'FR_Position', 'FR_Wheel'];(1.5707963705062866, 1268.9427490234375, 1.572330355644226, 1266.85498046875, 1.5707963705062866, 1266.7122802734375, 1.5692623853683472, 1271.249755859375);(0.0, 0.0, 0.0, 0.0, 0.0, 0.0, 0.0, 0.0);(0.0, 61.87000274658203, 0.0, 5.380000114440918, 0.0, -2.690000057220459, 8.069999694824219, 0.0)
2024/05/03/12:53:20.714027;91939;1714766000;736332036;;['BL_Position', 'BL_Wheel', 'BR_Position', 'BR_Wheel', 'FL_Position', 'FL_Wheel', 'FR_Position', 'FR_Wheel'];(1.5707963705062866, 1268.9427490234375, 1.572330355644226, 1266.85498046875, 1.5707963705062866, 1266.7122802734375, 1.5707963705062866, 1271.248291015625);(0.0, 0.0, 0.0, 0.0, 0.0, 0.0, 0.0, 0.0);(0.0, 61.87000274658203, 0.0, 5.380000114440918, 0.0, -2.690000057220459, 10.760000228881836, 0.0)
2024/05/03/12:53:20.730121;91940;1714766000;752311979;;['BL_Position', 'BL_Wheel', 'BR_Position', 'BR_Wheel', 'FL_Position', 'FL_Wheel', 'FR_Position', 'FR_Wheel'];(1.5707963705062866, 1268.9427490234375, 1.5707963705062866, 1266.85498046875, 1.5707963705062866, 1266.7122802734375, 1.5692623853683472, 1271.249755859375);(0.0, 0.0, 0.0, 0.0, 0.0, 0.0, 0.0, 0.0);(0.0, 61.87000274658203, 0.0, 5.380000114440918, 0.0, -2.690000057220459, 10.760000228881836, 0.0)
2024/05/03/12:53:20.746346;91941;1714766000;768303366;;['BL_Position', 'BL_Wheel', 'BR_Position', 'BR_Wheel', 'FL_Position', 'FL_Wheel', 'FR_Position', 'FR_Wheel'];(1.572330355644226, 1268.9427490234375, 1.572330355644226, 1266.85498046875, 1.5707963705062866, 1266.710693359375, 1.5692623853683472, 1271.248291015625);(0.0, 0.0, 0.0, 0.0, 0.0, 0.0, 0.0, 0.0);(0.0, 61.87000274658203, 0.0, 5.380000114440918, 0.0, -2.690000057220459, 10.760000228881836, 0.0)
2024/05/03/12:53:20.761939;91942;1714766000;784311883;;['BL_Position', 'BL_Wheel', 'BR_Position', 'BR_Wheel', 'FL_Position', 'FL_Wheel', 'FR_Position', 'FR_Wheel'];(1.5707963705062866, 1268.9427490234375, 1.572330355644226, 1266.85498046875, 1.5707963705062866, 1266.710693359375, 1.5692623853683472, 1271.249755859375);(0.0, 0.0, 0.0, 0.0, 0.0, 0.0, 0.0, 0.0);(0.0, 61.87000274658203, 0.0, 5.380000114440918, 0.0, -2.690000057220459, 5.380000114440918, 0.0)
2024/05/03/12:53:20.778201;91943;1714766000;800324752;;['BL_Position', 'BL_Wheel', 'BR_Position', 'BR_Wheel', 'FL_Position', 'FL_Wheel', 'FR_Position', 'FR_Wheel'];(1.5707963705062866, 1268.9427490234375, 1.572330355644226, 1266.85498046875, 1.5707963705062866, 1266.710693359375, 1.5692623853683472, 1271.248291015625);(0.0, 0.0, 0.0, 0.0, 0.0, 0.0, 0.0, 0.0);(0.0, 61.87000274658203, 0.0, 5.380000114440918, 0.0, -2.690000057220459, 8.069999694824219, 0.0)
2024/05/03/12:53:20.797574;91944;1714766000;816475917;;['BL_Position', 'BL_Wheel', 'BR_Position', 'BR_Wheel', 'FL_Position', 'FL_Wheel', 'FR_Position', 'FR_Wheel'];(1.5707963705062866, 1268.9427490234375, 1.572330355644226, 1266.85498046875, 1.5707963705062866, 1266.7122802734375, 1.5692623853683472, 1271.248291015625);(0.0, 0.0, 0.0, 0.0, 0.0, 0.0, 0.0, 0.0);(0.0, 61.87000274658203, 0.0, 5.380000114440918, 0.0, -2.690000057220459, 10.760000228881836, 0.0)
2024/05/03/12:53:20.812127;91945;1714766000;832322138;;['BL_Position', 'BL_Wheel', 'BR_Position', 'BR_Wheel', 'FL_Position', 'FL_Wheel', 'FR_Position', 'FR_Wheel'];(1.5707963705062866, 1268.9427490234375, 1.572330355644226, 1266.85498046875, 1.5707963705062866, 1266.710693359375, 1.5692623853683472, 1271.248291015625);(0.0, 0.0, 0.0, 0.0, 0.0, 0.0, 0.0, 0.0);(0.0, 61.87000274658203, 0.0, 5.380000114440918, 2.690000057220459, -2.690000057220459, 10.760000228881836, 0.0)
2024/05/03/12:53:20.828510;91946;1714766000;848355729;;['BL_Position', 'BL_Wheel', 'BR_Position', 'BR_Wheel', 'FL_Position', 'FL_Wheel', 'FR_Position', 'FR_Wheel'];(1.5707963705062866, 1268.9427490234375, 1.5707963705062866, 1266.85498046875, 1.5707963705062866, 1266.7122802734375, 1.5692623853683472, 1271.249755859375);(0.0, 0.0, 0.0, 0.0, 0.0, 0.0, 0.0, 0.0);(0.0, 61.87000274658203, 0.0, 5.380000114440918, 0.0, -2.690000057220459, 10.760000228881836, 0.0)
2024/05/03/12:53:20.842191;91947;1714766000;864348579;;['BL_Position', 'BL_Wheel', 'BR_Position', 'BR_Wheel', 'FL_Position', 'FL_Wheel', 'FR_Position', 'FR_Wheel'];(1.5707963705062866, 1268.9427490234375, 1.5707963705062866, 1266.85498046875, 1.5707963705062866, 1266.7122802734375, 1.5692623853683472, 1271.248291015625);(0.0, 0.0, 0.0, 0.0, 0.0, 0.0, 0.0, 0.0);(0.0, 61.87000274658203, 0.0, 5.380000114440918, 0.0, -2.690000057220459, 10.760000228881836, 0.0)
2024/05/03/12:53:20.858683;91948;1714766000;880373966;;['BL_Position', 'BL_Wheel', 'BR_Position', 'BR_Wheel', 'FL_Position', 'FL_Wheel', 'FR_Position', 'FR_Wheel'];(1.5707963705062866, 1268.9427490234375, 1.572330355644226, 1266.85498046875, 1.5707963705062866, 1266.7122802734375, 1.5692623853683472, 1271.248291015625);(0.0, 0.0, 0.0, 0.0, 0.0, 0.0, 0.0, 0.0);(0.0, 61.87000274658203, 0.0, 5.380000114440918, 0.0, -2.690000057220459, 8.069999694824219, 0.0)
2024/05/03/12:53:20.878604;91949;1714766000;896335446;;['BL_Position', 'BL_Wheel', 'BR_Position', 'BR_Wheel', 'FL_Position', 'FL_Wheel', 'FR_Position', 'FR_Wheel'];(1.5707963705062866, 1268.9427490234375, 1.5707963705062866, 1266.85498046875, 1.5707963705062866, 1266.7122802734375, 1.5692623853683472, 1271.248291015625);(0.0, 0.0, 0.0, 0.0, 0.0, 0.0, 0.0, 0.0);(0.0, 61.87000274658203, 0.0, 5.380000114440918, 0.0, -2.690000057220459, 8.069999694824219, 0.0)
2024/05/03/12:53:20.890106;91950;1714766000;912352593;;['BL_Position', 'BL_Wheel', 'BR_Position', 'BR_Wheel', 'FL_Position', 'FL_Wheel', 'FR_Position', 'FR_Wheel'];(1.5707963705062866, 1268.9427490234375, 1.5707963705062866, 1266.85498046875, 1.5707963705062866, 1266.7122802734375, 1.5707963705062866, 1271.248291015625);(0.0, 0.0, 0.0, 0.0, 0.0, 0.0, 0.0, 0.0);(0.0, 61.87000274658203, 0.0, 5.380000114440918, 0.0, -2.690000057220459, 8.069999694824219, 0.0)
2024/05/03/12:53:20.909889;91951;1714766000;928371980;;['BL_Position', 'BL_Wheel', 'BR_Position', 'BR_Wheel', 'FL_Position', 'FL_Wheel', 'FR_Position', 'FR_Wheel'];(1.5707963705062866, 1268.9427490234375, 1.572330355644226, 1266.85498046875, 1.5707963705062866, 1266.7122802734375, 1.5692623853683472, 1271.249755859375);(0.0, 0.0, 0.0, 0.0, 0.0, 0.0, 0.0, 0.0);(0.0, 61.87000274658203, 0.0, 5.380000114440918, 0.0, -2.690000057220459, 8.069999694824219, 0.0)
2024/05/03/12:53:20.922297;91952;1714766000;944391330;;['BL_Position', 'BL_Wheel', 'BR_Position', 'BR_Wheel', 'FL_Position', 'FL_Wheel', 'FR_Position', 'FR_Wheel'];(1.5707963705062866, 1268.9427490234375, 1.572330355644226, 1266.85498046875, 1.572330355644226, 1266.7122802734375, 1.5692623853683472, 1271.249755859375);(0.0, 0.0, 0.0, 0.0, 0.0, 0.0, 0.0, 0.0);(0.0, 61.87000274658203, 0.0, 5.380000114440918, 0.0, -2.690000057220459, 10.760000228881836, 0.0)
2024/05/03/12:53:20.939072;91953;1714766000;960359070;;['BL_Position', 'BL_Wheel', 'BR_Position', 'BR_Wheel', 'FL_Position', 'FL_Wheel', 'FR_Position', 'FR_Wheel'];(1.5707963705062866, 1268.9427490234375, 1.572330355644226, 1266.85498046875, 1.5707963705062866, 1266.7122802734375, 1.5707963705062866, 1271.249755859375);(0.0, 0.0, 0.0, 0.0, 0.0, 0.0, 0.0, 0.0);(0.0, 61.87000274658203, 0.0, 5.380000114440918, 0.0, -2.690000057220459, 8.069999694824219, 0.0)
2024/05/03/12:53:20.954131;91954;1714766000;976349679;;['BL_Position', 'BL_Wheel', 'BR_Position', 'BR_Wheel', 'FL_Position', 'FL_Wheel', 'FR_Position', 'FR_Wheel'];(1.5707963705062866, 1268.9427490234375, 1.5707963705062866, 1266.85498046875, 1.5707963705062866, 1266.7122802734375, 1.5692623853683472, 1271.248291015625);(0.0, 0.0, 0.0, 0.0, 0.0, 0.0, 0.0, 0.0);(0.0, 61.87000274658203, 0.0, 5.380000114440918, 0.0, -2.690000057220459, 8.069999694824219, 0.0)
2024/05/03/12:53:20.980961;91955;1714766000;992386307;;['BL_Position', 'BL_Wheel', 'BR_Position', 'BR_Wheel', 'FL_Position', 'FL_Wheel', 'FR_Position', 'FR_Wheel'];(1.5707963705062866, 1268.9427490234375, 1.5707963705062866, 1266.85498046875, 1.5707963705062866, 1266.7122802734375, 1.5692623853683472, 1271.249755859375);(0.0, 0.0, 0.0, 0.0, 0.0, 0.0, 0.0, 0.0);(0.0, 61.87000274658203, 0.0, 5.380000114440918, 0.0, -2.690000057220459, 5.380000114440918, 0.0)
2024/05/03/12:53:20.987351;91956;1714766001;8307046;;['BL_Position', 'BL_Wheel', 'BR_Position', 'BR_Wheel', 'FL_Position', 'FL_Wheel', 'FR_Position', 'FR_Wheel'];(1.5707963705062866, 1268.9427490234375, 1.5707963705062866, 1266.85498046875, 1.5707963705062866, 1266.7122802734375, 1.5707963705062866, 1271.248291015625);(0.0, 0.0, 0.0, 0.0, 0.0, 0.0, 0.0, 0.0);(0.0, 61.87000274658203, 0.0, 5.380000114440918, 0.0, -2.690000057220459, 10.760000228881836, 0.0)
2024/05/03/12:53:21.002340;91957;1714766001;24479878;;['BL_Position', 'BL_Wheel', 'BR_Position', 'BR_Wheel', 'FL_Position', 'FL_Wheel', 'FR_Position', 'FR_Wheel'];(1.5707963705062866, 1268.9427490234375, 1.572330355644226, 1266.85498046875, 1.5707963705062866, 1266.7122802734375, 1.5692623853683472, 1271.249755859375);(0.0, 0.0, 0.0, 0.0, 0.0, 0.0, 0.0, 0.0);(0.0, 61.87000274658203, 0.0, 5.380000114440918, 0.0, -2.690000057220459, 8.069999694824219, 0.0)
2024/05/03/12:53:21.016853;91958;1714766001;40362191;;['BL_Position', 'BL_Wheel', 'BR_Position', 'BR_Wheel', 'FL_Position', 'FL_Wheel', 'FR_Position', 'FR_Wheel'];(1.5707963705062866, 1268.9427490234375, 1.572330355644226, 1266.85498046875, 1.572330355644226, 1266.7122802734375, 1.5692623853683472, 1271.248291015625);(0.0, 0.0, 0.0, 0.0, 0.0, 0.0, 0.0, 0.0);(0.0, 61.87000274658203, 0.0, 5.380000114440918, 0.0, -2.690000057220459, 8.069999694824219, 0.0)
2024/05/03/12:53:21.034317;91959;1714766001;56388338;;['BL_Position', 'BL_Wheel', 'BR_Position', 'BR_Wheel', 'FL_Position', 'FL_Wheel', 'FR_Position', 'FR_Wheel'];(1.5707963705062866, 1268.9427490234375, 1.5707963705062866, 1266.85498046875, 1.5707963705062866, 1266.7122802734375, 1.5707963705062866, 1271.248291015625);(0.0, 0.0, 0.0, 0.0, 0.0, 0.0, 0.0, 0.0);(0.0, 61.87000274658203, 0.0, 5.380000114440918, 0.0, -2.690000057220459, 8.069999694824219, 0.0)
2024/05/03/12:53:21.050653;91960;1714766001;72339910;;['BL_Position', 'BL_Wheel', 'BR_Position', 'BR_Wheel', 'FL_Position', 'FL_Wheel', 'FR_Position', 'FR_Wheel'];(1.5707963705062866, 1268.9427490234375, 1.5707963705062866, 1266.85498046875, 1.5707963705062866, 1266.7122802734375, 1.5692623853683472, 1271.248291015625);(0.0, 0.0, 0.0, 0.0, 0.0, 0.0, 0.0, 0.0);(0.0, 61.87000274658203, 0.0, 5.380000114440918, 0.0, -2.690000057220459, 8.069999694824219, 0.0)
2024/05/03/12:53:21.066900;91961;1714766001;88413335;;['BL_Position', 'BL_Wheel', 'BR_Position', 'BR_Wheel', 'FL_Position', 'FL_Wheel', 'FR_Position', 'FR_Wheel'];(1.5707963705062866, 1268.9427490234375, 1.5707963705062866, 1266.85498046875, 1.5707963705062866, 1266.7122802734375, 1.5692623853683472, 1271.248291015625);(0.0, 0.0, 0.0, 0.0, 0.0, 0.0, 0.0, 0.0);(2.690000057220459, 61.87000274658203, 0.0, 5.380000114440918, 0.0, -2.690000057220459, 8.069999694824219, 0.0)
2024/05/03/12:53:21.084569;91962;1714766001;104658759;;['BL_Position', 'BL_Wheel', 'BR_Position', 'BR_Wheel', 'FL_Position', 'FL_Wheel', 'FR_Position', 'FR_Wheel'];(1.5707963705062866, 1268.9427490234375, 1.5707963705062866, 1266.85498046875, 1.5707963705062866, 1266.7122802734375, 1.5692623853683472, 1271.248291015625);(0.0, 0.0, 0.0, 0.0, 0.0, 0.0, 0.0, 0.0);(0.0, 61.87000274658203, 0.0, 5.380000114440918, 0.0, -2.690000057220459, 10.760000228881836, 0.0)
2024/05/03/12:53:21.098254;91963;1714766001;120366017;;['BL_Position', 'BL_Wheel', 'BR_Position', 'BR_Wheel', 'FL_Position', 'FL_Wheel', 'FR_Position', 'FR_Wheel'];(1.5707963705062866, 1268.9427490234375, 1.572330355644226, 1266.85498046875, 1.5707963705062866, 1266.7122802734375, 1.5692623853683472, 1271.249755859375);(0.0, 0.0, 0.0, 0.0, 0.0, 0.0, 0.0, 0.0);(0.0, 61.87000274658203, 0.0, 5.380000114440918, 0.0, -2.690000057220459, 8.069999694824219, 0.0)
2024/05/03/12:53:21.116111;91964;1714766001;136282571;;['BL_Position', 'BL_Wheel', 'BR_Position', 'BR_Wheel', 'FL_Position', 'FL_Wheel', 'FR_Position', 'FR_Wheel'];(1.5707963705062866, 1268.9427490234375, 1.5707963705062866, 1266.85498046875, 1.5707963705062866, 1266.7122802734375, 1.5692623853683472, 1271.248291015625);(0.0, 0.0, 0.0, 0.0, 0.0, 0.0, 0.0, 0.0);(0.0, 61.87000274658203, 0.0, 5.380000114440918, 2.690000057220459, -2.690000057220459, 10.760000228881836, 0.0)
2024/05/03/12:53:21.132154;91965;1714766001;152343236;;['BL_Position', 'BL_Wheel', 'BR_Position', 'BR_Wheel', 'FL_Position', 'FL_Wheel', 'FR_Position', 'FR_Wheel'];(1.5707963705062866, 1268.9427490234375, 1.5707963705062866, 1266.85498046875, 1.5707963705062866, 1266.7122802734375, 1.5692623853683472, 1271.248291015625);(0.0, 0.0, 0.0, 0.0, 0.0, 0.0, 0.0, 0.0);(0.0, 61.87000274658203, 0.0, 5.380000114440918, 0.0, -2.690000057220459, 10.760000228881836, 0.0)
2024/05/03/12:53:21.146589;91966;1714766001;168397771;;['BL_Position', 'BL_Wheel', 'BR_Position', 'BR_Wheel', 'FL_Position', 'FL_Wheel', 'FR_Position', 'FR_Wheel'];(1.5707963705062866, 1268.9427490234375, 1.572330355644226, 1266.85498046875, 1.5707963705062866, 1266.7122802734375, 1.5707963705062866, 1271.248291015625);(0.0, 0.0, 0.0, 0.0, 0.0, 0.0, 0.0, 0.0);(0.0, 61.87000274658203, 0.0, 5.380000114440918, 0.0, -2.690000057220459, 10.760000228881836, 0.0)
2024/05/03/12:53:21.162282;91967;1714766001;184345844;;['BL_Position', 'BL_Wheel', 'BR_Position', 'BR_Wheel', 'FL_Position', 'FL_Wheel', 'FR_Position', 'FR_Wheel'];(1.5707963705062866, 1268.9427490234375, 1.5707963705062866, 1266.85498046875, 1.5707963705062866, 1266.7122802734375, 1.5692623853683472, 1271.249755859375);(0.0, 0.0, 0.0, 0.0, 0.0, 0.0, 0.0, 0.0);(0.0, 61.87000274658203, 0.0, 5.380000114440918, 0.0, -2.690000057220459, 10.760000228881836, 0.0)
2024/05/03/12:53:21.185816;91968;1714766001;200321064;;['BL_Position', 'BL_Wheel', 'BR_Position', 'BR_Wheel', 'FL_Position', 'FL_Wheel', 'FR_Position', 'FR_Wheel'];(1.5707963705062866, 1268.9427490234375, 1.5707963705062866, 1266.85498046875, 1.5707963705062866, 1266.7122802734375, 1.5692623853683472, 1271.248291015625);(0.0, 0.0, 0.0, 0.0, 0.0, 0.0, 0.0, 0.0);(2.690000057220459, 61.87000274658203, 0.0, 5.380000114440918, 0.0, -2.690000057220459, 10.760000228881836, 0.0)
2024/05/03/12:53:21.193808;91969;1714766001;216316452;;['BL_Position', 'BL_Wheel', 'BR_Position', 'BR_Wheel', 'FL_Position', 'FL_Wheel', 'FR_Position', 'FR_Wheel'];(1.5707963705062866, 1268.9427490234375, 1.5707963705062866, 1266.85498046875, 1.5707963705062866, 1266.7122802734375, 1.5707963705062866, 1271.248291015625);(0.0, 0.0, 0.0, 0.0, 0.0, 0.0, 0.0, 0.0);(2.690000057220459, 61.87000274658203, 0.0, 5.380000114440918, 0.0, -2.690000057220459, 8.069999694824219, 0.0)
2024/05/03/12:53:21.216765;91970;1714766001;232329561;;['BL_Position', 'BL_Wheel', 'BR_Position', 'BR_Wheel', 'FL_Position', 'FL_Wheel', 'FR_Position', 'FR_Wheel'];(1.5707963705062866, 1268.9427490234375, 1.572330355644226, 1266.85498046875, 1.5707963705062866, 1266.7122802734375, 1.5707963705062866, 1271.248291015625);(0.0, 0.0, 0.0, 0.0, 0.0, 0.0, 0.0, 0.0);(0.0, 61.87000274658203, 0.0, 5.380000114440918, 0.0, -2.690000057220459, 10.760000228881836, 0.0)
2024/05/03/12:53:21.226040;91971;1714766001;248366504;;['BL_Position', 'BL_Wheel', 'BR_Position', 'BR_Wheel', 'FL_Position', 'FL_Wheel', 'FR_Position', 'FR_Wheel'];(1.5707963705062866, 1268.9427490234375, 1.572330355644226, 1266.85498046875, 1.5707963705062866, 1266.7122802734375, 1.5692623853683472, 1271.249755859375);(0.0, 0.0, 0.0, 0.0, 0.0, 0.0, 0.0, 0.0);(0.0, 61.87000274658203, 0.0, 5.380000114440918, 0.0, -2.690000057220459, 8.069999694824219, 0.0)
2024/05/03/12:53:21.242323;91972;1714766001;264339410;;['BL_Position', 'BL_Wheel', 'BR_Position', 'BR_Wheel', 'FL_Position', 'FL_Wheel', 'FR_Position', 'FR_Wheel'];(1.5707963705062866, 1268.9427490234375, 1.572330355644226, 1266.85498046875, 1.5707963705062866, 1266.7122802734375, 1.5692623853683472, 1271.249755859375);(0.0, 0.0, 0.0, 0.0, 0.0, 0.0, 0.0, 0.0);(0.0, 61.87000274658203, 0.0, 5.380000114440918, 0.0, -2.690000057220459, 10.760000228881836, 0.0)
2024/05/03/12:53:21.258561;91973;1714766001;280409316;;['BL_Position', 'BL_Wheel', 'BR_Position', 'BR_Wheel', 'FL_Position', 'FL_Wheel', 'FR_Position', 'FR_Wheel'];(1.5707963705062866, 1268.9427490234375, 1.572330355644226, 1266.85498046875, 1.5707963705062866, 1266.7122802734375, 1.5707963705062866, 1271.248291015625);(0.0, 0.0, 0.0, 0.0, 0.0, 0.0, 0.0, 0.0);(0.0, 61.87000274658203, 0.0, 5.380000114440918, 0.0, -2.690000057220459, 10.760000228881836, 0.0)
2024/05/03/12:53:21.274220;91974;1714766001;296338555;;['BL_Position', 'BL_Wheel', 'BR_Position', 'BR_Wheel', 'FL_Position', 'FL_Wheel', 'FR_Position', 'FR_Wheel'];(1.5707963705062866, 1268.9427490234375, 1.572330355644226, 1266.85498046875, 1.5707963705062866, 1266.7122802734375, 1.5692623853683472, 1271.248291015625);(0.0, 0.0, 0.0, 0.0, 0.0, 0.0, 0.0, 0.0);(0.0, 61.87000274658203, 0.0, 5.380000114440918, 0.0, -2.690000057220459, 10.760000228881836, 0.0)
2024/05/03/12:53:21.289380;91975;1714766001;312354405;;['BL_Position', 'BL_Wheel', 'BR_Position', 'BR_Wheel', 'FL_Position', 'FL_Wheel', 'FR_Position', 'FR_Wheel'];(1.5707963705062866, 1268.9427490234375, 1.572330355644226, 1266.85498046875, 1.5707963705062866, 1266.7122802734375, 1.5707963705062866, 1271.248291015625);(0.0, 0.0, 0.0, 0.0, 0.0, 0.0, 0.0, 0.0);(0.0, 61.87000274658203, 0.0, 5.380000114440918, 0.0, -2.690000057220459, 10.760000228881836, 0.0)
2024/05/03/12:53:21.315412;91976;1714766001;328331792;;['BL_Position', 'BL_Wheel', 'BR_Position', 'BR_Wheel', 'FL_Position', 'FL_Wheel', 'FR_Position', 'FR_Wheel'];(1.5707963705062866, 1268.9427490234375, 1.5707963705062866, 1266.85498046875, 1.5707963705062866, 1266.7122802734375, 1.5692623853683472, 1271.248291015625);(0.0, 0.0, 0.0, 0.0, 0.0, 0.0, 0.0, 0.0);(0.0, 61.87000274658203, 0.0, 5.380000114440918, 0.0, -2.690000057220459, 5.380000114440918, 0.0)
2024/05/03/12:53:21.324106;91977;1714766001;344349717;;['BL_Position', 'BL_Wheel', 'BR_Position', 'BR_Wheel', 'FL_Position', 'FL_Wheel', 'FR_Position', 'FR_Wheel'];(1.5707963705062866, 1268.9427490234375, 1.572330355644226, 1266.85498046875, 1.5707963705062866, 1266.7122802734375, 1.5707963705062866, 1271.249755859375);(0.0, 0.0, 0.0, 0.0, 0.0, 0.0, 0.0, 0.0);(0.0, 61.87000274658203, 0.0, 5.380000114440918, 0.0, -2.690000057220459, 10.760000228881836, 0.0)
2024/05/03/12:53:21.338432;91978;1714766001;360326104;;['BL_Position', 'BL_Wheel', 'BR_Position', 'BR_Wheel', 'FL_Position', 'FL_Wheel', 'FR_Position', 'FR_Wheel'];(1.5707963705062866, 1268.9427490234375, 1.5707963705062866, 1266.85498046875, 1.5707963705062866, 1266.7122802734375, 1.5707963705062866, 1271.248291015625);(0.0, 0.0, 0.0, 0.0, 0.0, 0.0, 0.0, 0.0);(0.0, 61.87000274658203, 0.0, 5.380000114440918, 0.0, -2.690000057220459, 10.760000228881836, 0.0)
2024/05/03/12:53:21.354408;91979;1714766001;376541936;;['BL_Position', 'BL_Wheel', 'BR_Position', 'BR_Wheel', 'FL_Position', 'FL_Wheel', 'FR_Position', 'FR_Wheel'];(1.5707963705062866, 1268.9427490234375, 1.572330355644226, 1266.85498046875, 1.5707963705062866, 1266.7122802734375, 1.5692623853683472, 1271.249755859375);(0.0, 0.0, 0.0, 0.0, 0.0, 0.0, 0.0, 0.0);(0.0, 61.87000274658203, 0.0, 5.380000114440918, 0.0, -2.690000057220459, 8.069999694824219, 0.0)
2024/05/03/12:53:21.368939;91980;1714766001;392353027;;['BL_Position', 'BL_Wheel', 'BR_Position', 'BR_Wheel', 'FL_Position', 'FL_Wheel', 'FR_Position', 'FR_Wheel'];(1.5707963705062866, 1268.9427490234375, 1.572330355644226, 1266.85498046875, 1.5707963705062866, 1266.7122802734375, 1.5692623853683472, 1271.248291015625);(0.0, 0.0, 0.0, 0.0, 0.0, 0.0, 0.0, 0.0);(0.0, 61.87000274658203, 0.0, 5.380000114440918, 0.0, -2.690000057220459, 10.760000228881836, 0.0)
2024/05/03/12:53:21.391118;91981;1714766001;408350155;;['BL_Position', 'BL_Wheel', 'BR_Position', 'BR_Wheel', 'FL_Position', 'FL_Wheel', 'FR_Position', 'FR_Wheel'];(1.5707963705062866, 1268.9427490234375, 1.572330355644226, 1266.85498046875, 1.5707963705062866, 1266.7122802734375, 1.5692623853683472, 1271.249755859375);(0.0, 0.0, 0.0, 0.0, 0.0, 0.0, 0.0, 0.0);(0.0, 61.87000274658203, 0.0, 5.380000114440918, 0.0, -2.690000057220459, 10.760000228881836, 0.0)
2024/05/03/12:53:21.401427;91982;1714766001;424536579;;['BL_Position', 'BL_Wheel', 'BR_Position', 'BR_Wheel', 'FL_Position', 'FL_Wheel', 'FR_Position', 'FR_Wheel'];(1.5707963705062866, 1268.9427490234375, 1.572330355644226, 1266.85498046875, 1.5707963705062866, 1266.7122802734375, 1.5692623853683472, 1271.248291015625);(0.0, 0.0, 0.0, 0.0, 0.0, 0.0, 0.0, 0.0);(0.0, 61.87000274658203, 0.0, 5.380000114440918, 0.0, -2.690000057220459, 10.760000228881836, 0.0)
2024/05/03/12:53:21.418314;91983;1714766001;440355152;;['BL_Position', 'BL_Wheel', 'BR_Position', 'BR_Wheel', 'FL_Position', 'FL_Wheel', 'FR_Position', 'FR_Wheel'];(1.5707963705062866, 1268.9427490234375, 1.5707963705062866, 1266.85498046875, 1.5707963705062866, 1266.7122802734375, 1.5692623853683472, 1271.249755859375);(0.0, 0.0, 0.0, 0.0, 0.0, 0.0, 0.0, 0.0);(0.0, 61.87000274658203, 0.0, 5.380000114440918, 0.0, -2.690000057220459, 8.069999694824219, 0.0)
2024/05/03/12:53:21.433530;91984;1714766001;456330095;;['BL_Position', 'BL_Wheel', 'BR_Position', 'BR_Wheel', 'FL_Position', 'FL_Wheel', 'FR_Position', 'FR_Wheel'];(1.5707963705062866, 1268.9427490234375, 1.572330355644226, 1266.85498046875, 1.5707963705062866, 1266.7122802734375, 1.5692623853683472, 1271.249755859375);(0.0, 0.0, 0.0, 0.0, 0.0, 0.0, 0.0, 0.0);(0.0, 61.87000274658203, 0.0, 5.380000114440918, 0.0, -2.690000057220459, 8.069999694824219, 0.0)
2024/05/03/12:53:21.450516;91985;1714766001;472371426;;['BL_Position', 'BL_Wheel', 'BR_Position', 'BR_Wheel', 'FL_Position', 'FL_Wheel', 'FR_Position', 'FR_Wheel'];(1.5707963705062866, 1268.9427490234375, 1.572330355644226, 1266.85498046875, 1.5707963705062866, 1266.710693359375, 1.5707963705062866, 1271.249755859375);(0.0, 0.0, 0.0, 0.0, 0.0, 0.0, 0.0, 0.0);(0.0, 61.87000274658203, 0.0, 5.380000114440918, 0.0, -2.690000057220459, 10.760000228881836, 0.0)
2024/05/03/12:53:21.465903;91986;1714766001;488312721;;['BL_Position', 'BL_Wheel', 'BR_Position', 'BR_Wheel', 'FL_Position', 'FL_Wheel', 'FR_Position', 'FR_Wheel'];(1.5707963705062866, 1268.9427490234375, 1.572330355644226, 1266.85498046875, 1.5707963705062866, 1266.7122802734375, 1.5692623853683472, 1271.249755859375);(0.0, 0.0, 0.0, 0.0, 0.0, 0.0, 0.0, 0.0);(0.0, 61.87000274658203, 0.0, 5.380000114440918, 0.0, -2.690000057220459, 5.380000114440918, 0.0)
2024/05/03/12:53:21.492949;91987;1714766001;504336405;;['BL_Position', 'BL_Wheel', 'BR_Position', 'BR_Wheel', 'FL_Position', 'FL_Wheel', 'FR_Position', 'FR_Wheel'];(1.5707963705062866, 1268.9427490234375, 1.5707963705062866, 1266.85498046875, 1.5707963705062866, 1266.7122802734375, 1.5692623853683472, 1271.249755859375);(0.0, 0.0, 0.0, 0.0, 0.0, 0.0, 0.0, 0.0);(0.0, 61.87000274658203, 0.0, 5.380000114440918, 0.0, -2.690000057220459, 8.069999694824219, 0.0)
2024/05/03/12:53:21.498034;91988;1714766001;520299033;;['BL_Position', 'BL_Wheel', 'BR_Position', 'BR_Wheel', 'FL_Position', 'FL_Wheel', 'FR_Position', 'FR_Wheel'];(1.5707963705062866, 1268.9427490234375, 1.572330355644226, 1266.85498046875, 1.5707963705062866, 1266.7122802734375, 1.5692623853683472, 1271.248291015625);(0.0, 0.0, 0.0, 0.0, 0.0, 0.0, 0.0, 0.0);(0.0, 61.87000274658203, 0.0, 5.380000114440918, 0.0, -2.690000057220459, 10.760000228881836, 0.0)
2024/05/03/12:53:21.517112;91989;1714766001;536332513;;['BL_Position', 'BL_Wheel', 'BR_Position', 'BR_Wheel', 'FL_Position', 'FL_Wheel', 'FR_Position', 'FR_Wheel'];(1.5707963705062866, 1268.9427490234375, 1.572330355644226, 1266.85498046875, 1.572330355644226, 1266.7122802734375, 1.5692623853683472, 1271.248291015625);(0.0, 0.0, 0.0, 0.0, 0.0, 0.0, 0.0, 0.0);(0.0, 61.87000274658203, 0.0, 5.380000114440918, 0.0, -2.690000057220459, 8.069999694824219, 0.0)
2024/05/03/12:53:21.529835;91990;1714766001;552359770;;['BL_Position', 'BL_Wheel', 'BR_Position', 'BR_Wheel', 'FL_Position', 'FL_Wheel', 'FR_Position', 'FR_Wheel'];(1.5707963705062866, 1268.9427490234375, 1.572330355644226, 1266.85498046875, 1.5707963705062866, 1266.7122802734375, 1.5692623853683472, 1271.249755859375);(0.0, 0.0, 0.0, 0.0, 0.0, 0.0, 0.0, 0.0);(0.0, 61.87000274658203, 0.0, 5.380000114440918, 0.0, -2.690000057220459, 8.069999694824219, 0.0)
2024/05/03/12:53:21.546657;91991;1714766001;568327639;;['BL_Position', 'BL_Wheel', 'BR_Position', 'BR_Wheel', 'FL_Position', 'FL_Wheel', 'FR_Position', 'FR_Wheel'];(1.5707963705062866, 1268.9427490234375, 1.5707963705062866, 1266.85498046875, 1.5707963705062866, 1266.7122802734375, 1.5692623853683472, 1271.249755859375);(0.0, 0.0, 0.0, 0.0, 0.0, 0.0, 0.0, 0.0);(0.0, 61.87000274658203, 0.0, 5.380000114440918, 0.0, -2.690000057220459, 8.069999694824219, 0.0)
2024/05/03/12:53:21.561650;91992;1714766001;584365286;;['BL_Position', 'BL_Wheel', 'BR_Position', 'BR_Wheel', 'FL_Position', 'FL_Wheel', 'FR_Position', 'FR_Wheel'];(1.5707963705062866, 1268.9427490234375, 1.5707963705062866, 1266.85498046875, 1.5707963705062866, 1266.7122802734375, 1.5707963705062866, 1271.249755859375);(0.0, 0.0, 0.0, 0.0, 0.0, 0.0, 0.0, 0.0);(0.0, 61.87000274658203, 0.0, 5.380000114440918, 0.0, -2.690000057220459, 10.760000228881836, 0.0)
2024/05/03/12:53:21.578261;91993;1714766001;600322525;;['BL_Position', 'BL_Wheel', 'BR_Position', 'BR_Wheel', 'FL_Position', 'FL_Wheel', 'FR_Position', 'FR_Wheel'];(1.5707963705062866, 1268.9427490234375, 1.5707963705062866, 1266.85498046875, 1.572330355644226, 1266.7122802734375, 1.5692623853683472, 1271.249755859375);(0.0, 0.0, 0.0, 0.0, 0.0, 0.0, 0.0, 0.0);(0.0, 61.87000274658203, 0.0, 5.380000114440918, 0.0, -2.690000057220459, 8.069999694824219, 0.0)
2024/05/03/12:53:21.595481;91994;1714766001;616336875;;['BL_Position', 'BL_Wheel', 'BR_Position', 'BR_Wheel', 'FL_Position', 'FL_Wheel', 'FR_Position', 'FR_Wheel'];(1.5707963705062866, 1268.9427490234375, 1.572330355644226, 1266.85498046875, 1.572330355644226, 1266.7122802734375, 1.5692623853683472, 1271.249755859375);(0.0, 0.0, 0.0, 0.0, 0.0, 0.0, 0.0, 0.0);(0.0, 61.87000274658203, 0.0, 5.380000114440918, 0.0, -2.690000057220459, 8.069999694824219, 0.0)
2024/05/03/12:53:21.611756;91995;1714766001;632323262;;['BL_Position', 'BL_Wheel', 'BR_Position', 'BR_Wheel', 'FL_Position', 'FL_Wheel', 'FR_Position', 'FR_Wheel'];(1.5707963705062866, 1268.9427490234375, 1.572330355644226, 1266.85498046875, 1.5707963705062866, 1266.7122802734375, 1.5707963705062866, 1271.248291015625);(0.0, 0.0, 0.0, 0.0, 0.0, 0.0, 0.0, 0.0);(2.690000057220459, 61.87000274658203, 0.0, 5.380000114440918, 0.0, -2.690000057220459, 10.760000228881836, 0.0)
2024/05/03/12:53:21.632384;91996;1714766001;648320761;;['BL_Position', 'BL_Wheel', 'BR_Position', 'BR_Wheel', 'FL_Position', 'FL_Wheel', 'FR_Position', 'FR_Wheel'];(1.5707963705062866, 1268.9427490234375, 1.572330355644226, 1266.85498046875, 1.5707963705062866, 1266.7122802734375, 1.5692623853683472, 1271.248291015625);(0.0, 0.0, 0.0, 0.0, 0.0, 0.0, 0.0, 0.0);(0.0, 61.87000274658203, 0.0, 5.380000114440918, 0.0, -2.690000057220459, 8.069999694824219, 0.0)
2024/05/03/12:53:21.643553;91997;1714766001;666706870;;['BL_Position', 'BL_Wheel', 'BR_Position', 'BR_Wheel', 'FL_Position', 'FL_Wheel', 'FR_Position', 'FR_Wheel'];(1.5707963705062866, 1268.9427490234375, 1.572330355644226, 1266.85498046875, 1.5707963705062866, 1266.7122802734375, 1.5692623853683472, 1271.249755859375);(0.0, 0.0, 0.0, 0.0, 0.0, 0.0, 0.0, 0.0);(0.0, 61.87000274658203, 0.0, 5.380000114440918, 0.0, -2.690000057220459, 8.069999694824219, 0.0)
2024/05/03/12:53:21.658108;91998;1714766001;680395665;;['BL_Position', 'BL_Wheel', 'BR_Position', 'BR_Wheel', 'FL_Position', 'FL_Wheel', 'FR_Position', 'FR_Wheel'];(1.5707963705062866, 1268.9427490234375, 1.572330355644226, 1266.85498046875, 1.5707963705062866, 1266.710693359375, 1.5692623853683472, 1271.248291015625);(0.0, 0.0, 0.0, 0.0, 0.0, 0.0, 0.0, 0.0);(0.0, 61.87000274658203, 0.0, 5.380000114440918, 0.0, -2.690000057220459, 10.760000228881836, 0.0)
2024/05/03/12:53:21.673643;91999;1714766001;696399515;;['BL_Position', 'BL_Wheel', 'BR_Position', 'BR_Wheel', 'FL_Position', 'FL_Wheel', 'FR_Position', 'FR_Wheel'];(1.5707963705062866, 1268.9427490234375, 1.572330355644226, 1266.85498046875, 1.5707963705062866, 1266.7122802734375, 1.5692623853683472, 1271.248291015625);(0.0, 0.0, 0.0, 0.0, 0.0, 0.0, 0.0, 0.0);(0.0, 61.87000274658203, 0.0, 5.380000114440918, 0.0, -2.690000057220459, 10.760000228881836, 0.0)
2024/05/03/12:53:21.699063;92000;1714766001;712354032;;['BL_Position', 'BL_Wheel', 'BR_Position', 'BR_Wheel', 'FL_Position', 'FL_Wheel', 'FR_Position', 'FR_Wheel'];(1.5707963705062866, 1268.9427490234375, 1.572330355644226, 1266.85498046875, 1.5707963705062866, 1266.710693359375, 1.5692623853683472, 1271.248291015625);(0.0, 0.0, 0.0, 0.0, 0.0, 0.0, 0.0, 0.0);(0.0, 61.87000274658203, 0.0, 5.380000114440918, 0.0, -2.690000057220459, 8.069999694824219, 0.0)
2024/05/03/12:53:21.706607;92001;1714766001;728354660;;['BL_Position', 'BL_Wheel', 'BR_Position', 'BR_Wheel', 'FL_Position', 'FL_Wheel', 'FR_Position', 'FR_Wheel'];(1.5707963705062866, 1268.9427490234375, 1.572330355644226, 1266.85498046875, 1.5707963705062866, 1266.7122802734375, 1.5707963705062866, 1271.249755859375);(0.0, 0.0, 0.0, 0.0, 0.0, 0.0, 0.0, 0.0);(0.0, 61.87000274658203, 0.0, 5.380000114440918, 0.0, -2.690000057220459, 8.069999694824219, 0.0)
2024/05/03/12:53:21.722687;92002;1714766001;744308825;;['BL_Position', 'BL_Wheel', 'BR_Position', 'BR_Wheel', 'FL_Position', 'FL_Wheel', 'FR_Position', 'FR_Wheel'];(1.5707963705062866, 1268.9427490234375, 1.572330355644226, 1266.85498046875, 1.5707963705062866, 1266.7122802734375, 1.5692623853683472, 1271.248291015625);(0.0, 0.0, 0.0, 0.0, 0.0, 0.0, 0.0, 0.0);(0.0, 61.87000274658203, 0.0, 5.380000114440918, 0.0, -2.690000057220459, 5.380000114440918, 0.0)
2024/05/03/12:53:21.737695;92003;1714766001;760303879;;['BL_Position', 'BL_Wheel', 'BR_Position', 'BR_Wheel', 'FL_Position', 'FL_Wheel', 'FR_Position', 'FR_Wheel'];(1.5707963705062866, 1268.9427490234375, 1.572330355644226, 1266.85498046875, 1.5707963705062866, 1266.7122802734375, 1.5692623853683472, 1271.248291015625);(0.0, 0.0, 0.0, 0.0, 0.0, 0.0, 0.0, 0.0);(0.0, 61.87000274658203, 0.0, 5.380000114440918, 0.0, -2.690000057220459, 8.069999694824219, 0.0)
2024/05/03/12:53:21.754124;92004;1714766001;776360433;;['BL_Position', 'BL_Wheel', 'BR_Position', 'BR_Wheel', 'FL_Position', 'FL_Wheel', 'FR_Position', 'FR_Wheel'];(1.5707963705062866, 1268.9427490234375, 1.572330355644226, 1266.85498046875, 1.5707963705062866, 1266.7122802734375, 1.5692623853683472, 1271.249755859375);(0.0, 0.0, 0.0, 0.0, 0.0, 0.0, 0.0, 0.0);(0.0, 61.87000274658203, 0.0, 5.380000114440918, 0.0, -2.690000057220459, 10.760000228881836, 0.0)
2024/05/03/12:53:21.768328;92005;1714766001;792296969;;['BL_Position', 'BL_Wheel', 'BR_Position', 'BR_Wheel', 'FL_Position', 'FL_Wheel', 'FR_Position', 'FR_Wheel'];(1.5707963705062866, 1268.9427490234375, 1.5707963705062866, 1266.85498046875, 1.5707963705062866, 1266.7122802734375, 1.5692623853683472, 1271.248291015625);(0.0, 0.0, 0.0, 0.0, 0.0, 0.0, 0.0, 0.0);(0.0, 61.87000274658203, 0.0, 5.380000114440918, 0.0, -2.690000057220459, 5.380000114440918, 0.0)
2024/05/03/12:53:21.788219;92006;1714766001;808304893;;['BL_Position', 'BL_Wheel', 'BR_Position', 'BR_Wheel', 'FL_Position', 'FL_Wheel', 'FR_Position', 'FR_Wheel'];(1.5707963705062866, 1268.9427490234375, 1.572330355644226, 1266.85498046875, 1.5707963705062866, 1266.7122802734375, 1.5692623853683472, 1271.249755859375);(0.0, 0.0, 0.0, 0.0, 0.0, 0.0, 0.0, 0.0);(0.0, 61.87000274658203, 0.0, 5.380000114440918, 0.0, -2.690000057220459, 5.380000114440918, 0.0)
2024/05/03/12:53:21.813526;92007;1714766001;835268668;;['BL_Position', 'BL_Wheel', 'BR_Position', 'BR_Wheel', 'FL_Position', 'FL_Wheel', 'FR_Position', 'FR_Wheel'];(1.5707963705062866, 1268.9427490234375, 1.5707963705062866, 1266.85498046875, 1.5707963705062866, 1266.7122802734375, 1.5692623853683472, 1271.248291015625);(0.0, 0.0, 0.0, 0.0, 0.0, 0.0, 0.0, 0.0);(0.0, 61.87000274658203, 0.0, 5.380000114440918, 0.0, -2.690000057220459, 8.069999694824219, 0.0)
2024/05/03/12:53:21.835532;92008;1714766001;840313019;;['BL_Position', 'BL_Wheel', 'BR_Position', 'BR_Wheel', 'FL_Position', 'FL_Wheel', 'FR_Position', 'FR_Wheel'];(1.5707963705062866, 1268.9427490234375, 1.5707963705062866, 1266.85498046875, 1.5707963705062866, 1266.7122802734375, 1.5692623853683472, 1271.248291015625);(0.0, 0.0, 0.0, 0.0, 0.0, 0.0, 0.0, 0.0);(0.0, 61.87000274658203, 0.0, 5.380000114440918, 0.0, -2.690000057220459, 8.069999694824219, 0.0)
2024/05/03/12:53:21.840665;92009;1714766001;856306462;;['BL_Position', 'BL_Wheel', 'BR_Position', 'BR_Wheel', 'FL_Position', 'FL_Wheel', 'FR_Position', 'FR_Wheel'];(1.5707963705062866, 1268.9427490234375, 1.572330355644226, 1266.85498046875, 1.5707963705062866, 1266.7122802734375, 1.5707963705062866, 1271.248291015625);(0.0, 0.0, 0.0, 0.0, 0.0, 0.0, 0.0, 0.0);(0.0, 61.87000274658203, 0.0, 5.380000114440918, 0.0, -2.690000057220459, 10.760000228881836, 0.0)
2024/05/03/12:53:21.849551;92010;1714766001;872286016;;['BL_Position', 'BL_Wheel', 'BR_Position', 'BR_Wheel', 'FL_Position', 'FL_Wheel', 'FR_Position', 'FR_Wheel'];(1.5707963705062866, 1268.9427490234375, 1.572330355644226, 1266.85498046875, 1.5707963705062866, 1266.7122802734375, 1.5707963705062866, 1271.248291015625);(0.0, 0.0, 0.0, 0.0, 0.0, 0.0, 0.0, 0.0);(0.0, 61.87000274658203, 0.0, 5.380000114440918, 0.0, -2.690000057220459, 8.069999694824219, 0.0)
2024/05/03/12:53:21.867547;92011;1714766001;889075033;;['BL_Position', 'BL_Wheel', 'BR_Position', 'BR_Wheel', 'FL_Position', 'FL_Wheel', 'FR_Position', 'FR_Wheel'];(1.5707963705062866, 1268.9427490234375, 1.5707963705062866, 1266.85498046875, 1.5707963705062866, 1266.7122802734375, 1.5707963705062866, 1271.248291015625);(0.0, 0.0, 0.0, 0.0, 0.0, 0.0, 0.0, 0.0);(0.0, 61.87000274658203, 0.0, 5.380000114440918, 0.0, -2.690000057220459, 10.760000228881836, 0.0)
2024/05/03/12:53:21.882744;92012;1714766001;904327458;;['BL_Position', 'BL_Wheel', 'BR_Position', 'BR_Wheel', 'FL_Position', 'FL_Wheel', 'FR_Position', 'FR_Wheel'];(1.5707963705062866, 1268.9427490234375, 1.5707963705062866, 1266.85498046875, 1.5707963705062866, 1266.7122802734375, 1.5707963705062866, 1271.249755859375);(0.0, 0.0, 0.0, 0.0, 0.0, 0.0, 0.0, 0.0);(0.0, 61.87000274658203, 0.0, 5.380000114440918, 0.0, -2.690000057220459, 10.760000228881836, 0.0)
2024/05/03/12:53:21.903575;92013;1714766001;920353308;;['BL_Position', 'BL_Wheel', 'BR_Position', 'BR_Wheel', 'FL_Position', 'FL_Wheel', 'FR_Position', 'FR_Wheel'];(1.5707963705062866, 1268.9427490234375, 1.572330355644226, 1266.85498046875, 1.5707963705062866, 1266.7122802734375, 1.5692623853683472, 1271.248291015625);(0.0, 0.0, 0.0, 0.0, 0.0, 0.0, 0.0, 0.0);(0.0, 61.87000274658203, 0.0, 5.380000114440918, 0.0, -2.690000057220459, 8.069999694824219, 0.0)
2024/05/03/12:53:21.913068;92014;1714766001;936277306;;['BL_Position', 'BL_Wheel', 'BR_Position', 'BR_Wheel', 'FL_Position', 'FL_Wheel', 'FR_Position', 'FR_Wheel'];(1.5707963705062866, 1268.9427490234375, 1.5707963705062866, 1266.85498046875, 1.5707963705062866, 1266.7122802734375, 1.5707963705062866, 1271.248291015625);(0.0, 0.0, 0.0, 0.0, 0.0, 0.0, 0.0, 0.0);(2.690000057220459, 61.87000274658203, 0.0, 5.380000114440918, 0.0, -2.690000057220459, 10.760000228881836, 0.0)
2024/05/03/12:53:21.935415;92015;1714766001;952351657;;['BL_Position', 'BL_Wheel', 'BR_Position', 'BR_Wheel', 'FL_Position', 'FL_Wheel', 'FR_Position', 'FR_Wheel'];(1.5707963705062866, 1268.9427490234375, 1.5707963705062866, 1266.85498046875, 1.5707963705062866, 1266.7122802734375, 1.5692623853683472, 1271.248291015625);(0.0, 0.0, 0.0, 0.0, 0.0, 0.0, 0.0, 0.0);(0.0, 61.87000274658203, 0.0, 5.380000114440918, 0.0, -2.690000057220459, 8.069999694824219, 0.0)
2024/05/03/12:53:21.946585;92016;1714766001;968326303;;['BL_Position', 'BL_Wheel', 'BR_Position', 'BR_Wheel', 'FL_Position', 'FL_Wheel', 'FR_Position', 'FR_Wheel'];(1.5707963705062866, 1268.9427490234375, 1.572330355644226, 1266.85498046875, 1.5707963705062866, 1266.7122802734375, 1.5692623853683472, 1271.249755859375);(0.0, 0.0, 0.0, 0.0, 0.0, 0.0, 0.0, 0.0);(0.0, 61.87000274658203, 0.0, 5.380000114440918, 0.0, -2.690000057220459, 8.069999694824219, 0.0)
2024/05/03/12:53:21.962674;92017;1714766001;984309764;;['BL_Position', 'BL_Wheel', 'BR_Position', 'BR_Wheel', 'FL_Position', 'FL_Wheel', 'FR_Position', 'FR_Wheel'];(1.5707963705062866, 1268.9503173828125, 1.572330355644226, 1266.8626708984375, 1.5707963705062866, 1266.7169189453125, 1.5692623853683472, 1271.2528076171875);(0.0, 0.0, 0.0, 0.0, 0.0, 0.0, 0.0, 0.0);(2.690000057220459, 234.02999877929688, 0.0, 158.7100067138672, 0.0, 137.19000244140625, 10.760000228881836, 150.63999938964844)
2024/05/03/12:53:21.978202;92018;1714766002;299707;;['BL_Position', 'BL_Wheel', 'BR_Position', 'BR_Wheel', 'FL_Position', 'FL_Wheel', 'FR_Position', 'FR_Wheel'];(1.5707963705062866, 1268.973388671875, 1.5707963705062866, 1266.888671875, 1.572330355644226, 1266.7398681640625, 1.5707963705062866, 1271.27587890625);(0.0, 0.14388494193553925, 0.0, 0.16786576807498932, 0.0, 0.14388494193553925, 0.0, 0.11990412324666977);(0.0, 250.1699981689453, 0.0, 164.08999633789062, 0.0, 142.57000732421875, 8.069999694824219, 190.99000549316406)
2024/05/03/12:53:22.003417;92019;1714766002;16302465;;['BL_Position', 'BL_Wheel', 'BR_Position', 'BR_Wheel', 'FL_Position', 'FL_Wheel', 'FR_Position', 'FR_Wheel'];(1.5707963705062866, 1269.0101318359375, 1.5707963705062866, 1266.927001953125, 1.5707963705062866, 1266.77978515625, 1.5692623853683472, 1271.312744140625);(0.0, 0.5035973191261292, 0.0, 0.5515589714050293, 0.0, 0.5035973191261292, 0.0, 0.455635666847229);(0.0, 242.10000610351562, 0.0, 156.02000427246094, 0.0, 134.5, 8.069999694824219, 169.47000122070312)
2024/05/03/12:53:22.010700;92020;1714766002;32291334;;['BL_Position', 'BL_Wheel', 'BR_Position', 'BR_Wheel', 'FL_Position', 'FL_Wheel', 'FR_Position', 'FR_Wheel'];(1.5707963705062866, 1269.060791015625, 1.572330355644226, 1266.979248046875, 1.5707963705062866, 1266.83349609375, 1.5692623853683472, 1271.36181640625);(0.0, 1.0311754941940308, 0.0, 1.1031179428100586, 0.0, 1.0311754941940308, 0.0, 0.9832137823104858);(0.0, 215.20001220703125, 0.0, 129.1199951171875, 0.0, 110.29000091552734, 10.760000228881836, 131.80999755859375)
2024/05/03/12:53:22.035999;92021;1714766002;48296129;;['BL_Position', 'BL_Wheel', 'BR_Position', 'BR_Wheel', 'FL_Position', 'FL_Wheel', 'FR_Position', 'FR_Wheel'];(1.5707963705062866, 1269.1221923828125, 1.572330355644226, 1267.0421142578125, 1.5707963705062866, 1266.8994140625, 1.5692623853683472, 1271.4246826171875);(0.0, 1.774580955505371, 0.0, 1.8705042600631714, 0.0, 1.8944851160049438, 0.0, 1.7266193628311157);(0.0, 177.54000854492188, 0.0, 110.29000091552734, 0.0, 83.38999938964844, 5.380000114440918, 99.52999877929688)
2024/05/03/12:53:22.041564;92022;1714766002;64259868;;['BL_Position', 'BL_Wheel', 'BR_Position', 'BR_Wheel', 'FL_Position', 'FL_Wheel', 'FR_Position', 'FR_Wheel'];(1.5707963705062866, 1269.189697265625, 1.572330355644226, 1267.1173095703125, 1.5707963705062866, 1266.9715576171875, 1.5692623853683472, 1271.4952392578125);(0.0, 2.5419673919677734, 0.0, 2.7098331451416016, 0.0, 2.733814001083374, 0.0, 2.613909959793091);(0.0, 137.19000244140625, 0.0, 102.22000122070312, 0.0, 69.94000244140625, 10.760000228881836, 86.08000183105469)
2024/05/03/12:53:22.058403;92023;1714766002;80289996;;['BL_Position', 'BL_Wheel', 'BR_Position', 'BR_Wheel', 'FL_Position', 'FL_Wheel', 'FR_Position', 'FR_Wheel'];(1.5707963705062866, 1269.26025390625, 1.5707963705062866, 1267.1923828125, 1.5707963705062866, 1267.0482177734375, 1.5692623853683472, 1271.5718994140625);(0.0, 3.2374112606048584, 0.0, 3.4052770137786865, 0.0, 3.477219581604004, 0.0, 3.3333346843719482);(0.0, 118.36000061035156, -8.069999694824219, 88.77000427246094, 0.0, 40.35000228881836, 0.0, 45.72999954223633)
2024/05/03/12:53:22.074842;92024;1714766002;96474198;;['BL_Position', 'BL_Wheel', 'BR_Position', 'BR_Wheel', 'FL_Position', 'FL_Wheel', 'FR_Position', 'FR_Wheel'];(1.5707963705062866, 1269.3338623046875, 1.5707963705062866, 1267.267578125, 1.5707963705062866, 1267.1234130859375, 1.5692623853683472, 1271.6470947265625);(0.0, 3.7649893760681152, 0.0, 3.9328551292419434, 0.0, 4.028778553009033, 0.0, 3.8848934173583984);(0.0, 99.52999877929688, -10.760000228881836, 78.01000213623047, 0.0, 26.900001525878906, 0.0, 26.900001525878906)
2024/05/03/12:53:22.091531;92025;1714766002;112325530;;['BL_Position', 'BL_Wheel', 'BR_Position', 'BR_Wheel', 'FL_Position', 'FL_Wheel', 'FR_Position', 'FR_Wheel'];(1.5707963705062866, 1269.4090576171875, 1.5707963705062866, 1267.3472900390625, 1.572330355644226, 1267.207763671875, 1.5692623853683472, 1271.725341796875);(0.0, 4.148682594299316, 0.0, 4.3645100593566895, 0.0, 4.460433483123779, 0.0, 4.340528964996338);(0.0, 86.08000183105469, -10.760000228881836, 75.31999969482422, 0.0, 24.21000099182129, 0.0, 24.21000099182129)
2024/05/03/12:53:22.108926;92026;1714766002;128296195;;['BL_Position', 'BL_Wheel', 'BR_Position', 'BR_Wheel', 'FL_Position', 'FL_Wheel', 'FR_Position', 'FR_Wheel'];(1.5707963705062866, 1269.4810791015625, 1.5707963705062866, 1267.4271240234375, 1.5707963705062866, 1267.2874755859375, 1.5692623853683472, 1271.8035888671875);(0.0, 4.3645100593566895, 0.0, 4.604318141937256, 0.0, 4.724222183227539, 0.0, 4.604318141937256);(0.0, 78.01000213623047, -13.450000762939453, 78.01000213623047, 0.0, 24.21000099182129, 0.0, 24.21000099182129)
2024/05/03/12:53:22.120570;92027;1714766002;144272952;;['BL_Position', 'BL_Wheel', 'BR_Position', 'BR_Wheel', 'FL_Position', 'FL_Wheel', 'FR_Position', 'FR_Wheel'];(1.5707963705062866, 1269.5548095703125, 1.572330355644226, 1267.500732421875, 1.572330355644226, 1267.3642578125, 1.5692623853683472, 1271.877197265625);(0.0, 4.508395195007324, 0.0, 4.748203277587891, 0.0, 4.868107318878174, 0.0, 4.748203277587891);(0.0, 72.6300048828125, 0.0, 72.6300048828125, 0.0, 24.21000099182129, 10.760000228881836, 24.21000099182129)
