time;.header.seq;.header.stamp.secs;.header.stamp.nsecs;.header.frame_id;.name;.position;.velocity;.effort
2024/05/03/13:39:16.107017;264155;1714768756;155903307;;['BL_Position', 'BL_Wheel', 'BR_Position', 'BR_Wheel', 'FL_Position', 'FL_Wheel', 'FR_Position', 'FR_Wheel'];(0.7869321703910828, 2866.103515625, -0.7838642001152039, 2864.721435546875, -0.7869321703910828, 2864.371826171875, 0.7838642001152039, 2869.197509765625);(0.0, 0.0, 0.0, 0.0, 0.0, 0.0, 0.0, 0.0);(0.0, 32.279998779296875, -21.520000457763672, 5.380000114440918, 5.380000114440918, -2.690000057220459, 10.760000228881836, -8.069999694824219)
2024/05/03/13:39:16.116229;264156;1714768756;171836862;;['BL_Position', 'BL_Wheel', 'BR_Position', 'BR_Wheel', 'FL_Position', 'FL_Wheel', 'FR_Position', 'FR_Wheel'];(0.7853981852531433, 2866.105224609375, -0.7838642001152039, 2864.721435546875, -0.7869321703910828, 2864.371826171875, 0.7838642001152039, 2869.197509765625);(0.0, 0.0, 0.0, 0.0, 0.0, 0.0, 0.0, 0.0);(0.0, 32.279998779296875, -18.829999923706055, 5.380000114440918, 5.380000114440918, -2.690000057220459, 10.760000228881836, -8.069999694824219)
2024/05/03/13:39:16.132446;264157;1714768756;187855436;;['BL_Position', 'BL_Wheel', 'BR_Position', 'BR_Wheel', 'FL_Position', 'FL_Wheel', 'FR_Position', 'FR_Wheel'];(0.7869321703910828, 2866.105224609375, -0.7838642001152039, 2864.721435546875, -0.7869321703910828, 2864.371826171875, 0.7838642001152039, 2869.197509765625);(0.0, 0.0, 0.0, 0.0, 0.0, 0.0, 0.0, 0.0);(0.0, 32.279998779296875, -18.829999923706055, 5.380000114440918, 5.380000114440918, -2.690000057220459, 10.760000228881836, -8.069999694824219)
2024/05/03/13:39:16.149006;264158;1714768756;203856880;;['BL_Position', 'BL_Wheel', 'BR_Position', 'BR_Wheel', 'FL_Position', 'FL_Wheel', 'FR_Position', 'FR_Wheel'];(0.7869321703910828, 2866.105224609375, -0.7838642001152039, 2864.721435546875, -0.7869321703910828, 2864.3701171875, 0.7838642001152039, 2869.19921875);(0.0, 0.0, 0.0, 0.0, 0.0, 0.0, 0.0, 0.0);(0.0, 32.279998779296875, -21.520000457763672, 5.380000114440918, 0.0, -2.690000057220459, 10.760000228881836, -8.069999694824219)
2024/05/03/13:39:16.164129;264159;1714768756;219828139;;['BL_Position', 'BL_Wheel', 'BR_Position', 'BR_Wheel', 'FL_Position', 'FL_Wheel', 'FR_Position', 'FR_Wheel'];(0.7869321703910828, 2866.105224609375, -0.7838642001152039, 2864.721435546875, -0.7869321703910828, 2864.371826171875, 0.7838642001152039, 2869.197509765625);(0.0, 0.0, 0.0, 0.0, 0.0, 0.0, 0.0, 0.0);(0.0, 32.279998779296875, -21.520000457763672, 5.380000114440918, 5.380000114440918, -2.690000057220459, 10.760000228881836, -8.069999694824219)
2024/05/03/13:39:16.180759;264160;1714768756;235880101;;['BL_Position', 'BL_Wheel', 'BR_Position', 'BR_Wheel', 'FL_Position', 'FL_Wheel', 'FR_Position', 'FR_Wheel'];(0.7869321703910828, 2866.105224609375, -0.7838642001152039, 2864.721435546875, -0.7869321703910828, 2864.371826171875, 0.7838642001152039, 2869.197509765625);(0.0, 0.0, 0.0, 0.0, 0.0, 0.0, 0.0, 0.0);(0.0, 32.279998779296875, -18.829999923706055, 5.380000114440918, 2.690000057220459, -2.690000057220459, 10.760000228881836, -8.069999694824219)
2024/05/03/13:39:16.209674;264161;1714768756;254031471;;['BL_Position', 'BL_Wheel', 'BR_Position', 'BR_Wheel', 'FL_Position', 'FL_Wheel', 'FR_Position', 'FR_Wheel'];(0.7869321703910828, 2866.105224609375, -0.7838642001152039, 2864.721435546875, -0.7869321703910828, 2864.3701171875, 0.7838642001152039, 2869.197509765625);(0.0, 0.0, 0.0, 0.0, 0.0, 0.0, 0.0, 0.0);(0.0, 32.279998779296875, -18.829999923706055, 5.380000114440918, 5.380000114440918, -2.690000057220459, 10.760000228881836, -8.069999694824219)
2024/05/03/13:39:16.215325;264162;1714768756;268347212;;['BL_Position', 'BL_Wheel', 'BR_Position', 'BR_Wheel', 'FL_Position', 'FL_Wheel', 'FR_Position', 'FR_Wheel'];(0.7853981852531433, 2866.103515625, -0.7838642001152039, 2864.721435546875, -0.7869321703910828, 2864.371826171875, 0.7838642001152039, 2869.197509765625);(0.0, 0.0, 0.0, 0.0, 0.0, 0.0, 0.0, 0.0);(0.0, 32.279998779296875, -18.829999923706055, 5.380000114440918, 5.380000114440918, -2.690000057220459, 10.760000228881836, -8.069999694824219)
2024/05/03/13:39:16.229662;264163;1714768756;283942323;;['BL_Position', 'BL_Wheel', 'BR_Position', 'BR_Wheel', 'FL_Position', 'FL_Wheel', 'FR_Position', 'FR_Wheel'];(0.7869321703910828, 2866.103515625, -0.7838642001152039, 2864.721435546875, -0.7869321703910828, 2864.371826171875, 0.7838642001152039, 2869.197509765625);(0.0, 0.0, 0.0, 0.0, 0.0, 0.0, 0.0, 0.0);(0.0, 32.279998779296875, -18.829999923706055, 5.380000114440918, 5.380000114440918, -2.690000057220459, 10.760000228881836, -8.069999694824219)
2024/05/03/13:39:16.244741;264164;1714768756;300421563;;['BL_Position', 'BL_Wheel', 'BR_Position', 'BR_Wheel', 'FL_Position', 'FL_Wheel', 'FR_Position', 'FR_Wheel'];(0.7869321703910828, 2866.103515625, -0.7838642001152039, 2864.721435546875, -0.7869321703910828, 2864.371826171875, 0.7838642001152039, 2869.19921875);(0.0, 0.0, 0.0, 0.0, 0.0, 0.0, 0.0, 0.0);(0.0, 32.279998779296875, -18.829999923706055, 5.380000114440918, 0.0, -2.690000057220459, 10.760000228881836, -8.069999694824219)
2024/05/03/13:39:16.260629;264165;1714768756;315919415;;['BL_Position', 'BL_Wheel', 'BR_Position', 'BR_Wheel', 'FL_Position', 'FL_Wheel', 'FR_Position', 'FR_Wheel'];(0.7869321703910828, 2866.105224609375, -0.7838642001152039, 2864.721435546875, -0.7869321703910828, 2864.371826171875, 0.7838642001152039, 2869.197509765625);(0.0, 0.0, 0.0, 0.0, 0.0, 0.0, 0.0, 0.0);(0.0, 32.279998779296875, -18.829999923706055, 5.380000114440918, 16.139999389648438, -2.690000057220459, 10.760000228881836, -8.069999694824219)
2024/05/03/13:39:16.277127;264166;1714768756;331905618;;['BL_Position', 'BL_Wheel', 'BR_Position', 'BR_Wheel', 'FL_Position', 'FL_Wheel', 'FR_Position', 'FR_Wheel'];(0.7869321703910828, 2866.103515625, -0.7838642001152039, 2864.721435546875, -0.7869321703910828, 2864.371826171875, 0.7838642001152039, 2869.19921875);(0.0, 0.0, 0.0, 0.0, 0.0, 0.0, 0.0, 0.0);(0.0, 32.279998779296875, -21.520000457763672, 5.380000114440918, 13.450000762939453, -2.690000057220459, 10.760000228881836, -8.069999694824219)
2024/05/03/13:39:16.291664;264167;1714768756;347895803;;['BL_Position', 'BL_Wheel', 'BR_Position', 'BR_Wheel', 'FL_Position', 'FL_Wheel', 'FR_Position', 'FR_Wheel'];(0.7853981852531433, 2866.103515625, -0.7838642001152039, 2864.721435546875, -0.7869321703910828, 2864.371826171875, 0.7838642001152039, 2869.197509765625);(0.0, 0.0, 0.0, 0.0, 0.0, 0.0, 0.0, 0.0);(0.0, 32.279998779296875, -21.520000457763672, 5.380000114440918, 5.380000114440918, -2.690000057220459, 10.760000228881836, -8.069999694824219)
2024/05/03/13:39:16.312196;264168;1714768756;363945432;;['BL_Position', 'BL_Wheel', 'BR_Position', 'BR_Wheel', 'FL_Position', 'FL_Wheel', 'FR_Position', 'FR_Wheel'];(0.7869321703910828, 2866.105224609375, -0.7838642001152039, 2864.721435546875, -0.7869321703910828, 2864.371826171875, 0.7838642001152039, 2869.197509765625);(0.0, 0.0, 0.0, 0.0, 0.0, 0.0, 0.0, 0.0);(0.0, 32.279998779296875, -21.520000457763672, 5.380000114440918, 5.380000114440918, -2.690000057220459, 10.760000228881836, -8.069999694824219)
2024/05/03/13:39:16.325672;264169;1714768756;379849006;;['BL_Position', 'BL_Wheel', 'BR_Position', 'BR_Wheel', 'FL_Position', 'FL_Wheel', 'FR_Position', 'FR_Wheel'];(0.7869321703910828, 2866.103515625, -0.7838642001152039, 2864.721435546875, -0.7869321703910828, 2864.371826171875, 0.7838642001152039, 2869.197509765625);(0.0, 0.0, 0.0, 0.0, 0.0, 0.0, 0.0, 0.0);(0.0, 32.279998779296875, -18.829999923706055, 5.380000114440918, 5.380000114440918, -2.690000057220459, 10.760000228881836, -8.069999694824219)
2024/05/03/13:39:16.340285;264170;1714768756;395901746;;['BL_Position', 'BL_Wheel', 'BR_Position', 'BR_Wheel', 'FL_Position', 'FL_Wheel', 'FR_Position', 'FR_Wheel'];(0.7869321703910828, 2866.103515625, -0.7838642001152039, 2864.721435546875, -0.7869321703910828, 2864.371826171875, 0.7838642001152039, 2869.197509765625);(0.0, 0.0, 0.0, 0.0, 0.0, 0.0, 0.0, 0.0);(0.0, 32.279998779296875, -21.520000457763672, 5.380000114440918, 0.0, -2.690000057220459, 10.760000228881836, -8.069999694824219)
2024/05/03/13:39:16.356681;264171;1714768756;411892302;;['BL_Position', 'BL_Wheel', 'BR_Position', 'BR_Wheel', 'FL_Position', 'FL_Wheel', 'FR_Position', 'FR_Wheel'];(0.7869321703910828, 2866.103515625, -0.7838642001152039, 2864.721435546875, -0.7869321703910828, 2864.371826171875, 0.7838642001152039, 2869.197509765625);(0.0, 0.0, 0.0, 0.0, 0.0, 0.0, 0.0, 0.0);(0.0, 32.279998779296875, -21.520000457763672, 5.380000114440918, 0.0, -2.690000057220459, 10.760000228881836, -8.069999694824219)
2024/05/03/13:39:16.373186;264172;1714768756;427889672;;['BL_Position', 'BL_Wheel', 'BR_Position', 'BR_Wheel', 'FL_Position', 'FL_Wheel', 'FR_Position', 'FR_Wheel'];(0.7853981852531433, 2866.105224609375, -0.7838642001152039, 2864.721435546875, -0.7869321703910828, 2864.371826171875, 0.7838642001152039, 2869.197509765625);(0.0, 0.0, 0.0, 0.0, 0.0, 0.0, 0.0, 0.0);(0.0, 32.279998779296875, -21.520000457763672, 5.380000114440918, 5.380000114440918, -2.690000057220459, 10.760000228881836, -8.069999694824219)
2024/05/03/13:39:16.393832;264173;1714768756;443876634;;['BL_Position', 'BL_Wheel', 'BR_Position', 'BR_Wheel', 'FL_Position', 'FL_Wheel', 'FR_Position', 'FR_Wheel'];(0.7869321703910828, 2866.103515625, -0.7838642001152039, 2864.721435546875, -0.7869321703910828, 2864.371826171875, 0.7838642001152039, 2869.197509765625);(0.0, 0.0, 0.0, 0.0, 0.0, 0.0, 0.0, 0.0);(0.0, 32.279998779296875, -21.520000457763672, 5.380000114440918, 2.690000057220459, -2.690000057220459, 10.760000228881836, -8.069999694824219)
2024/05/03/13:39:16.414603;264174;1714768756;460943300;;['BL_Position', 'BL_Wheel', 'BR_Position', 'BR_Wheel', 'FL_Position', 'FL_Wheel', 'FR_Position', 'FR_Wheel'];(0.7869321703910828, 2866.103515625, -0.7838642001152039, 2864.721435546875, -0.7869321703910828, 2864.371826171875, 0.7838642001152039, 2869.197509765625);(0.0, 0.0, 0.0, 0.0, 0.0, 0.0, 0.0, 0.0);(0.0, 32.279998779296875, -18.829999923706055, 5.380000114440918, 0.0, -2.690000057220459, 10.760000228881836, -8.069999694824219)
2024/05/03/13:39:16.428277;264175;1714768756;475886708;;['BL_Position', 'BL_Wheel', 'BR_Position', 'BR_Wheel', 'FL_Position', 'FL_Wheel', 'FR_Position', 'FR_Wheel'];(0.7853981852531433, 2866.105224609375, -0.7838642001152039, 2864.721435546875, -0.7869321703910828, 2864.371826171875, 0.7838642001152039, 2869.197509765625);(0.0, 0.0, 0.0, 0.0, 0.0, 0.0, 0.0, 0.0);(0.0, 32.279998779296875, -18.829999923706055, 5.380000114440918, 0.0, -2.690000057220459, 10.760000228881836, -8.069999694824219)
2024/05/03/13:39:16.436912;264176;1714768756;491996559;;['BL_Position', 'BL_Wheel', 'BR_Position', 'BR_Wheel', 'FL_Position', 'FL_Wheel', 'FR_Position', 'FR_Wheel'];(0.7869321703910828, 2866.103515625, -0.7838642001152039, 2864.721435546875, -0.7869321703910828, 2864.371826171875, 0.7838642001152039, 2869.197509765625);(0.0, 0.0, 0.0, 0.0, 0.0, 0.0, 0.0, 0.0);(0.0, 32.279998779296875, -18.829999923706055, 5.380000114440918, 5.380000114440918, -2.690000057220459, 10.760000228881836, -8.069999694824219)
2024/05/03/13:39:16.452861;264177;1714768756;507868818;;['BL_Position', 'BL_Wheel', 'BR_Position', 'BR_Wheel', 'FL_Position', 'FL_Wheel', 'FR_Position', 'FR_Wheel'];(0.7869321703910828, 2866.105224609375, -0.7838642001152039, 2864.721435546875, -0.7869321703910828, 2864.371826171875, 0.7838642001152039, 2869.197509765625);(0.0, 0.0, 0.0, 0.0, 0.0, 0.0, 0.0, 0.0);(0.0, 32.279998779296875, -21.520000457763672, 5.380000114440918, 5.380000114440918, -2.690000057220459, 10.760000228881836, -8.069999694824219)
2024/05/03/13:39:16.468768;264178;1714768756;523926058;;['BL_Position', 'BL_Wheel', 'BR_Position', 'BR_Wheel', 'FL_Position', 'FL_Wheel', 'FR_Position', 'FR_Wheel'];(0.7869321703910828, 2866.105224609375, -0.7838642001152039, 2864.721435546875, -0.7869321703910828, 2864.371826171875, 0.7838642001152039, 2869.197509765625);(0.0, 0.0, 0.0, 0.0, 0.0, 0.0, 0.0, 0.0);(0.0, 32.279998779296875, -21.520000457763672, 5.380000114440918, 5.380000114440918, -2.690000057220459, 10.760000228881836, -8.069999694824219)
2024/05/03/13:39:16.496578;264179;1714768756;539839151;;['BL_Position', 'BL_Wheel', 'BR_Position', 'BR_Wheel', 'FL_Position', 'FL_Wheel', 'FR_Position', 'FR_Wheel'];(0.7853981852531433, 2866.103515625, -0.7838642001152039, 2864.721435546875, -0.7869321703910828, 2864.371826171875, 0.7838642001152039, 2869.197509765625);(0.0, 0.0, 0.0, 0.0, 0.0, 0.0, 0.0, 0.0);(0.0, 32.279998779296875, -18.829999923706055, 5.380000114440918, 2.690000057220459, -2.690000057220459, 10.760000228881836, -8.069999694824219)
2024/05/03/13:39:16.502298;264180;1714768756;555897039;;['BL_Position', 'BL_Wheel', 'BR_Position', 'BR_Wheel', 'FL_Position', 'FL_Wheel', 'FR_Position', 'FR_Wheel'];(0.7869321703910828, 2866.103515625, -0.7838642001152039, 2864.721435546875, -0.7884661555290222, 2864.3701171875, 0.7838642001152039, 2869.19921875);(0.0, 0.0, 0.0, 0.0, 0.0, 0.0, 0.0, 0.0);(0.0, 32.279998779296875, -16.139999389648438, 5.380000114440918, 5.380000114440918, -2.690000057220459, 10.760000228881836, -8.069999694824219)
2024/05/03/13:39:16.517920;264181;1714768756;571827706;;['BL_Position', 'BL_Wheel', 'BR_Position', 'BR_Wheel', 'FL_Position', 'FL_Wheel', 'FR_Position', 'FR_Wheel'];(0.7869321703910828, 2866.105224609375, -0.7838642001152039, 2864.721435546875, -0.7884661555290222, 2864.371826171875, 0.7838642001152039, 2869.197509765625);(0.0, 0.0, 0.0, 0.0, 0.0, 0.0, 0.0, 0.0);(0.0, 32.279998779296875, -18.829999923706055, 5.380000114440918, 2.690000057220459, -2.690000057220459, 10.760000228881836, -8.069999694824219)
2024/05/03/13:39:16.532604;264182;1714768756;587844594;;['BL_Position', 'BL_Wheel', 'BR_Position', 'BR_Wheel', 'FL_Position', 'FL_Wheel', 'FR_Position', 'FR_Wheel'];(0.7869321703910828, 2866.105224609375, -0.7838642001152039, 2864.721435546875, -0.7869321703910828, 2864.371826171875, 0.7838642001152039, 2869.197509765625);(0.0, 0.0, 0.0, 0.0, 0.0, 0.0, 0.0, 0.0);(0.0, 32.279998779296875, -18.829999923706055, 5.380000114440918, 0.0, -2.690000057220459, 10.760000228881836, -8.069999694824219)
2024/05/03/13:39:16.549976;264183;1714768756;604677538;;['BL_Position', 'BL_Wheel', 'BR_Position', 'BR_Wheel', 'FL_Position', 'FL_Wheel', 'FR_Position', 'FR_Wheel'];(0.7869321703910828, 2866.103515625, -0.7838642001152039, 2864.721435546875, -0.7869321703910828, 2864.371826171875, 0.7838642001152039, 2869.197509765625);(0.0, 0.0, 0.0, 0.0, 0.0, 0.0, 0.0, 0.0);(0.0, 32.279998779296875, -18.829999923706055, 5.380000114440918, 5.380000114440918, -2.690000057220459, 10.760000228881836, -8.069999694824219)
2024/05/03/13:39:16.564353;264184;1714768756;619867927;;['BL_Position', 'BL_Wheel', 'BR_Position', 'BR_Wheel', 'FL_Position', 'FL_Wheel', 'FR_Position', 'FR_Wheel'];(0.7869321703910828, 2866.105224609375, -0.7853981852531433, 2864.721435546875, -0.7869321703910828, 2864.371826171875, 0.7838642001152039, 2869.197509765625);(0.0, 0.0, 0.0, 0.0, 0.0, 0.0, 0.0, 0.0);(0.0, 32.279998779296875, -18.829999923706055, 5.380000114440918, 13.450000762939453, -2.690000057220459, 10.760000228881836, -8.069999694824219)
2024/05/03/13:39:16.580448;264185;1714768756;635826167;;['BL_Position', 'BL_Wheel', 'BR_Position', 'BR_Wheel', 'FL_Position', 'FL_Wheel', 'FR_Position', 'FR_Wheel'];(0.7869321703910828, 2866.105224609375, -0.7838642001152039, 2864.721435546875, -0.7869321703910828, 2864.371826171875, 0.7838642001152039, 2869.197509765625);(0.0, 0.0, 0.0, 0.0, 0.0, 0.0, 0.0, 0.0);(0.0, 32.279998779296875, -18.829999923706055, 5.380000114440918, 5.380000114440918, -2.690000057220459, 10.760000228881836, -8.069999694824219)
2024/05/03/13:39:16.598403;264186;1714768756;651890241;;['BL_Position', 'BL_Wheel', 'BR_Position', 'BR_Wheel', 'FL_Position', 'FL_Wheel', 'FR_Position', 'FR_Wheel'];(0.7869321703910828, 2866.103515625, -0.7838642001152039, 2864.721435546875, -0.7869321703910828, 2864.371826171875, 0.7838642001152039, 2869.197509765625);(0.0, 0.0, 0.0, 0.0, 0.0, 0.0, 0.0, 0.0);(0.0, 32.279998779296875, -18.829999923706055, 5.380000114440918, 2.690000057220459, -2.690000057220459, 10.760000228881836, -8.069999694824219)
2024/05/03/13:39:16.620705;264187;1714768756;667863667;;['BL_Position', 'BL_Wheel', 'BR_Position', 'BR_Wheel', 'FL_Position', 'FL_Wheel', 'FR_Position', 'FR_Wheel'];(0.7869321703910828, 2866.105224609375, -0.7838642001152039, 2864.721435546875, -0.7869321703910828, 2864.371826171875, 0.7838642001152039, 2869.197509765625);(0.0, 0.0, 0.0, 0.0, 0.0, 0.0, 0.0, 0.0);(0.0, 32.279998779296875, -18.829999923706055, 5.380000114440918, 13.450000762939453, -2.690000057220459, 10.760000228881836, -8.069999694824219)
2024/05/03/13:39:16.633329;264188;1714768756;683863259;;['BL_Position', 'BL_Wheel', 'BR_Position', 'BR_Wheel', 'FL_Position', 'FL_Wheel', 'FR_Position', 'FR_Wheel'];(0.7869321703910828, 2866.105224609375, -0.7838642001152039, 2864.721435546875, -0.7869321703910828, 2864.371826171875, 0.7838642001152039, 2869.197509765625);(0.0, 0.0, 0.0, 0.0, 0.0, 0.0, 0.0, 0.0);(0.0, 32.279998779296875, -18.829999923706055, 5.380000114440918, 5.380000114440918, -2.690000057220459, 10.760000228881836, -8.069999694824219)
2024/05/03/13:39:16.644765;264189;1714768756;699941462;;['BL_Position', 'BL_Wheel', 'BR_Position', 'BR_Wheel', 'FL_Position', 'FL_Wheel', 'FR_Position', 'FR_Wheel'];(0.7869321703910828, 2866.105224609375, -0.7838642001152039, 2864.721435546875, -0.7869321703910828, 2864.3701171875, 0.7838642001152039, 2869.197509765625);(0.0, 0.0, 0.0, 0.0, 0.0, 0.0, 0.0, 0.0);(0.0, 32.279998779296875, -18.829999923706055, 5.380000114440918, 8.069999694824219, -2.690000057220459, 10.760000228881836, -8.069999694824219)
2024/05/03/13:39:16.660839;264190;1714768756;715933999;;['BL_Position', 'BL_Wheel', 'BR_Position', 'BR_Wheel', 'FL_Position', 'FL_Wheel', 'FR_Position', 'FR_Wheel'];(0.7869321703910828, 2866.103515625, -0.7838642001152039, 2864.721435546875, -0.7869321703910828, 2864.371826171875, 0.7838642001152039, 2869.197509765625);(0.0, 0.0, 0.0, 0.0, 0.0, 0.0, 0.0, 0.0);(0.0, 32.279998779296875, -18.829999923706055, 5.380000114440918, 5.380000114440918, -2.690000057220459, 10.760000228881836, -8.069999694824219)
2024/05/03/13:39:16.675621;264191;1714768756;731851776;;['BL_Position', 'BL_Wheel', 'BR_Position', 'BR_Wheel', 'FL_Position', 'FL_Wheel', 'FR_Position', 'FR_Wheel'];(0.7869321703910828, 2866.105224609375, -0.7838642001152039, 2864.721435546875, -0.7869321703910828, 2864.3701171875, 0.7838642001152039, 2869.19921875);(0.0, 0.0, 0.0, 0.0, 0.0, 0.0, 0.0, 0.0);(0.0, 32.279998779296875, -18.829999923706055, 5.380000114440918, 0.0, -2.690000057220459, 10.760000228881836, -8.069999694824219)
2024/05/03/13:39:16.695905;264192;1714768756;747955295;;['BL_Position', 'BL_Wheel', 'BR_Position', 'BR_Wheel', 'FL_Position', 'FL_Wheel', 'FR_Position', 'FR_Wheel'];(0.7869321703910828, 2866.105224609375, -0.7838642001152039, 2864.721435546875, -0.7869321703910828, 2864.371826171875, 0.7838642001152039, 2869.197509765625);(0.0, 0.0, 0.0, 0.0, 0.0, 0.0, 0.0, 0.0);(0.0, 32.279998779296875, -18.829999923706055, 5.380000114440918, 0.0, -2.690000057220459, 10.760000228881836, -8.069999694824219)
2024/05/03/13:39:16.708323;264193;1714768756;763880683;;['BL_Position', 'BL_Wheel', 'BR_Position', 'BR_Wheel', 'FL_Position', 'FL_Wheel', 'FR_Position', 'FR_Wheel'];(0.7869321703910828, 2866.105224609375, -0.7838642001152039, 2864.721435546875, -0.7869321703910828, 2864.371826171875, 0.7838642001152039, 2869.197509765625);(0.0, 0.0, 0.0, 0.0, 0.0, 0.0, 0.0, 0.0);(0.0, 32.279998779296875, -18.829999923706055, 5.380000114440918, 5.380000114440918, -2.690000057220459, 10.760000228881836, -8.069999694824219)
2024/05/03/13:39:16.726802;264194;1714768756;780088498;;['BL_Position', 'BL_Wheel', 'BR_Position', 'BR_Wheel', 'FL_Position', 'FL_Wheel', 'FR_Position', 'FR_Wheel'];(0.7869321703910828, 2866.103515625, -0.7838642001152039, 2864.721435546875, -0.7869321703910828, 2864.371826171875, 0.7838642001152039, 2869.197509765625);(0.0, 0.0, 0.0, 0.0, 0.0, 0.0, 0.0, 0.0);(0.0, 32.279998779296875, -18.829999923706055, 5.380000114440918, 2.690000057220459, -2.690000057220459, 10.760000228881836, -8.069999694824219)
2024/05/03/13:39:16.742918;264195;1714768756;795882368;;['BL_Position', 'BL_Wheel', 'BR_Position', 'BR_Wheel', 'FL_Position', 'FL_Wheel', 'FR_Position', 'FR_Wheel'];(0.7869321703910828, 2866.105224609375, -0.7838642001152039, 2864.721435546875, -0.7869321703910828, 2864.371826171875, 0.7838642001152039, 2869.197509765625);(0.0, 0.0, 0.0, 0.0, 0.0, 0.0, 0.0, 0.0);(0.0, 32.279998779296875, -18.829999923706055, 5.380000114440918, 5.380000114440918, -2.690000057220459, 10.760000228881836, -8.069999694824219)
2024/05/03/13:39:16.755884;264196;1714768756;811850627;;['BL_Position', 'BL_Wheel', 'BR_Position', 'BR_Wheel', 'FL_Position', 'FL_Wheel', 'FR_Position', 'FR_Wheel'];(0.7869321703910828, 2866.103515625, -0.7838642001152039, 2864.721435546875, -0.7884661555290222, 2864.3701171875, 0.7838642001152039, 2869.197509765625);(0.0, 0.0, 0.0, 0.0, 0.0, 0.0, 0.0, 0.0);(0.0, 32.279998779296875, -18.829999923706055, 5.380000114440918, 5.380000114440918, -2.690000057220459, 10.760000228881836, -8.069999694824219)
2024/05/03/13:39:16.772814;264197;1714768756;828083960;;['BL_Position', 'BL_Wheel', 'BR_Position', 'BR_Wheel', 'FL_Position', 'FL_Wheel', 'FR_Position', 'FR_Wheel'];(0.7869321703910828, 2866.105224609375, -0.7838642001152039, 2864.721435546875, -0.7869321703910828, 2864.371826171875, 0.7838642001152039, 2869.197509765625);(0.0, 0.0, 0.0, 0.0, 0.0, 0.0, 0.0, 0.0);(0.0, 32.279998779296875, -18.829999923706055, 5.380000114440918, 5.380000114440918, -2.690000057220459, 10.760000228881836, -8.069999694824219)
2024/05/03/13:39:16.788374;264198;1714768756;843899441;;['BL_Position', 'BL_Wheel', 'BR_Position', 'BR_Wheel', 'FL_Position', 'FL_Wheel', 'FR_Position', 'FR_Wheel'];(0.7853981852531433, 2866.105224609375, -0.7838642001152039, 2864.721435546875, -0.7884661555290222, 2864.371826171875, 0.7838642001152039, 2869.197509765625);(0.0, 0.0, 0.0, 0.0, 0.0, 0.0, 0.0, 0.0);(0.0, 32.279998779296875, -18.829999923706055, 5.380000114440918, 5.380000114440918, -2.690000057220459, 10.760000228881836, -8.069999694824219)
2024/05/03/13:39:16.805401;264199;1714768756;859879848;;['BL_Position', 'BL_Wheel', 'BR_Position', 'BR_Wheel', 'FL_Position', 'FL_Wheel', 'FR_Position', 'FR_Wheel'];(0.7869321703910828, 2866.105224609375, -0.7838642001152039, 2864.721435546875, -0.7869321703910828, 2864.371826171875, 0.7838642001152039, 2869.197509765625);(0.0, 0.0, 0.0, 0.0, 0.0, 0.0, 0.0, 0.0);(0.0, 32.279998779296875, -21.520000457763672, 5.380000114440918, 2.690000057220459, -2.690000057220459, 10.760000228881836, -8.069999694824219)
2024/05/03/13:39:16.825824;264200;1714768756;875854718;;['BL_Position', 'BL_Wheel', 'BR_Position', 'BR_Wheel', 'FL_Position', 'FL_Wheel', 'FR_Position', 'FR_Wheel'];(0.7869321703910828, 2866.103515625, -0.7838642001152039, 2864.721435546875, -0.7869321703910828, 2864.371826171875, 0.7838642001152039, 2869.197509765625);(0.0, 0.0, 0.0, 0.0, 0.0, 0.0, 0.0, 0.0);(0.0, 32.279998779296875, -21.520000457763672, 5.380000114440918, 2.690000057220459, -2.690000057220459, 10.760000228881836, -8.069999694824219)
2024/05/03/13:39:16.837641;264201;1714768756;891809310;;['BL_Position', 'BL_Wheel', 'BR_Position', 'BR_Wheel', 'FL_Position', 'FL_Wheel', 'FR_Position', 'FR_Wheel'];(0.7853981852531433, 2866.105224609375, -0.7838642001152039, 2864.721435546875, -0.7869321703910828, 2864.371826171875, 0.7838642001152039, 2869.197509765625);(0.0, 0.0, 0.0, 0.0, 0.0, 0.0, 0.0, 0.0);(0.0, 32.279998779296875, -21.520000457763672, 5.380000114440918, 0.0, -2.690000057220459, 10.760000228881836, -8.069999694824219)
2024/05/03/13:39:16.852754;264202;1714768756;907878791;;['BL_Position', 'BL_Wheel', 'BR_Position', 'BR_Wheel', 'FL_Position', 'FL_Wheel', 'FR_Position', 'FR_Wheel'];(0.7869321703910828, 2866.103515625, -0.7838642001152039, 2864.721435546875, -0.7869321703910828, 2864.371826171875, 0.7838642001152039, 2869.197509765625);(0.0, 0.0, 0.0, 0.0, 0.0, 0.0, 0.0, 0.0);(0.0, 32.279998779296875, -18.829999923706055, 5.380000114440918, 5.380000114440918, -2.690000057220459, 10.760000228881836, -8.069999694824219)
2024/05/03/13:39:16.868677;264203;1714768756;924299346;;['BL_Position', 'BL_Wheel', 'BR_Position', 'BR_Wheel', 'FL_Position', 'FL_Wheel', 'FR_Position', 'FR_Wheel'];(0.7869321703910828, 2866.105224609375, -0.7838642001152039, 2864.721435546875, -0.7869321703910828, 2864.371826171875, 0.7838642001152039, 2869.197509765625);(0.0, 0.0, 0.0, 0.0, 0.0, 0.0, 0.0, 0.0);(0.0, 32.279998779296875, -18.829999923706055, 5.380000114440918, 0.0, -2.690000057220459, 10.760000228881836, -8.069999694824219)
2024/05/03/13:39:16.884741;264204;1714768756;939923605;;['BL_Position', 'BL_Wheel', 'BR_Position', 'BR_Wheel', 'FL_Position', 'FL_Wheel', 'FR_Position', 'FR_Wheel'];(0.7869321703910828, 2866.105224609375, -0.7838642001152039, 2864.721435546875, -0.7869321703910828, 2864.371826171875, 0.7838642001152039, 2869.197509765625);(0.0, 0.0, 0.0, 0.0, 0.0, 0.0, 0.0, 0.0);(0.0, 32.279998779296875, -18.829999923706055, 5.380000114440918, 5.380000114440918, -2.690000057220459, 10.760000228881836, -8.069999694824219)
2024/05/03/13:39:16.905951;264205;1714768756;955877438;;['BL_Position', 'BL_Wheel', 'BR_Position', 'BR_Wheel', 'FL_Position', 'FL_Wheel', 'FR_Position', 'FR_Wheel'];(0.7869321703910828, 2866.103515625, -0.7838642001152039, 2864.721435546875, -0.7869321703910828, 2864.371826171875, 0.7838642001152039, 2869.197509765625);(0.0, 0.0, 0.0, 0.0, 0.0, 0.0, 0.0, 0.0);(0.0, 32.279998779296875, -18.829999923706055, 5.380000114440918, 5.380000114440918, -2.690000057220459, 10.760000228881836, -8.069999694824219)
2024/05/03/13:39:16.928416;264206;1714768756;971899123;;['BL_Position', 'BL_Wheel', 'BR_Position', 'BR_Wheel', 'FL_Position', 'FL_Wheel', 'FR_Position', 'FR_Wheel'];(0.7869321703910828, 2866.105224609375, -0.7838642001152039, 2864.721435546875, -0.7869321703910828, 2864.371826171875, 0.7838642001152039, 2869.197509765625);(0.0, 0.0, 0.0, 0.0, 0.0, 0.0, 0.0, 0.0);(0.0, 32.279998779296875, -16.139999389648438, 5.380000114440918, 2.690000057220459, -2.690000057220459, 10.760000228881836, -8.069999694824219)
2024/05/03/13:39:16.941345;264207;1714768756;987879716;;['BL_Position', 'BL_Wheel', 'BR_Position', 'BR_Wheel', 'FL_Position', 'FL_Wheel', 'FR_Position', 'FR_Wheel'];(0.7869321703910828, 2866.105224609375, -0.7838642001152039, 2864.721435546875, -0.7869321703910828, 2864.371826171875, 0.7838642001152039, 2869.197509765625);(0.0, 0.0, 0.0, 0.0, 0.0, 0.0, 0.0, 0.0);(0.0, 32.279998779296875, -18.829999923706055, 5.380000114440918, 5.380000114440918, -2.690000057220459, 10.760000228881836, -8.069999694824219)
2024/05/03/13:39:16.948534;264208;1714768757;3890789;;['BL_Position', 'BL_Wheel', 'BR_Position', 'BR_Wheel', 'FL_Position', 'FL_Wheel', 'FR_Position', 'FR_Wheel'];(0.7869321703910828, 2866.105224609375, -0.7838642001152039, 2864.721435546875, -0.7869321703910828, 2864.371826171875, 0.7838642001152039, 2869.197509765625);(0.0, 0.0, 0.0, 0.0, 0.0, 0.0, 0.0, 0.0);(0.0, 32.279998779296875, -18.829999923706055, 5.380000114440918, 5.380000114440918, -2.690000057220459, 10.760000228881836, -8.069999694824219)
2024/05/03/13:39:16.964228;264209;1714768757;19836511;;['BL_Position', 'BL_Wheel', 'BR_Position', 'BR_Wheel', 'FL_Position', 'FL_Wheel', 'FR_Position', 'FR_Wheel'];(0.7869321703910828, 2866.105224609375, -0.7838642001152039, 2864.721435546875, -0.7869321703910828, 2864.371826171875, 0.7838642001152039, 2869.197509765625);(0.0, 0.0, 0.0, 0.0, 0.0, 0.0, 0.0, 0.0);(0.0, 32.279998779296875, -18.829999923706055, 5.380000114440918, 8.069999694824219, -2.690000057220459, 16.139999389648438, -8.069999694824219)
2024/05/03/13:39:16.981033;264210;1714768757;35824085;;['BL_Position', 'BL_Wheel', 'BR_Position', 'BR_Wheel', 'FL_Position', 'FL_Wheel', 'FR_Position', 'FR_Wheel'];(0.7869321703910828, 2866.103515625, -0.7838642001152039, 2864.721435546875, -0.7869321703910828, 2864.371826171875, 0.7838642001152039, 2869.197509765625);(0.0, 0.0, 0.0, 0.0, 0.0, 0.0, 0.0, 0.0);(0.0, 32.279998779296875, -18.829999923706055, 5.380000114440918, 0.0, -2.690000057220459, 13.450000762939453, -8.069999694824219)
2024/05/03/13:39:17.009506;264211;1714768757;51977399;;['BL_Position', 'BL_Wheel', 'BR_Position', 'BR_Wheel', 'FL_Position', 'FL_Wheel', 'FR_Position', 'FR_Wheel'];(0.7869321703910828, 2866.105224609375, -0.7838642001152039, 2864.721435546875, -0.7869321703910828, 2864.371826171875, 0.7838642001152039, 2869.197509765625);(0.0, 0.0, 0.0, 0.0, 0.0, 0.0, 0.0, 0.0);(0.0, 32.279998779296875, -18.829999923706055, 5.380000114440918, 5.380000114440918, -2.690000057220459, 13.450000762939453, -8.069999694824219)
2024/05/03/13:39:17.014355;264212;1714768757;67783992;;['BL_Position', 'BL_Wheel', 'BR_Position', 'BR_Wheel', 'FL_Position', 'FL_Wheel', 'FR_Position', 'FR_Wheel'];(0.7869321703910828, 2866.105224609375, -0.7838642001152039, 2864.721435546875, -0.7869321703910828, 2864.371826171875, 0.7838642001152039, 2869.197509765625);(0.0, 0.0, 0.0, 0.0, 0.0, 0.0, 0.0, 0.0);(0.0, 32.279998779296875, -18.829999923706055, 5.380000114440918, 5.380000114440918, -2.690000057220459, 13.450000762939453, -8.069999694824219)
2024/05/03/13:39:17.033557;264213;1714768757;83799769;;['BL_Position', 'BL_Wheel', 'BR_Position', 'BR_Wheel', 'FL_Position', 'FL_Wheel', 'FR_Position', 'FR_Wheel'];(0.7853981852531433, 2866.103515625, -0.7838642001152039, 2864.721435546875, -0.7869321703910828, 2864.371826171875, 0.7838642001152039, 2869.197509765625);(0.0, 0.0, 0.0, 0.0, 0.0, 0.0, 0.0, 0.0);(0.0, 32.279998779296875, -18.829999923706055, 5.380000114440918, 5.380000114440918, -2.690000057220459, 13.450000762939453, -8.069999694824219)
2024/05/03/13:39:17.044792;264214;1714768757;99833102;;['BL_Position', 'BL_Wheel', 'BR_Position', 'BR_Wheel', 'FL_Position', 'FL_Wheel', 'FR_Position', 'FR_Wheel'];(0.7869321703910828, 2866.103515625, -0.7838642001152039, 2864.721435546875, -0.7869321703910828, 2864.371826171875, 0.7838642001152039, 2869.197509765625);(0.0, 0.0, 0.0, 0.0, 0.0, 0.0, 0.0, 0.0);(0.0, 32.279998779296875, -18.829999923706055, 5.380000114440918, 5.380000114440918, -2.690000057220459, 13.450000762939453, -8.069999694824219)
2024/05/03/13:39:17.060394;264215;1714768757;115908268;;['BL_Position', 'BL_Wheel', 'BR_Position', 'BR_Wheel', 'FL_Position', 'FL_Wheel', 'FR_Position', 'FR_Wheel'];(0.7853981852531433, 2866.105224609375, -0.7838642001152039, 2864.721435546875, -0.7869321703910828, 2864.371826171875, 0.7838642001152039, 2869.197509765625);(0.0, 0.0, 0.0, 0.0, 0.0, 0.0, 0.0, 0.0);(0.0, 32.279998779296875, -18.829999923706055, 5.380000114440918, 13.450000762939453, -2.690000057220459, 13.450000762939453, -8.069999694824219)
2024/05/03/13:39:17.077112;264216;1714768757;131865972;;['BL_Position', 'BL_Wheel', 'BR_Position', 'BR_Wheel', 'FL_Position', 'FL_Wheel', 'FR_Position', 'FR_Wheel'];(0.7869321703910828, 2866.103515625, -0.7838642001152039, 2864.721435546875, -0.7869321703910828, 2864.371826171875, 0.7838642001152039, 2869.197509765625);(0.0, 0.0, 0.0, 0.0, 0.0, 0.0, 0.0, 0.0);(0.0, 32.279998779296875, -18.829999923706055, 5.380000114440918, 5.380000114440918, -2.690000057220459, 13.450000762939453, -8.069999694824219)
2024/05/03/13:39:17.092732;264217;1714768757;147856157;;['BL_Position', 'BL_Wheel', 'BR_Position', 'BR_Wheel', 'FL_Position', 'FL_Wheel', 'FR_Position', 'FR_Wheel'];(0.7869321703910828, 2866.103515625, -0.7838642001152039, 2864.721435546875, -0.7869321703910828, 2864.371826171875, 0.7838642001152039, 2869.197509765625);(0.0, 0.0, 0.0, 0.0, 0.0, 0.0, 0.0, 0.0);(0.0, 32.279998779296875, -18.829999923706055, 5.380000114440918, 5.380000114440918, -2.690000057220459, 13.450000762939453, -8.069999694824219)
2024/05/03/13:39:17.110570;264218;1714768757;164369175;;['BL_Position', 'BL_Wheel', 'BR_Position', 'BR_Wheel', 'FL_Position', 'FL_Wheel', 'FR_Position', 'FR_Wheel'];(0.7869321703910828, 2866.103515625, -0.7838642001152039, 2864.721435546875, -0.7869321703910828, 2864.371826171875, 0.7838642001152039, 2869.197509765625);(0.0, 0.0, 0.0, 0.0, 0.0, 0.0, 0.0, 0.0);(0.0, 32.279998779296875, -18.829999923706055, 5.380000114440918, 2.690000057220459, -2.690000057220459, 13.450000762939453, -8.069999694824219)
2024/05/03/13:39:17.132373;264219;1714768757;179869860;;['BL_Position', 'BL_Wheel', 'BR_Position', 'BR_Wheel', 'FL_Position', 'FL_Wheel', 'FR_Position', 'FR_Wheel'];(0.7869321703910828, 2866.103515625, -0.7838642001152039, 2864.721435546875, -0.7884661555290222, 2864.371826171875, 0.7838642001152039, 2869.197509765625);(0.0, 0.0, 0.0, 0.0, 0.0, 0.0, 0.0, 0.0);(0.0, 32.279998779296875, -18.829999923706055, 5.380000114440918, 5.380000114440918, -2.690000057220459, 13.450000762939453, -8.069999694824219)
2024/05/03/13:39:17.141738;264220;1714768757;196934415;;['BL_Position', 'BL_Wheel', 'BR_Position', 'BR_Wheel', 'FL_Position', 'FL_Wheel', 'FR_Position', 'FR_Wheel'];(0.7853981852531433, 2866.105224609375, -0.7838642001152039, 2864.721435546875, -0.7869321703910828, 2864.371826171875, 0.7838642001152039, 2869.197509765625);(0.0, 0.0, 0.0, 0.0, 0.0, 0.0, 0.0, 0.0);(0.0, 32.279998779296875, -18.829999923706055, 5.380000114440918, 13.450000762939453, -2.690000057220459, 13.450000762939453, -8.069999694824219)
2024/05/03/13:39:17.156143;264221;1714768757;211834396;;['BL_Position', 'BL_Wheel', 'BR_Position', 'BR_Wheel', 'FL_Position', 'FL_Wheel', 'FR_Position', 'FR_Wheel'];(0.7869321703910828, 2866.105224609375, -0.7838642001152039, 2864.721435546875, -0.7869321703910828, 2864.371826171875, 0.7838642001152039, 2869.197509765625);(0.0, 0.0, 0.0, 0.0, 0.0, 0.0, 0.0, 0.0);(0.0, 32.279998779296875, -18.829999923706055, 5.380000114440918, 0.0, -2.690000057220459, 13.450000762939453, -8.069999694824219)
2024/05/03/13:39:17.172256;264222;1714768757;227820599;;['BL_Position', 'BL_Wheel', 'BR_Position', 'BR_Wheel', 'FL_Position', 'FL_Wheel', 'FR_Position', 'FR_Wheel'];(0.7869321703910828, 2866.103515625, -0.7838642001152039, 2864.721435546875, -0.7869321703910828, 2864.371826171875, 0.7838642001152039, 2869.197509765625);(0.0, 0.0, 0.0, 0.0, 0.0, 0.0, 0.0, 0.0);(0.0, 32.279998779296875, -18.829999923706055, 5.380000114440918, 2.690000057220459, -2.690000057220459, 13.450000762939453, -8.069999694824219)
2024/05/03/13:39:17.188742;264223;1714768757;243862395;;['BL_Position', 'BL_Wheel', 'BR_Position', 'BR_Wheel', 'FL_Position', 'FL_Wheel', 'FR_Position', 'FR_Wheel'];(0.7869321703910828, 2866.105224609375, -0.7838642001152039, 2864.721435546875, -0.7869321703910828, 2864.371826171875, 0.7838642001152039, 2869.197509765625);(0.0, 0.0, 0.0, 0.0, 0.0, 0.0, 0.0, 0.0);(0.0, 32.279998779296875, -18.829999923706055, 5.380000114440918, 5.380000114440918, -2.690000057220459, 13.450000762939453, -8.069999694824219)
2024/05/03/13:39:17.213408;264224;1714768757;259883321;;['BL_Position', 'BL_Wheel', 'BR_Position', 'BR_Wheel', 'FL_Position', 'FL_Wheel', 'FR_Position', 'FR_Wheel'];(0.7869321703910828, 2866.103515625, -0.7838642001152039, 2864.721435546875, -0.7869321703910828, 2864.371826171875, 0.7838642001152039, 2869.197509765625);(0.0, 0.0, 0.0, 0.0, 0.0, 0.0, 0.0, 0.0);(0.0, 32.279998779296875, -18.829999923706055, 5.380000114440918, 5.380000114440918, -2.690000057220459, 13.450000762939453, -8.069999694824219)
2024/05/03/13:39:17.220411;264225;1714768757;275883561;;['BL_Position', 'BL_Wheel', 'BR_Position', 'BR_Wheel', 'FL_Position', 'FL_Wheel', 'FR_Position', 'FR_Wheel'];(0.7869321703910828, 2866.103515625, -0.7838642001152039, 2864.721435546875, -0.7869321703910828, 2864.3701171875, 0.7838642001152039, 2869.197509765625);(0.0, 0.0, 0.0, 0.0, 0.0, 0.0, 0.0, 0.0);(0.0, 32.279998779296875, -18.829999923706055, 5.380000114440918, 8.069999694824219, -2.690000057220459, 10.760000228881836, -8.069999694824219)
2024/05/03/13:39:17.243970;264226;1714768757;291856580;;['BL_Position', 'BL_Wheel', 'BR_Position', 'BR_Wheel', 'FL_Position', 'FL_Wheel', 'FR_Position', 'FR_Wheel'];(0.7869321703910828, 2866.103515625, -0.7838642001152039, 2864.721435546875, -0.7869321703910828, 2864.3701171875, 0.7838642001152039, 2869.197509765625);(0.0, 0.0, 0.0, 0.0, 0.0, 0.0, 0.0, 0.0);(0.0, 32.279998779296875, -18.829999923706055, 5.380000114440918, 2.690000057220459, -2.690000057220459, 10.760000228881836, -8.069999694824219)
2024/05/03/13:39:17.254106;264227;1714768757;307869302;;['BL_Position', 'BL_Wheel', 'BR_Position', 'BR_Wheel', 'FL_Position', 'FL_Wheel', 'FR_Position', 'FR_Wheel'];(0.7869321703910828, 2866.103515625, -0.7838642001152039, 2864.721435546875, -0.7869321703910828, 2864.371826171875, 0.7838642001152039, 2869.197509765625);(0.0, 0.0, 0.0, 0.0, 0.0, 0.0, 0.0, 0.0);(0.0, 32.279998779296875, -18.829999923706055, 5.380000114440918, 2.690000057220459, -2.690000057220459, 10.760000228881836, -8.069999694824219)
2024/05/03/13:39:17.267261;264228;1714768757;323897894;;['BL_Position', 'BL_Wheel', 'BR_Position', 'BR_Wheel', 'FL_Position', 'FL_Wheel', 'FR_Position', 'FR_Wheel'];(0.7869321703910828, 2866.105224609375, -0.7838642001152039, 2864.721435546875, -0.7884661555290222, 2864.371826171875, 0.7838642001152039, 2869.197509765625);(0.0, 0.0, 0.0, 0.0, 0.0, 0.0, 0.0, 0.0);(0.0, 32.279998779296875, -18.829999923706055, 5.380000114440918, 8.069999694824219, -2.690000057220459, 10.760000228881836, -8.069999694824219)
2024/05/03/13:39:17.285045;264229;1714768757;340410930;;['BL_Position', 'BL_Wheel', 'BR_Position', 'BR_Wheel', 'FL_Position', 'FL_Wheel', 'FR_Position', 'FR_Wheel'];(0.7869321703910828, 2866.103515625, -0.7838642001152039, 2864.721435546875, -0.7884661555290222, 2864.371826171875, 0.7838642001152039, 2869.197509765625);(0.0, 0.0, 0.0, 0.0, 0.0, 0.0, 0.0, 0.0);(0.0, 32.279998779296875, -18.829999923706055, 5.380000114440918, 5.380000114440918, -2.690000057220459, 10.760000228881836, -8.069999694824219)
2024/05/03/13:39:17.298804;264230;1714768757;355893245;;['BL_Position', 'BL_Wheel', 'BR_Position', 'BR_Wheel', 'FL_Position', 'FL_Wheel', 'FR_Position', 'FR_Wheel'];(0.7869321703910828, 2866.105224609375, -0.7838642001152039, 2864.721435546875, -0.7869321703910828, 2864.371826171875, 0.7838642001152039, 2869.197509765625);(0.0, 0.0, 0.0, 0.0, 0.0, 0.0, 0.0, 0.0);(0.0, 32.279998779296875, -18.829999923706055, 5.380000114440918, 5.380000114440918, -2.690000057220459, 10.760000228881836, -8.069999694824219)
2024/05/03/13:39:17.316344;264231;1714768757;371955504;;['BL_Position', 'BL_Wheel', 'BR_Position', 'BR_Wheel', 'FL_Position', 'FL_Wheel', 'FR_Position', 'FR_Wheel'];(0.7869321703910828, 2866.105224609375, -0.7838642001152039, 2864.721435546875, -0.7869321703910828, 2864.371826171875, 0.7838642001152039, 2869.197509765625);(0.0, 0.0, 0.0, 0.0, 0.0, 0.0, 0.0, 0.0);(0.0, 32.279998779296875, -21.520000457763672, 5.380000114440918, 5.380000114440918, -2.690000057220459, 10.760000228881836, -8.069999694824219)
2024/05/03/13:39:17.336669;264232;1714768757;387859485;;['BL_Position', 'BL_Wheel', 'BR_Position', 'BR_Wheel', 'FL_Position', 'FL_Wheel', 'FR_Position', 'FR_Wheel'];(0.7869321703910828, 2866.105224609375, -0.7838642001152039, 2864.721435546875, -0.7869321703910828, 2864.371826171875, 0.7838642001152039, 2869.197509765625);(0.0, 0.0, 0.0, 0.0, 0.0, 0.0, 0.0, 0.0);(0.0, 32.279998779296875, -18.829999923706055, 5.380000114440918, 5.380000114440918, -2.690000057220459, 10.760000228881836, -8.069999694824219)
2024/05/03/13:39:17.349888;264233;1714768757;404415725;;['BL_Position', 'BL_Wheel', 'BR_Position', 'BR_Wheel', 'FL_Position', 'FL_Wheel', 'FR_Position', 'FR_Wheel'];(0.7869321703910828, 2866.103515625, -0.7838642001152039, 2864.721435546875, -0.7869321703910828, 2864.3701171875, 0.7838642001152039, 2869.197509765625);(0.0, 0.0, 0.0, 0.0, 0.0, 0.0, 0.0, 0.0);(0.0, 32.279998779296875, -18.829999923706055, 5.380000114440918, 2.690000057220459, -2.690000057220459, 10.760000228881836, -8.069999694824219)
2024/05/03/13:39:17.364312;264234;1714768757;419814892;;['BL_Position', 'BL_Wheel', 'BR_Position', 'BR_Wheel', 'FL_Position', 'FL_Wheel', 'FR_Position', 'FR_Wheel'];(0.7869321703910828, 2866.105224609375, -0.7838642001152039, 2864.721435546875, -0.7869321703910828, 2864.371826171875, 0.7838642001152039, 2869.197509765625);(0.0, 0.0, 0.0, 0.0, 0.0, 0.0, 0.0, 0.0);(0.0, 32.279998779296875, -18.829999923706055, 5.380000114440918, 8.069999694824219, -2.690000057220459, 10.760000228881836, -8.069999694824219)
2024/05/03/13:39:17.380370;264235;1714768757;435907058;;['BL_Position', 'BL_Wheel', 'BR_Position', 'BR_Wheel', 'FL_Position', 'FL_Wheel', 'FR_Position', 'FR_Wheel'];(0.7869321703910828, 2866.103515625, -0.7838642001152039, 2864.721435546875, -0.7884661555290222, 2864.371826171875, 0.7838642001152039, 2869.197509765625);(0.0, 0.0, 0.0, 0.0, 0.0, 0.0, 0.0, 0.0);(0.0, 32.279998779296875, -18.829999923706055, 5.380000114440918, 5.380000114440918, -2.690000057220459, 10.760000228881836, -8.069999694824219)
2024/05/03/13:39:17.401351;264236;1714768757;456362743;;['BL_Position', 'BL_Wheel', 'BR_Position', 'BR_Wheel', 'FL_Position', 'FL_Wheel', 'FR_Position', 'FR_Wheel'];(0.7869321703910828, 2866.105224609375, -0.7838642001152039, 2864.721435546875, -0.7869321703910828, 2864.371826171875, 0.7838642001152039, 2869.197509765625);(0.0, 0.0, 0.0, 0.0, 0.0, 0.0, 0.0, 0.0);(0.0, 32.279998779296875, -21.520000457763672, 5.380000114440918, 5.380000114440918, -2.690000057220459, 10.760000228881836, -8.069999694824219)
2024/05/03/13:39:17.418044;264237;1714768757;468223946;;['BL_Position', 'BL_Wheel', 'BR_Position', 'BR_Wheel', 'FL_Position', 'FL_Wheel', 'FR_Position', 'FR_Wheel'];(0.7869321703910828, 2866.105224609375, -0.7838642001152039, 2864.721435546875, -0.7869321703910828, 2864.371826171875, 0.7838642001152039, 2869.197509765625);(0.0, 0.0, 0.0, 0.0, 0.0, 0.0, 0.0, 0.0);(0.0, 32.279998779296875, -18.829999923706055, 5.380000114440918, 5.380000114440918, -2.690000057220459, 10.760000228881836, -8.069999694824219)
2024/05/03/13:39:17.441966;264238;1714768757;483830742;;['BL_Position', 'BL_Wheel', 'BR_Position', 'BR_Wheel', 'FL_Position', 'FL_Wheel', 'FR_Position', 'FR_Wheel'];(0.7869321703910828, 2866.105224609375, -0.7853981852531433, 2864.721435546875, -0.7869321703910828, 2864.371826171875, 0.7838642001152039, 2869.197509765625);(0.0, 0.0, 0.0, 0.0, 0.0, 0.0, 0.0, 0.0);(0.0, 32.279998779296875, -18.829999923706055, 5.380000114440918, 0.0, -2.690000057220459, 10.760000228881836, -8.069999694824219)
2024/05/03/13:39:17.453313;264239;1714768757;500592872;;['BL_Position', 'BL_Wheel', 'BR_Position', 'BR_Wheel', 'FL_Position', 'FL_Wheel', 'FR_Position', 'FR_Wheel'];(0.7869321703910828, 2866.105224609375, -0.7838642001152039, 2864.721435546875, -0.7869321703910828, 2864.371826171875, 0.7838642001152039, 2869.197509765625);(0.0, 0.0, 0.0, 0.0, 0.0, 0.0, 0.0, 0.0);(0.0, 32.279998779296875, -18.829999923706055, 5.380000114440918, 5.380000114440918, -2.690000057220459, 10.760000228881836, -8.069999694824219)
2024/05/03/13:39:17.461792;264240;1714768757;515952056;;['BL_Position', 'BL_Wheel', 'BR_Position', 'BR_Wheel', 'FL_Position', 'FL_Wheel', 'FR_Position', 'FR_Wheel'];(0.7869321703910828, 2866.105224609375, -0.7838642001152039, 2864.721435546875, -0.7869321703910828, 2864.371826171875, 0.7838642001152039, 2869.197509765625);(0.0, 0.0, 0.0, 0.0, 0.0, 0.0, 0.0, 0.0);(0.0, 32.279998779296875, -18.829999923706055, 5.380000114440918, 2.690000057220459, -2.690000057220459, 10.760000228881836, -8.069999694824219)
2024/05/03/13:39:17.476863;264241;1714768757;531832445;;['BL_Position', 'BL_Wheel', 'BR_Position', 'BR_Wheel', 'FL_Position', 'FL_Wheel', 'FR_Position', 'FR_Wheel'];(0.7869321703910828, 2866.105224609375, -0.7838642001152039, 2864.721435546875, -0.7869321703910828, 2864.371826171875, 0.7838642001152039, 2869.197509765625);(0.0, 0.0, 0.0, 0.0, 0.0, 0.0, 0.0, 0.0);(0.0, 32.279998779296875, -18.829999923706055, 5.380000114440918, 5.380000114440918, -2.690000057220459, 10.760000228881836, -8.069999694824219)
2024/05/03/13:39:17.492352;264242;1714768757;547845463;;['BL_Position', 'BL_Wheel', 'BR_Position', 'BR_Wheel', 'FL_Position', 'FL_Wheel', 'FR_Position', 'FR_Wheel'];(0.7869321703910828, 2866.105224609375, -0.7838642001152039, 2864.721435546875, -0.7869321703910828, 2864.371826171875, 0.7838642001152039, 2869.197509765625);(0.0, 0.0, 0.0, 0.0, 0.0, 0.0, 0.0, 0.0);(0.0, 32.279998779296875, -18.829999923706055, 5.380000114440918, 5.380000114440918, -2.690000057220459, 10.760000228881836, -8.069999694824219)
2024/05/03/13:39:17.520837;264243;1714768757;563850685;;['BL_Position', 'BL_Wheel', 'BR_Position', 'BR_Wheel', 'FL_Position', 'FL_Wheel', 'FR_Position', 'FR_Wheel'];(0.7869321703910828, 2866.103515625, -0.7838642001152039, 2864.721435546875, -0.7869321703910828, 2864.371826171875, 0.7838642001152039, 2869.197509765625);(0.0, 0.0, 0.0, 0.0, 0.0, 0.0, 0.0, 0.0);(0.0, 32.279998779296875, -18.829999923706055, 5.380000114440918, 8.069999694824219, -2.690000057220459, 10.760000228881836, -8.069999694824219)
2024/05/03/13:39:17.525616;264244;1714768757;579846685;;['BL_Position', 'BL_Wheel', 'BR_Position', 'BR_Wheel', 'FL_Position', 'FL_Wheel', 'FR_Position', 'FR_Wheel'];(0.7869321703910828, 2866.103515625, -0.7838642001152039, 2864.721435546875, -0.7869321703910828, 2864.371826171875, 0.7838642001152039, 2869.197509765625);(0.0, 0.0, 0.0, 0.0, 0.0, 0.0, 0.0, 0.0);(0.0, 32.279998779296875, -18.829999923706055, 5.380000114440918, 5.380000114440918, -2.690000057220459, 10.760000228881836, -8.069999694824219)
2024/05/03/13:39:17.542769;264245;1714768757;595836962;;['BL_Position', 'BL_Wheel', 'BR_Position', 'BR_Wheel', 'FL_Position', 'FL_Wheel', 'FR_Position', 'FR_Wheel'];(0.7869321703910828, 2866.103515625, -0.7838642001152039, 2864.721435546875, -0.7869321703910828, 2864.371826171875, 0.7838642001152039, 2869.197509765625);(0.0, 0.0, 0.0, 0.0, 0.0, 0.0, 0.0, 0.0);(0.0, 32.279998779296875, -18.829999923706055, 5.380000114440918, 5.380000114440918, -2.690000057220459, 10.760000228881836, -8.069999694824219)
2024/05/03/13:39:17.556918;264246;1714768757;611874721;;['BL_Position', 'BL_Wheel', 'BR_Position', 'BR_Wheel', 'FL_Position', 'FL_Wheel', 'FR_Position', 'FR_Wheel'];(0.7869321703910828, 2866.103515625, -0.7838642001152039, 2864.721435546875, -0.7869321703910828, 2864.371826171875, 0.7838642001152039, 2869.197509765625);(0.0, 0.0, 0.0, 0.0, 0.0, 0.0, 0.0, 0.0);(0.0, 32.279998779296875, -18.829999923706055, 5.380000114440918, 5.380000114440918, -2.690000057220459, 10.760000228881836, -8.069999694824219)
2024/05/03/13:39:17.572751;264247;1714768757;627884813;;['BL_Position', 'BL_Wheel', 'BR_Position', 'BR_Wheel', 'FL_Position', 'FL_Wheel', 'FR_Position', 'FR_Wheel'];(0.7869321703910828, 2866.105224609375, -0.7838642001152039, 2864.721435546875, -0.7869321703910828, 2864.371826171875, 0.7838642001152039, 2869.197509765625);(0.0, 0.0, 0.0, 0.0, 0.0, 0.0, 0.0, 0.0);(0.0, 32.279998779296875, -18.829999923706055, 5.380000114440918, 5.380000114440918, -2.690000057220459, 10.760000228881836, -8.069999694824219)
2024/05/03/13:39:17.593970;264248;1714768757;648315257;;['BL_Position', 'BL_Wheel', 'BR_Position', 'BR_Wheel', 'FL_Position', 'FL_Wheel', 'FR_Position', 'FR_Wheel'];(0.7869321703910828, 2866.105224609375, -0.7838642001152039, 2864.721435546875, -0.7869321703910828, 2864.371826171875, 0.7838642001152039, 2869.197509765625);(0.0, 0.0, 0.0, 0.0, 0.0, 0.0, 0.0, 0.0);(0.0, 32.279998779296875, -18.829999923706055, 5.380000114440918, 5.380000114440918, -2.690000057220459, 10.760000228881836, -8.069999694824219)
2024/05/03/13:39:17.604534;264249;1714768757;659790887;;['BL_Position', 'BL_Wheel', 'BR_Position', 'BR_Wheel', 'FL_Position', 'FL_Wheel', 'FR_Position', 'FR_Wheel'];(0.7869321703910828, 2866.105224609375, -0.7838642001152039, 2864.721435546875, -0.7869321703910828, 2864.371826171875, 0.7838642001152039, 2869.197509765625);(0.0, 0.0, 0.0, 0.0, 0.0, 0.0, 0.0, 0.0);(0.0, 32.279998779296875, -18.829999923706055, 5.380000114440918, 5.380000114440918, -2.690000057220459, 10.760000228881836, -8.069999694824219)
2024/05/03/13:39:17.623487;264250;1714768757;675826164;;['BL_Position', 'BL_Wheel', 'BR_Position', 'BR_Wheel', 'FL_Position', 'FL_Wheel', 'FR_Position', 'FR_Wheel'];(0.7869321703910828, 2866.105224609375, -0.7838642001152039, 2864.721435546875, -0.7869321703910828, 2864.371826171875, 0.7838642001152039, 2869.197509765625);(0.0, 0.0, 0.0, 0.0, 0.0, 0.0, 0.0, 0.0);(0.0, 32.279998779296875, -21.520000457763672, 5.380000114440918, 5.380000114440918, -2.690000057220459, 10.760000228881836, -8.069999694824219)
2024/05/03/13:39:17.645280;264251;1714768757;691872423;;['BL_Position', 'BL_Wheel', 'BR_Position', 'BR_Wheel', 'FL_Position', 'FL_Wheel', 'FR_Position', 'FR_Wheel'];(0.7869321703910828, 2866.105224609375, -0.7838642001152039, 2864.721435546875, -0.7869321703910828, 2864.371826171875, 0.7838642001152039, 2869.197509765625);(0.0, 0.0, 0.0, 0.0, 0.0, 0.0, 0.0, 0.0);(0.0, 32.279998779296875, -16.139999389648438, 5.380000114440918, 5.380000114440918, -2.690000057220459, 10.760000228881836, -8.069999694824219)
2024/05/03/13:39:17.659669;264252;1714768757;708006497;;['BL_Position', 'BL_Wheel', 'BR_Position', 'BR_Wheel', 'FL_Position', 'FL_Wheel', 'FR_Position', 'FR_Wheel'];(0.7869321703910828, 2866.105224609375, -0.7838642001152039, 2864.721435546875, -0.7869321703910828, 2864.371826171875, 0.7838642001152039, 2869.197509765625);(0.0, 0.0, 0.0, 0.0, 0.0, 0.0, 0.0, 0.0);(0.0, 32.279998779296875, -18.829999923706055, 5.380000114440918, 16.139999389648438, -2.690000057220459, 10.760000228881836, -8.069999694824219)
2024/05/03/13:39:17.670779;264253;1714768757;723865589;;['BL_Position', 'BL_Wheel', 'BR_Position', 'BR_Wheel', 'FL_Position', 'FL_Wheel', 'FR_Position', 'FR_Wheel'];(0.7869321703910828, 2866.105224609375, -0.7838642001152039, 2864.721435546875, -0.7869321703910828, 2864.371826171875, 0.7838642001152039, 2869.197509765625);(0.0, 0.0, 0.0, 0.0, 0.0, 0.0, 0.0, 0.0);(0.0, 32.279998779296875, -18.829999923706055, 5.380000114440918, 5.380000114440918, -2.690000057220459, 10.760000228881836, -8.069999694824219)
2024/05/03/13:39:17.684513;264254;1714768757;739987922;;['BL_Position', 'BL_Wheel', 'BR_Position', 'BR_Wheel', 'FL_Position', 'FL_Wheel', 'FR_Position', 'FR_Wheel'];(0.7853981852531433, 2866.105224609375, -0.7838642001152039, 2864.721435546875, -0.7869321703910828, 2864.371826171875, 0.7838642001152039, 2869.197509765625);(0.0, 0.0, 0.0, 0.0, 0.0, 0.0, 0.0, 0.0);(0.0, 32.279998779296875, -21.520000457763672, 5.380000114440918, 5.380000114440918, -2.690000057220459, 10.760000228881836, -8.069999694824219)
2024/05/03/13:39:17.703782;264255;1714768757;759181959;;['BL_Position', 'BL_Wheel', 'BR_Position', 'BR_Wheel', 'FL_Position', 'FL_Wheel', 'FR_Position', 'FR_Wheel'];(0.7869321703910828, 2866.103515625, -0.7838642001152039, 2864.721435546875, -0.7869321703910828, 2864.371826171875, 0.7838642001152039, 2869.197509765625);(0.0, 0.0, 0.0, 0.0, 0.0, 0.0, 0.0, 0.0);(0.0, 32.279998779296875, -21.520000457763672, 5.380000114440918, 0.0, -2.690000057220459, 10.760000228881836, -8.069999694824219)
2024/05/03/13:39:17.726120;264256;1714768757;771875977;;['BL_Position', 'BL_Wheel', 'BR_Position', 'BR_Wheel', 'FL_Position', 'FL_Wheel', 'FR_Position', 'FR_Wheel'];(0.7869321703910828, 2866.103515625, -0.7838642001152039, 2864.721435546875, -0.7869321703910828, 2864.371826171875, 0.7838642001152039, 2869.19921875);(0.0, 0.0, 0.0, 0.0, 0.0, 0.0, 0.0, 0.0);(0.0, 32.279998779296875, -21.520000457763672, 5.380000114440918, 2.690000057220459, -2.690000057220459, 10.760000228881836, -8.069999694824219)
2024/05/03/13:39:17.747625;264257;1714768757;788195977;;['BL_Position', 'BL_Wheel', 'BR_Position', 'BR_Wheel', 'FL_Position', 'FL_Wheel', 'FR_Position', 'FR_Wheel'];(0.7869321703910828, 2866.103515625, -0.7853981852531433, 2864.721435546875, -0.7869321703910828, 2864.371826171875, 0.7838642001152039, 2869.197509765625);(0.0, 0.0, 0.0, 0.0, 0.0, 0.0, 0.0, 0.0);(0.0, 32.279998779296875, -21.520000457763672, 5.380000114440918, 8.069999694824219, -2.690000057220459, 10.760000228881836, -8.069999694824219)
2024/05/03/13:39:17.761134;264258;1714768757;803782625;;['BL_Position', 'BL_Wheel', 'BR_Position', 'BR_Wheel', 'FL_Position', 'FL_Wheel', 'FR_Position', 'FR_Wheel'];(0.7869321703910828, 2866.103515625, -0.7838642001152039, 2864.721435546875, -0.7869321703910828, 2864.371826171875, 0.7838642001152039, 2869.197509765625);(0.0, 0.0, 0.0, 0.0, 0.0, 0.0, 0.0, 0.0);(0.0, 32.279998779296875, -18.829999923706055, 5.380000114440918, 5.380000114440918, -2.690000057220459, 10.760000228881836, -8.069999694824219)
2024/05/03/13:39:17.770796;264259;1714768757;819822421;;['BL_Position', 'BL_Wheel', 'BR_Position', 'BR_Wheel', 'FL_Position', 'FL_Wheel', 'FR_Position', 'FR_Wheel'];(0.7869321703910828, 2866.105224609375, -0.7838642001152039, 2864.721435546875, -0.7884661555290222, 2864.371826171875, 0.7838642001152039, 2869.197509765625);(0.0, 0.0, 0.0, 0.0, 0.0, 0.0, 0.0, 0.0);(0.0, 32.279998779296875, -18.829999923706055, 5.380000114440918, 8.069999694824219, -2.690000057220459, 10.760000228881836, -8.069999694824219)
2024/05/03/13:39:17.780503;264260;1714768757;835905272;;['BL_Position', 'BL_Wheel', 'BR_Position', 'BR_Wheel', 'FL_Position', 'FL_Wheel', 'FR_Position', 'FR_Wheel'];(0.7869321703910828, 2866.105224609375, -0.7838642001152039, 2864.721435546875, -0.7869321703910828, 2864.371826171875, 0.7838642001152039, 2869.197509765625);(0.0, 0.0, 0.0, 0.0, 0.0, 0.0, 0.0, 0.0);(0.0, 32.279998779296875, -18.829999923706055, 5.380000114440918, 5.380000114440918, -2.690000057220459, 10.760000228881836, -8.069999694824219)
2024/05/03/13:39:17.796617;264261;1714768757;851852661;;['BL_Position', 'BL_Wheel', 'BR_Position', 'BR_Wheel', 'FL_Position', 'FL_Wheel', 'FR_Position', 'FR_Wheel'];(0.7869321703910828, 2866.105224609375, -0.7838642001152039, 2864.721435546875, -0.7869321703910828, 2864.371826171875, 0.7838642001152039, 2869.197509765625);(0.0, 0.0, 0.0, 0.0, 0.0, 0.0, 0.0, 0.0);(0.0, 32.279998779296875, -18.829999923706055, 5.380000114440918, 10.760000228881836, -2.690000057220459, 10.760000228881836, -8.069999694824219)
2024/05/03/13:39:17.812683;264262;1714768757;867845234;;['BL_Position', 'BL_Wheel', 'BR_Position', 'BR_Wheel', 'FL_Position', 'FL_Wheel', 'FR_Position', 'FR_Wheel'];(0.7869321703910828, 2866.105224609375, -0.7838642001152039, 2864.721435546875, -0.7869321703910828, 2864.371826171875, 0.7838642001152039, 2869.197509765625);(0.0, 0.0, 0.0, 0.0, 0.0, 0.0, 0.0, 0.0);(0.0, 32.279998779296875, -18.829999923706055, 5.380000114440918, 5.380000114440918, -2.690000057220459, 10.760000228881836, -8.069999694824219)
2024/05/03/13:39:17.827965;264263;1714768757;884082512;;['BL_Position', 'BL_Wheel', 'BR_Position', 'BR_Wheel', 'FL_Position', 'FL_Wheel', 'FR_Position', 'FR_Wheel'];(0.7869321703910828, 2866.103515625, -0.7838642001152039, 2864.721435546875, -0.7869321703910828, 2864.371826171875, 0.7838642001152039, 2869.197509765625);(0.0, 0.0, 0.0, 0.0, 0.0, 0.0, 0.0, 0.0);(0.0, 32.279998779296875, -18.829999923706055, 5.380000114440918, 5.380000114440918, -2.690000057220459, 10.760000228881836, -8.069999694824219)
2024/05/03/13:39:17.851716;264264;1714768757;899800104;;['BL_Position', 'BL_Wheel', 'BR_Position', 'BR_Wheel', 'FL_Position', 'FL_Wheel', 'FR_Position', 'FR_Wheel'];(0.7869321703910828, 2866.103515625, -0.7838642001152039, 2864.721435546875, -0.7869321703910828, 2864.371826171875, 0.7838642001152039, 2869.197509765625);(0.0, 0.0, 0.0, 0.0, 0.0, 0.0, 0.0, 0.0);(0.0, 32.279998779296875, -18.829999923706055, 5.380000114440918, 5.380000114440918, -2.690000057220459, 10.760000228881836, -8.069999694824219)
2024/05/03/13:39:17.862238;264265;1714768757;915803456;;['BL_Position', 'BL_Wheel', 'BR_Position', 'BR_Wheel', 'FL_Position', 'FL_Wheel', 'FR_Position', 'FR_Wheel'];(0.7869321703910828, 2866.103515625, -0.7838642001152039, 2864.721435546875, -0.7869321703910828, 2864.371826171875, 0.7838642001152039, 2869.197509765625);(0.0, 0.0, 0.0, 0.0, 0.0, 0.0, 0.0, 0.0);(0.0, 32.279998779296875, -18.829999923706055, 5.380000114440918, 10.760000228881836, -2.690000057220459, 10.760000228881836, -8.069999694824219)
2024/05/03/13:39:17.875682;264266;1714768757;931850048;;['BL_Position', 'BL_Wheel', 'BR_Position', 'BR_Wheel', 'FL_Position', 'FL_Wheel', 'FR_Position', 'FR_Wheel'];(0.7869321703910828, 2866.103515625, -0.7838642001152039, 2864.721435546875, -0.7869321703910828, 2864.371826171875, 0.7838642001152039, 2869.197509765625);(0.0, 0.0, 0.0, 0.0, 0.0, 0.0, 0.0, 0.0);(0.0, 32.279998779296875, -18.829999923706055, 5.380000114440918, 5.380000114440918, -2.690000057220459, 10.760000228881836, -8.069999694824219)
2024/05/03/13:39:17.893026;264267;1714768757;947837677;;['BL_Position', 'BL_Wheel', 'BR_Position', 'BR_Wheel', 'FL_Position', 'FL_Wheel', 'FR_Position', 'FR_Wheel'];(0.7869321703910828, 2866.105224609375, -0.7838642001152039, 2864.721435546875, -0.7869321703910828, 2864.371826171875, 0.7838642001152039, 2869.197509765625);(0.0, 0.0, 0.0, 0.0, 0.0, 0.0, 0.0, 0.0);(0.0, 32.279998779296875, -18.829999923706055, 5.380000114440918, 5.380000114440918, -2.690000057220459, 10.760000228881836, -8.069999694824219)
2024/05/03/13:39:17.908650;264268;1714768757;963793751;;['BL_Position', 'BL_Wheel', 'BR_Position', 'BR_Wheel', 'FL_Position', 'FL_Wheel', 'FR_Position', 'FR_Wheel'];(0.7869321703910828, 2866.105224609375, -0.7838642001152039, 2864.721435546875, -0.7869321703910828, 2864.371826171875, 0.7838642001152039, 2869.197509765625);(0.0, 0.0, 0.0, 0.0, 0.0, 0.0, 0.0, 0.0);(0.0, 32.279998779296875, -18.829999923706055, 5.380000114440918, 0.0, -2.690000057220459, 10.760000228881836, -8.069999694824219)
2024/05/03/13:39:17.929779;264269;1714768757;979812732;;['BL_Position', 'BL_Wheel', 'BR_Position', 'BR_Wheel', 'FL_Position', 'FL_Wheel', 'FR_Position', 'FR_Wheel'];(0.7869321703910828, 2866.105224609375, -0.7838642001152039, 2864.721435546875, -0.7869321703910828, 2864.371826171875, 0.7838642001152039, 2869.197509765625);(0.0, 0.0, 0.0, 0.0, 0.0, 0.0, 0.0, 0.0);(0.0, 32.279998779296875, -18.829999923706055, 5.380000114440918, 13.450000762939453, -2.690000057220459, 10.760000228881836, -8.069999694824219)
2024/05/03/13:39:17.951029;264270;1714768757;995805917;;['BL_Position', 'BL_Wheel', 'BR_Position', 'BR_Wheel', 'FL_Position', 'FL_Wheel', 'FR_Position', 'FR_Wheel'];(0.7869321703910828, 2866.105224609375, -0.7838642001152039, 2864.721435546875, -0.7869321703910828, 2864.371826171875, 0.7838642001152039, 2869.197509765625);(0.0, 0.0, 0.0, 0.0, 0.0, 0.0, 0.0, 0.0);(0.0, 32.279998779296875, -21.520000457763672, 5.380000114440918, 5.380000114440918, -2.690000057220459, 10.760000228881836, -8.069999694824219)
2024/05/03/13:39:17.965034;264271;1714768758;11789620;;['BL_Position', 'BL_Wheel', 'BR_Position', 'BR_Wheel', 'FL_Position', 'FL_Wheel', 'FR_Position', 'FR_Wheel'];(0.7869321703910828, 2866.105224609375, -0.7838642001152039, 2864.721435546875, -0.7869321703910828, 2864.371826171875, 0.7838642001152039, 2869.197509765625);(0.0, 0.0, 0.0, 0.0, 0.0, 0.0, 0.0, 0.0);(0.0, 32.279998779296875, -18.829999923706055, 5.380000114440918, 2.690000057220459, -2.690000057220459, 10.760000228881836, -8.069999694824219)
2024/05/03/13:39:17.973455;264272;1714768758;27917083;;['BL_Position', 'BL_Wheel', 'BR_Position', 'BR_Wheel', 'FL_Position', 'FL_Wheel', 'FR_Position', 'FR_Wheel'];(0.7853981852531433, 2866.105224609375, -0.7838642001152039, 2864.721435546875, -0.7869321703910828, 2864.371826171875, 0.7838642001152039, 2869.197509765625);(0.0, 0.0, 0.0, 0.0, 0.0, 0.0, 0.0, 0.0);(0.0, 32.279998779296875, -18.829999923706055, 5.380000114440918, 5.380000114440918, -2.690000057220459, 10.760000228881836, -8.069999694824219)
