time;.header.seq;.header.stamp.secs;.header.stamp.nsecs;.header.frame_id;.name;.position;.velocity;.effort
2024/05/03/13:27:01.637307;218252;1714768021;670536001;;['BL_Position', 'BL_Wheel', 'BR_Position', 'BR_Wheel', 'FL_Position', 'FL_Wheel', 'FR_Position', 'FR_Wheel'];(0.7823302149772644, 2786.0498046875, -0.7838642001152039, 2944.555908203125, -0.7853981852531433, 2784.454345703125, 0.7838642001152039, 2948.854248046875);(0.0, 0.0, 0.0, 0.0, 0.0, 0.0, 0.0, 0.0);(18.829999923706055, -32.279998779296875, -29.59000015258789, 5.380000114440918, -5.380000114440918, -2.690000057220459, 10.760000228881836, -8.069999694824219)
2024/05/03/13:27:01.653369;218253;1714768021;686518816;;['BL_Position', 'BL_Wheel', 'BR_Position', 'BR_Wheel', 'FL_Position', 'FL_Wheel', 'FR_Position', 'FR_Wheel'];(0.7823302149772644, 2786.0498046875, -0.7838642001152039, 2944.555908203125, -0.7853981852531433, 2784.454345703125, 0.7838642001152039, 2948.8525390625);(0.0, 0.0, 0.0, 0.0, 0.0, 0.0, 0.0, 0.0);(21.520000457763672, -32.279998779296875, -29.59000015258789, 5.380000114440918, -5.380000114440918, -2.690000057220459, 10.760000228881836, -8.069999694824219)
2024/05/03/13:27:01.677958;218254;1714768021;702666056;;['BL_Position', 'BL_Wheel', 'BR_Position', 'BR_Wheel', 'FL_Position', 'FL_Wheel', 'FR_Position', 'FR_Wheel'];(0.7838642001152039, 2786.0498046875, -0.7823302149772644, 2944.555908203125, -0.7853981852531433, 2784.454345703125, 0.7838642001152039, 2948.8525390625);(0.0, 0.0, 0.0, 0.0, 0.0, 0.0, 0.0, 0.0);(21.520000457763672, -32.279998779296875, -32.279998779296875, 5.380000114440918, -5.380000114440918, -2.690000057220459, 10.760000228881836, -8.069999694824219)
2024/05/03/13:27:01.685530;218255;1714768021;718575167;;['BL_Position', 'BL_Wheel', 'BR_Position', 'BR_Wheel', 'FL_Position', 'FL_Wheel', 'FR_Position', 'FR_Wheel'];(0.7838642001152039, 2786.0498046875, -0.7838642001152039, 2944.555908203125, -0.7853981852531433, 2784.454345703125, 0.7838642001152039, 2948.854248046875);(0.0, 0.0, 0.0, 0.0, 0.0, 0.0, 0.0, 0.0);(26.900001525878906, -32.279998779296875, -34.970001220703125, 5.380000114440918, -5.380000114440918, -2.690000057220459, 10.760000228881836, -8.069999694824219)
2024/05/03/13:27:01.703170;218256;1714768021;734598482;;['BL_Position', 'BL_Wheel', 'BR_Position', 'BR_Wheel', 'FL_Position', 'FL_Wheel', 'FR_Position', 'FR_Wheel'];(0.7823302149772644, 2786.0498046875, -0.7823302149772644, 2944.555908203125, -0.7853981852531433, 2784.454345703125, 0.7838642001152039, 2948.8525390625);(0.0, 0.0, 0.0, 0.0, 0.0, 0.0, 0.0, 0.0);(24.21000099182129, -32.279998779296875, -32.279998779296875, 5.380000114440918, -5.380000114440918, -2.690000057220459, 10.760000228881836, -8.069999694824219)
2024/05/03/13:27:01.717259;218257;1714768021;750590278;;['BL_Position', 'BL_Wheel', 'BR_Position', 'BR_Wheel', 'FL_Position', 'FL_Wheel', 'FR_Position', 'FR_Wheel'];(0.7823302149772644, 2786.0498046875, -0.7838642001152039, 2944.555908203125, -0.7853981852531433, 2784.454345703125, 0.7838642001152039, 2948.854248046875);(0.0, 0.0, 0.0, 0.0, 0.0, 0.0, 0.0, 0.0);(21.520000457763672, -32.279998779296875, -26.900001525878906, 5.380000114440918, -5.380000114440918, -2.690000057220459, 8.069999694824219, -8.069999694824219)
2024/05/03/13:27:01.733136;218258;1714768021;766603962;;['BL_Position', 'BL_Wheel', 'BR_Position', 'BR_Wheel', 'FL_Position', 'FL_Wheel', 'FR_Position', 'FR_Wheel'];(0.7823302149772644, 2786.0498046875, -0.7823302149772644, 2944.555908203125, -0.7853981852531433, 2784.454345703125, 0.7838642001152039, 2948.854248046875);(0.0, 0.0, 0.0, 0.0, 0.0, 0.0, 0.0, 0.0);(26.900001525878906, -32.279998779296875, -26.900001525878906, 5.380000114440918, -5.380000114440918, -2.690000057220459, 10.760000228881836, -8.069999694824219)
2024/05/03/13:27:01.749305;218259;1714768021;782578425;;['BL_Position', 'BL_Wheel', 'BR_Position', 'BR_Wheel', 'FL_Position', 'FL_Wheel', 'FR_Position', 'FR_Wheel'];(0.7838642001152039, 2786.0498046875, -0.7823302149772644, 2944.555908203125, -0.7853981852531433, 2784.454345703125, 0.7838642001152039, 2948.854248046875);(0.0, 0.0, 0.0, 0.0, 0.0, 0.0, 0.0, 0.0);(26.900001525878906, -32.279998779296875, -29.59000015258789, 5.380000114440918, -5.380000114440918, -2.690000057220459, 10.760000228881836, -8.069999694824219)
2024/05/03/13:27:01.765088;218260;1714768021;798535906;;['BL_Position', 'BL_Wheel', 'BR_Position', 'BR_Wheel', 'FL_Position', 'FL_Wheel', 'FR_Position', 'FR_Wheel'];(0.7823302149772644, 2786.0498046875, -0.7838642001152039, 2944.555908203125, -0.7853981852531433, 2784.454345703125, 0.7838642001152039, 2948.854248046875);(0.0, 0.0, 0.0, 0.0, 0.0, 0.0, 0.0, 0.0);(26.900001525878906, -32.279998779296875, -29.59000015258789, 5.380000114440918, -5.380000114440918, -2.690000057220459, 10.760000228881836, -8.069999694824219)
2024/05/03/13:27:01.783147;218261;1714768021;814711221;;['BL_Position', 'BL_Wheel', 'BR_Position', 'BR_Wheel', 'FL_Position', 'FL_Wheel', 'FR_Position', 'FR_Wheel'];(0.7823302149772644, 2786.0498046875, -0.7823302149772644, 2944.555908203125, -0.7853981852531433, 2784.454345703125, 0.7838642001152039, 2948.854248046875);(0.0, 0.0, 0.0, 0.0, 0.0, 0.0, 0.0, 0.0);(29.59000015258789, -32.279998779296875, -29.59000015258789, 5.380000114440918, -5.380000114440918, -2.690000057220459, 10.760000228881836, -8.069999694824219)
2024/05/03/13:27:01.804167;218262;1714768021;830594405;;['BL_Position', 'BL_Wheel', 'BR_Position', 'BR_Wheel', 'FL_Position', 'FL_Wheel', 'FR_Position', 'FR_Wheel'];(0.7838642001152039, 2786.0498046875, -0.7838642001152039, 2944.555908203125, -0.7853981852531433, 2784.454345703125, 0.7838642001152039, 2948.854248046875);(0.0, 0.0, 0.0, 0.0, 0.0, 0.0, 0.0, 0.0);(24.21000099182129, -32.279998779296875, -26.900001525878906, 5.380000114440918, -5.380000114440918, -2.690000057220459, 10.760000228881836, -8.069999694824219)
2024/05/03/13:27:01.814996;218263;1714768021;846515627;;['BL_Position', 'BL_Wheel', 'BR_Position', 'BR_Wheel', 'FL_Position', 'FL_Wheel', 'FR_Position', 'FR_Wheel'];(0.7838642001152039, 2786.0498046875, -0.7838642001152039, 2944.554443359375, -0.7853981852531433, 2784.454345703125, 0.7838642001152039, 2948.8525390625);(0.0, 0.0, 0.0, 0.0, 0.0, 0.0, 0.0, 0.0);(29.59000015258789, -32.279998779296875, -32.279998779296875, 5.380000114440918, -5.380000114440918, -2.690000057220459, 10.760000228881836, -8.069999694824219)
2024/05/03/13:27:01.827786;218264;1714768021;862539849;;['BL_Position', 'BL_Wheel', 'BR_Position', 'BR_Wheel', 'FL_Position', 'FL_Wheel', 'FR_Position', 'FR_Wheel'];(0.7823302149772644, 2786.0498046875, -0.7838642001152039, 2944.555908203125, -0.7853981852531433, 2784.454345703125, 0.7838642001152039, 2948.8525390625);(0.0, 0.0, 0.0, 0.0, 0.0, 0.0, 0.0, 0.0);(32.279998779296875, -32.279998779296875, -32.279998779296875, 5.380000114440918, -5.380000114440918, -2.690000057220459, 8.069999694824219, -8.069999694824219)
2024/05/03/13:27:01.845320;218265;1714768021;878526293;;['BL_Position', 'BL_Wheel', 'BR_Position', 'BR_Wheel', 'FL_Position', 'FL_Wheel', 'FR_Position', 'FR_Wheel'];(0.7823302149772644, 2786.0498046875, -0.7838642001152039, 2944.555908203125, -0.7853981852531433, 2784.454345703125, 0.7838642001152039, 2948.854248046875);(0.0, 0.0, 0.0, 0.0, 0.0, 0.0, 0.0, 0.0);(26.900001525878906, -32.279998779296875, -32.279998779296875, 5.380000114440918, -5.380000114440918, -2.690000057220459, 10.760000228881836, -8.069999694824219)
2024/05/03/13:27:01.860734;218266;1714768021;894556311;;['BL_Position', 'BL_Wheel', 'BR_Position', 'BR_Wheel', 'FL_Position', 'FL_Wheel', 'FR_Position', 'FR_Wheel'];(0.7838642001152039, 2786.0498046875, -0.7838642001152039, 2944.555908203125, -0.7853981852531433, 2784.454345703125, 0.7838642001152039, 2948.8525390625);(0.0, 0.0, 0.0, 0.0, 0.0, 0.0, 0.0, 0.0);(18.829999923706055, -32.279998779296875, -37.65999984741211, 5.380000114440918, -5.380000114440918, -2.690000057220459, 10.760000228881836, -8.069999694824219)
2024/05/03/13:27:01.883722;218267;1714768021;911504867;;['BL_Position', 'BL_Wheel', 'BR_Position', 'BR_Wheel', 'FL_Position', 'FL_Wheel', 'FR_Position', 'FR_Wheel'];(0.7838642001152039, 2786.0498046875, -0.7838642001152039, 2944.555908203125, -0.7853981852531433, 2784.454345703125, 0.7838642001152039, 2948.854248046875);(0.0, 0.0, 0.0, 0.0, 0.0, 0.0, 0.0, 0.0);(26.900001525878906, -32.279998779296875, -24.21000099182129, 5.380000114440918, -5.380000114440918, -2.690000057220459, 10.760000228881836, -8.069999694824219)
2024/05/03/13:27:01.906211;218268;1714768021;927135144;;['BL_Position', 'BL_Wheel', 'BR_Position', 'BR_Wheel', 'FL_Position', 'FL_Wheel', 'FR_Position', 'FR_Wheel'];(0.7823302149772644, 2786.0498046875, -0.7823302149772644, 2944.555908203125, -0.7853981852531433, 2784.454345703125, 0.7838642001152039, 2948.8525390625);(0.0, 0.0, 0.0, 0.0, 0.0, 0.0, 0.0, 0.0);(29.59000015258789, -32.279998779296875, -29.59000015258789, 5.380000114440918, -5.380000114440918, -2.690000057220459, 10.760000228881836, -8.069999694824219)
2024/05/03/13:27:01.913433;218269;1714768021;942630162;;['BL_Position', 'BL_Wheel', 'BR_Position', 'BR_Wheel', 'FL_Position', 'FL_Wheel', 'FR_Position', 'FR_Wheel'];(0.7838642001152039, 2786.0498046875, -0.7823302149772644, 2944.555908203125, -0.7853981852531433, 2784.454345703125, 0.7838642001152039, 2948.854248046875);(0.0, 0.0, 0.0, 0.0, 0.0, 0.0, 0.0, 0.0);(24.21000099182129, -32.279998779296875, -29.59000015258789, 5.380000114440918, -5.380000114440918, -2.690000057220459, 10.760000228881836, -8.069999694824219)
2024/05/03/13:27:01.925332;218270;1714768021;958562254;;['BL_Position', 'BL_Wheel', 'BR_Position', 'BR_Wheel', 'FL_Position', 'FL_Wheel', 'FR_Position', 'FR_Wheel'];(0.7823302149772644, 2786.0498046875, -0.7823302149772644, 2944.554443359375, -0.7853981852531433, 2784.454345703125, 0.7838642001152039, 2948.8525390625);(0.0, 0.0, 0.0, 0.0, 0.0, 0.0, 0.0, 0.0);(24.21000099182129, -32.279998779296875, -29.59000015258789, 5.380000114440918, -5.380000114440918, -2.690000057220459, 10.760000228881836, -8.069999694824219)
2024/05/03/13:27:01.941483;218271;1714768021;974639162;;['BL_Position', 'BL_Wheel', 'BR_Position', 'BR_Wheel', 'FL_Position', 'FL_Wheel', 'FR_Position', 'FR_Wheel'];(0.7838642001152039, 2786.0498046875, -0.7838642001152039, 2944.555908203125, -0.7853981852531433, 2784.454345703125, 0.7838642001152039, 2948.8525390625);(0.0, 0.0, 0.0, 0.0, 0.0, 0.0, 0.0, 0.0);(26.900001525878906, -32.279998779296875, -34.970001220703125, 5.380000114440918, -5.380000114440918, -2.690000057220459, 10.760000228881836, -8.069999694824219)
2024/05/03/13:27:01.957103;218272;1714768021;990545532;;['BL_Position', 'BL_Wheel', 'BR_Position', 'BR_Wheel', 'FL_Position', 'FL_Wheel', 'FR_Position', 'FR_Wheel'];(0.7823302149772644, 2786.0498046875, -0.7823302149772644, 2944.555908203125, -0.7853981852531433, 2784.454345703125, 0.7838642001152039, 2948.854248046875);(0.0, 0.0, 0.0, 0.0, 0.0, 0.0, 0.0, 0.0);(26.900001525878906, -32.279998779296875, -26.900001525878906, 5.380000114440918, -2.690000057220459, -2.690000057220459, 10.760000228881836, -8.069999694824219)
2024/05/03/13:27:01.990464;218273;1714768022;6542105;;['BL_Position', 'BL_Wheel', 'BR_Position', 'BR_Wheel', 'FL_Position', 'FL_Wheel', 'FR_Position', 'FR_Wheel'];(0.7838642001152039, 2786.0498046875, -0.7823302149772644, 2944.555908203125, -0.7853981852531433, 2784.454345703125, 0.7838642001152039, 2948.8525390625);(0.0, 0.0, 0.0, 0.0, 0.0, 0.0, 0.0, 0.0);(21.520000457763672, -32.279998779296875, -29.59000015258789, 5.380000114440918, -2.690000057220459, -2.690000057220459, 10.760000228881836, -8.069999694824219)
2024/05/03/13:27:02.002704;218274;1714768022;22561086;;['BL_Position', 'BL_Wheel', 'BR_Position', 'BR_Wheel', 'FL_Position', 'FL_Wheel', 'FR_Position', 'FR_Wheel'];(0.7838642001152039, 2786.0498046875, -0.7838642001152039, 2944.554443359375, -0.7853981852531433, 2784.454345703125, 0.7838642001152039, 2948.854248046875);(0.0, 0.0, 0.0, 0.0, 0.0, 0.0, 0.0, 0.0);(29.59000015258789, -32.279998779296875, -26.900001525878906, 5.380000114440918, -2.690000057220459, -2.690000057220459, 10.760000228881836, -8.069999694824219)
2024/05/03/13:27:02.018355;218275;1714768022;38556271;;['BL_Position', 'BL_Wheel', 'BR_Position', 'BR_Wheel', 'FL_Position', 'FL_Wheel', 'FR_Position', 'FR_Wheel'];(0.7838642001152039, 2786.0498046875, -0.7823302149772644, 2944.555908203125, -0.7853981852531433, 2784.454345703125, 0.7838642001152039, 2948.854248046875);(0.0, 0.0, 0.0, 0.0, 0.0, 0.0, 0.0, 0.0);(26.900001525878906, -32.279998779296875, -32.279998779296875, 5.380000114440918, -2.690000057220459, -2.690000057220459, 10.760000228881836, -8.069999694824219)
2024/05/03/13:27:02.023331;218276;1714768022;54563641;;['BL_Position', 'BL_Wheel', 'BR_Position', 'BR_Wheel', 'FL_Position', 'FL_Wheel', 'FR_Position', 'FR_Wheel'];(0.7823302149772644, 2786.0498046875, -0.7838642001152039, 2944.555908203125, -0.7853981852531433, 2784.454345703125, 0.7838642001152039, 2948.8525390625);(0.0, 0.0, 0.0, 0.0, 0.0, 0.0, 0.0, 0.0);(21.520000457763672, -32.279998779296875, -32.279998779296875, 5.380000114440918, -2.690000057220459, -2.690000057220459, 10.760000228881836, -8.069999694824219)
2024/05/03/13:27:02.037245;218277;1714768022;70615530;;['BL_Position', 'BL_Wheel', 'BR_Position', 'BR_Wheel', 'FL_Position', 'FL_Wheel', 'FR_Position', 'FR_Wheel'];(0.7838642001152039, 2786.0498046875, -0.7838642001152039, 2944.555908203125, -0.7853981852531433, 2784.454345703125, 0.7838642001152039, 2948.854248046875);(0.0, 0.0, 0.0, 0.0, 0.0, 0.0, 0.0, 0.0);(26.900001525878906, -32.279998779296875, -34.970001220703125, 5.380000114440918, -2.690000057220459, -2.690000057220459, 10.760000228881836, -8.069999694824219)
2024/05/03/13:27:02.053503;218278;1714768022;86530770;;['BL_Position', 'BL_Wheel', 'BR_Position', 'BR_Wheel', 'FL_Position', 'FL_Wheel', 'FR_Position', 'FR_Wheel'];(0.7823302149772644, 2786.0498046875, -0.7838642001152039, 2944.555908203125, -0.7853981852531433, 2784.454345703125, 0.7838642001152039, 2948.854248046875);(0.0, 0.0, 0.0, 0.0, 0.0, 0.0, 0.0, 0.0);(24.21000099182129, -32.279998779296875, -29.59000015258789, 5.380000114440918, -2.690000057220459, -2.690000057220459, 10.760000228881836, -8.069999694824219)
2024/05/03/13:27:02.069892;218279;1714768022;102583659;;['BL_Position', 'BL_Wheel', 'BR_Position', 'BR_Wheel', 'FL_Position', 'FL_Wheel', 'FR_Position', 'FR_Wheel'];(0.7823302149772644, 2786.0498046875, -0.7823302149772644, 2944.555908203125, -0.7853981852531433, 2784.454345703125, 0.7838642001152039, 2948.8525390625);(0.0, 0.0, 0.0, 0.0, 0.0, 0.0, 0.0, 0.0);(26.900001525878906, -34.970001220703125, -32.279998779296875, 5.380000114440918, -2.690000057220459, -2.690000057220459, 10.760000228881836, -8.069999694824219)
2024/05/03/13:27:02.087901;218280;1714768022;118551658;;['BL_Position', 'BL_Wheel', 'BR_Position', 'BR_Wheel', 'FL_Position', 'FL_Wheel', 'FR_Position', 'FR_Wheel'];(0.7838642001152039, 2786.0498046875, -0.7838642001152039, 2944.555908203125, -0.7853981852531433, 2784.454345703125, 0.7838642001152039, 2948.854248046875);(0.0, 0.0, 0.0, 0.0, 0.0, 0.0, 0.0, 0.0);(26.900001525878906, -34.970001220703125, -32.279998779296875, 5.380000114440918, -2.690000057220459, -2.690000057220459, 10.760000228881836, -8.069999694824219)
2024/05/03/13:27:02.108868;218281;1714768022;134519306;;['BL_Position', 'BL_Wheel', 'BR_Position', 'BR_Wheel', 'FL_Position', 'FL_Wheel', 'FR_Position', 'FR_Wheel'];(0.7823302149772644, 2786.0498046875, -0.7838642001152039, 2944.555908203125, -0.7853981852531433, 2784.454345703125, 0.7838642001152039, 2948.854248046875);(0.0, 0.0, 0.0, 0.0, 0.0, 0.0, 0.0, 0.0);(29.59000015258789, -34.970001220703125, -37.65999984741211, 5.380000114440918, -2.690000057220459, -2.690000057220459, 10.760000228881836, -8.069999694824219)
2024/05/03/13:27:02.122841;218282;1714768022;150542621;;['BL_Position', 'BL_Wheel', 'BR_Position', 'BR_Wheel', 'FL_Position', 'FL_Wheel', 'FR_Position', 'FR_Wheel'];(0.7823302149772644, 2786.0498046875, -0.7823302149772644, 2944.554443359375, -0.7853981852531433, 2784.454345703125, 0.7838642001152039, 2948.8525390625);(0.0, 0.0, 0.0, 0.0, 0.0, 0.0, 0.0, 0.0);(21.520000457763672, -34.970001220703125, -29.59000015258789, 5.380000114440918, -2.690000057220459, -2.690000057220459, 10.760000228881836, -8.069999694824219)
2024/05/03/13:27:02.133381;218283;1714768022;166589694;;['BL_Position', 'BL_Wheel', 'BR_Position', 'BR_Wheel', 'FL_Position', 'FL_Wheel', 'FR_Position', 'FR_Wheel'];(0.7823302149772644, 2786.0498046875, -0.7838642001152039, 2944.555908203125, -0.7853981852531433, 2784.454345703125, 0.7838642001152039, 2948.854248046875);(0.0, 0.0, 0.0, 0.0, 0.0, 0.0, 0.0, 0.0);(26.900001525878906, -34.970001220703125, -29.59000015258789, 5.380000114440918, -2.690000057220459, -2.690000057220459, 10.760000228881836, -8.069999694824219)
2024/05/03/13:27:02.149662;218284;1714768022;182559138;;['BL_Position', 'BL_Wheel', 'BR_Position', 'BR_Wheel', 'FL_Position', 'FL_Wheel', 'FR_Position', 'FR_Wheel'];(0.7838642001152039, 2786.0498046875, -0.7838642001152039, 2944.555908203125, -0.7853981852531433, 2784.454345703125, 0.7838642001152039, 2948.854248046875);(0.0, 0.0, 0.0, 0.0, 0.0, 0.0, 0.0, 0.0);(26.900001525878906, -34.970001220703125, -26.900001525878906, 5.380000114440918, -2.690000057220459, -2.690000057220459, 10.760000228881836, -8.069999694824219)
2024/05/03/13:27:02.165753;218285;1714768022;198563342;;['BL_Position', 'BL_Wheel', 'BR_Position', 'BR_Wheel', 'FL_Position', 'FL_Wheel', 'FR_Position', 'FR_Wheel'];(0.7823302149772644, 2786.048095703125, -0.7823302149772644, 2944.555908203125, -0.7853981852531433, 2784.454345703125, 0.7838642001152039, 2948.854248046875);(0.0, 0.0, 0.0, 0.0, 0.0, 0.0, 0.0, 0.0);(24.21000099182129, -34.970001220703125, -26.900001525878906, 5.380000114440918, -2.690000057220459, -2.690000057220459, 10.760000228881836, -8.069999694824219)
2024/05/03/13:27:02.190213;218286;1714768022;214506990;;['BL_Position', 'BL_Wheel', 'BR_Position', 'BR_Wheel', 'FL_Position', 'FL_Wheel', 'FR_Position', 'FR_Wheel'];(0.7838642001152039, 2786.0498046875, -0.7823302149772644, 2944.555908203125, -0.7853981852531433, 2784.454345703125, 0.7838642001152039, 2948.8525390625);(0.0, 0.0, 0.0, 0.0, 0.0, 0.0, 0.0, 0.0);(18.829999923706055, -34.970001220703125, -29.59000015258789, 5.380000114440918, -2.690000057220459, -2.690000057220459, 10.760000228881836, -8.069999694824219)
2024/05/03/13:27:02.197002;218287;1714768022;230530545;;['BL_Position', 'BL_Wheel', 'BR_Position', 'BR_Wheel', 'FL_Position', 'FL_Wheel', 'FR_Position', 'FR_Wheel'];(0.7838642001152039, 2786.0498046875, -0.7823302149772644, 2944.555908203125, -0.7853981852531433, 2784.454345703125, 0.7838642001152039, 2948.8525390625);(0.0, 0.0, 0.0, 0.0, 0.0, 0.0, 0.0, 0.0);(26.900001525878906, -34.970001220703125, -26.900001525878906, 5.380000114440918, -2.690000057220459, -2.690000057220459, 10.760000228881836, -8.069999694824219)
2024/05/03/13:27:02.218999;218288;1714768022;246595230;;['BL_Position', 'BL_Wheel', 'BR_Position', 'BR_Wheel', 'FL_Position', 'FL_Wheel', 'FR_Position', 'FR_Wheel'];(0.7823302149772644, 2786.0498046875, -0.7838642001152039, 2944.554443359375, -0.7853981852531433, 2784.454345703125, 0.7838642001152039, 2948.854248046875);(0.0, 0.0, 0.0, 0.0, 0.0, 0.0, 0.0, 0.0);(26.900001525878906, -34.970001220703125, -26.900001525878906, 5.380000114440918, -2.690000057220459, -2.690000057220459, 10.760000228881836, -8.069999694824219)
2024/05/03/13:27:02.229573;218289;1714768022;262686322;;['BL_Position', 'BL_Wheel', 'BR_Position', 'BR_Wheel', 'FL_Position', 'FL_Wheel', 'FR_Position', 'FR_Wheel'];(0.7838642001152039, 2786.0498046875, -0.7838642001152039, 2944.555908203125, -0.7853981852531433, 2784.454345703125, 0.7838642001152039, 2948.854248046875);(0.0, 0.0, 0.0, 0.0, 0.0, 0.0, 0.0, 0.0);(26.900001525878906, -34.970001220703125, -32.279998779296875, 5.380000114440918, -2.690000057220459, -2.690000057220459, 10.760000228881836, -8.069999694824219)
2024/05/03/13:27:02.245376;218290;1714768022;278544544;;['BL_Position', 'BL_Wheel', 'BR_Position', 'BR_Wheel', 'FL_Position', 'FL_Wheel', 'FR_Position', 'FR_Wheel'];(0.7838642001152039, 2786.0498046875, -0.7838642001152039, 2944.555908203125, -0.7853981852531433, 2784.454345703125, 0.7838642001152039, 2948.854248046875);(0.0, 0.0, 0.0, 0.0, 0.0, 0.0, 0.0, 0.0);(21.520000457763672, -34.970001220703125, -32.279998779296875, 5.380000114440918, -2.690000057220459, -2.690000057220459, 10.760000228881836, -8.069999694824219)
2024/05/03/13:27:02.261233;218291;1714768022;294548803;;['BL_Position', 'BL_Wheel', 'BR_Position', 'BR_Wheel', 'FL_Position', 'FL_Wheel', 'FR_Position', 'FR_Wheel'];(0.7838642001152039, 2786.0498046875, -0.7838642001152039, 2944.555908203125, -0.7853981852531433, 2784.454345703125, 0.7838642001152039, 2948.854248046875);(0.0, 0.0, 0.0, 0.0, 0.0, 0.0, 0.0, 0.0);(26.900001525878906, -34.970001220703125, -32.279998779296875, 5.380000114440918, -2.690000057220459, -2.690000057220459, 10.760000228881836, -8.069999694824219)
2024/05/03/13:27:02.277344;218292;1714768022;310500321;;['BL_Position', 'BL_Wheel', 'BR_Position', 'BR_Wheel', 'FL_Position', 'FL_Wheel', 'FR_Position', 'FR_Wheel'];(0.7823302149772644, 2786.0498046875, -0.7838642001152039, 2944.554443359375, -0.7853981852531433, 2784.454345703125, 0.7838642001152039, 2948.854248046875);(0.0, 0.0, 0.0, 0.0, 0.0, 0.0, 0.0, 0.0);(26.900001525878906, -34.970001220703125, -26.900001525878906, 5.380000114440918, -2.690000057220459, -2.690000057220459, 10.760000228881836, -8.069999694824219)
2024/05/03/13:27:02.292566;218293;1714768022;326495672;;['BL_Position', 'BL_Wheel', 'BR_Position', 'BR_Wheel', 'FL_Position', 'FL_Wheel', 'FR_Position', 'FR_Wheel'];(0.7838642001152039, 2786.0498046875, -0.7838642001152039, 2944.555908203125, -0.7853981852531433, 2784.454345703125, 0.7838642001152039, 2948.854248046875);(0.0, 0.0, 0.0, 0.0, 0.0, 0.0, 0.0, 0.0);(26.900001525878906, -34.970001220703125, -29.59000015258789, 5.380000114440918, -2.690000057220459, -2.690000057220459, 10.760000228881836, -8.069999694824219)
2024/05/03/13:27:02.316976;218294;1714768022;342526913;;['BL_Position', 'BL_Wheel', 'BR_Position', 'BR_Wheel', 'FL_Position', 'FL_Wheel', 'FR_Position', 'FR_Wheel'];(0.7823302149772644, 2786.0498046875, -0.7838642001152039, 2944.555908203125, -0.7853981852531433, 2784.454345703125, 0.7838642001152039, 2948.8525390625);(0.0, 0.0, 0.0, 0.0, 0.0, 0.0, 0.0, 0.0);(26.900001525878906, -34.970001220703125, -29.59000015258789, 5.380000114440918, -2.690000057220459, -2.690000057220459, 10.760000228881836, -8.069999694824219)
2024/05/03/13:27:02.325986;218295;1714768022;358586412;;['BL_Position', 'BL_Wheel', 'BR_Position', 'BR_Wheel', 'FL_Position', 'FL_Wheel', 'FR_Position', 'FR_Wheel'];(0.7838642001152039, 2786.0498046875, -0.7838642001152039, 2944.555908203125, -0.7853981852531433, 2784.454345703125, 0.7838642001152039, 2948.854248046875);(0.0, 0.0, 0.0, 0.0, 0.0, 0.0, 0.0, 0.0);(26.900001525878906, -34.970001220703125, -29.59000015258789, 5.380000114440918, -2.690000057220459, -2.690000057220459, 10.760000228881836, -8.069999694824219)
2024/05/03/13:27:02.341736;218296;1714768022;374542690;;['BL_Position', 'BL_Wheel', 'BR_Position', 'BR_Wheel', 'FL_Position', 'FL_Wheel', 'FR_Position', 'FR_Wheel'];(0.7823302149772644, 2786.048095703125, -0.7823302149772644, 2944.555908203125, -0.7853981852531433, 2784.454345703125, 0.7838642001152039, 2948.854248046875);(0.0, 0.0, 0.0, 0.0, 0.0, 0.0, 0.0, 0.0);(24.21000099182129, -34.970001220703125, -32.279998779296875, 5.380000114440918, -2.690000057220459, -2.690000057220459, 10.760000228881836, -8.069999694824219)
2024/05/03/13:27:02.357748;218297;1714768022;390560671;;['BL_Position', 'BL_Wheel', 'BR_Position', 'BR_Wheel', 'FL_Position', 'FL_Wheel', 'FR_Position', 'FR_Wheel'];(0.7838642001152039, 2786.0498046875, -0.7823302149772644, 2944.555908203125, -0.7853981852531433, 2784.454345703125, 0.7838642001152039, 2948.854248046875);(0.0, 0.0, 0.0, 0.0, 0.0, 0.0, 0.0, 0.0);(26.900001525878906, -34.970001220703125, -26.900001525878906, 5.380000114440918, -2.690000057220459, -2.690000057220459, 10.760000228881836, -8.069999694824219)
2024/05/03/13:27:02.373878;218298;1714768022;406578393;;['BL_Position', 'BL_Wheel', 'BR_Position', 'BR_Wheel', 'FL_Position', 'FL_Wheel', 'FR_Position', 'FR_Wheel'];(0.7823302149772644, 2786.0498046875, -0.7823302149772644, 2944.555908203125, -0.7853981852531433, 2784.454345703125, 0.7838642001152039, 2948.8525390625);(0.0, 0.0, 0.0, 0.0, 0.0, 0.0, 0.0, 0.0);(26.900001525878906, -34.970001220703125, -26.900001525878906, 5.380000114440918, -2.690000057220459, -2.690000057220459, 10.760000228881836, -8.069999694824219)
2024/05/03/13:27:02.395758;218299;1714768022;422552170;;['BL_Position', 'BL_Wheel', 'BR_Position', 'BR_Wheel', 'FL_Position', 'FL_Wheel', 'FR_Position', 'FR_Wheel'];(0.7823302149772644, 2786.0498046875, -0.7838642001152039, 2944.555908203125, -0.7853981852531433, 2784.454345703125, 0.7838642001152039, 2948.8525390625);(0.0, 0.0, 0.0, 0.0, 0.0, 0.0, 0.0, 0.0);(26.900001525878906, -34.970001220703125, -32.279998779296875, 5.380000114440918, -2.690000057220459, -2.690000057220459, 10.760000228881836, -8.069999694824219)
2024/05/03/13:27:02.417166;218300;1714768022;438513392;;['BL_Position', 'BL_Wheel', 'BR_Position', 'BR_Wheel', 'FL_Position', 'FL_Wheel', 'FR_Position', 'FR_Wheel'];(0.7823302149772644, 2786.0498046875, -0.7823302149772644, 2944.554443359375, -0.7853981852531433, 2784.454345703125, 0.7838642001152039, 2948.8525390625);(0.0, 0.0, 0.0, 0.0, 0.0, 0.0, 0.0, 0.0);(26.900001525878906, -34.970001220703125, -26.900001525878906, 5.380000114440918, -2.690000057220459, -2.690000057220459, 10.760000228881836, -8.069999694824219)
2024/05/03/13:27:02.429423;218301;1714768022;454576873;;['BL_Position', 'BL_Wheel', 'BR_Position', 'BR_Wheel', 'FL_Position', 'FL_Wheel', 'FR_Position', 'FR_Wheel'];(0.7823302149772644, 2786.0498046875, -0.7838642001152039, 2944.555908203125, -0.7853981852531433, 2784.454345703125, 0.7838642001152039, 2948.8525390625);(0.0, 0.0, 0.0, 0.0, 0.0, 0.0, 0.0, 0.0);(29.59000015258789, -34.970001220703125, -26.900001525878906, 5.380000114440918, -2.690000057220459, -2.690000057220459, 10.760000228881836, -8.069999694824219)
2024/05/03/13:27:02.437320;218302;1714768022;470547669;;['BL_Position', 'BL_Wheel', 'BR_Position', 'BR_Wheel', 'FL_Position', 'FL_Wheel', 'FR_Position', 'FR_Wheel'];(0.7838642001152039, 2786.0498046875, -0.7838642001152039, 2944.554443359375, -0.7853981852531433, 2784.454345703125, 0.7838642001152039, 2948.854248046875);(0.0, 0.0, 0.0, 0.0, 0.0, 0.0, 0.0, 0.0);(26.900001525878906, -34.970001220703125, -32.279998779296875, 5.380000114440918, -2.690000057220459, -2.690000057220459, 10.760000228881836, -8.069999694824219)
2024/05/03/13:27:02.453347;218303;1714768022;486560354;;['BL_Position', 'BL_Wheel', 'BR_Position', 'BR_Wheel', 'FL_Position', 'FL_Wheel', 'FR_Position', 'FR_Wheel'];(0.7838642001152039, 2786.0498046875, -0.7838642001152039, 2944.555908203125, -0.7853981852531433, 2784.454345703125, 0.7838642001152039, 2948.8525390625);(0.0, 0.0, 0.0, 0.0, 0.0, 0.0, 0.0, 0.0);(26.900001525878906, -34.970001220703125, -29.59000015258789, 5.380000114440918, -2.690000057220459, -2.690000057220459, 10.760000228881836, -8.069999694824219)
2024/05/03/13:27:02.469239;218304;1714768022;502547131;;['BL_Position', 'BL_Wheel', 'BR_Position', 'BR_Wheel', 'FL_Position', 'FL_Wheel', 'FR_Position', 'FR_Wheel'];(0.7838642001152039, 2786.0498046875, -0.7838642001152039, 2944.555908203125, -0.7853981852531433, 2784.454345703125, 0.7838642001152039, 2948.854248046875);(0.0, 0.0, 0.0, 0.0, 0.0, 0.0, 0.0, 0.0);(21.520000457763672, -34.970001220703125, -26.900001525878906, 5.380000114440918, -2.690000057220459, -2.690000057220459, 10.760000228881836, -8.069999694824219)
2024/05/03/13:27:02.497098;218305;1714768022;518555557;;['BL_Position', 'BL_Wheel', 'BR_Position', 'BR_Wheel', 'FL_Position', 'FL_Wheel', 'FR_Position', 'FR_Wheel'];(0.7838642001152039, 2786.0498046875, -0.7823302149772644, 2944.555908203125, -0.7853981852531433, 2784.454345703125, 0.7838642001152039, 2948.854248046875);(0.0, 0.0, 0.0, 0.0, 0.0, 0.0, 0.0, 0.0);(24.21000099182129, -34.970001220703125, -26.900001525878906, 5.380000114440918, -2.690000057220459, -2.690000057220459, 10.760000228881836, -8.069999694824219)
2024/05/03/13:27:02.502137;218306;1714768022;534523705;;['BL_Position', 'BL_Wheel', 'BR_Position', 'BR_Wheel', 'FL_Position', 'FL_Wheel', 'FR_Position', 'FR_Wheel'];(0.7838642001152039, 2786.0498046875, -0.7823302149772644, 2944.555908203125, -0.7853981852531433, 2784.454345703125, 0.7838642001152039, 2948.8525390625);(0.0, 0.0, 0.0, 0.0, 0.0, 0.0, 0.0, 0.0);(24.21000099182129, -34.970001220703125, -29.59000015258789, 5.380000114440918, -2.690000057220459, -2.690000057220459, 10.760000228881836, -8.069999694824219)
2024/05/03/13:27:02.519168;218307;1714768022;550497797;;['BL_Position', 'BL_Wheel', 'BR_Position', 'BR_Wheel', 'FL_Position', 'FL_Wheel', 'FR_Position', 'FR_Wheel'];(0.7838642001152039, 2786.0498046875, -0.7838642001152039, 2944.555908203125, -0.7853981852531433, 2784.454345703125, 0.7838642001152039, 2948.8525390625);(0.0, 0.0, 0.0, 0.0, 0.0, 0.0, 0.0, 0.0);(29.59000015258789, -34.970001220703125, -26.900001525878906, 5.380000114440918, -2.690000057220459, -2.690000057220459, 10.760000228881836, -8.069999694824219)
2024/05/03/13:27:02.533368;218308;1714768022;566528112;;['BL_Position', 'BL_Wheel', 'BR_Position', 'BR_Wheel', 'FL_Position', 'FL_Wheel', 'FR_Position', 'FR_Wheel'];(0.7823302149772644, 2786.0498046875, -0.7838642001152039, 2944.554443359375, -0.7853981852531433, 2784.454345703125, 0.7838642001152039, 2948.854248046875);(0.0, 0.0, 0.0, 0.0, 0.0, 0.0, 0.0, 0.0);(26.900001525878906, -34.970001220703125, -29.59000015258789, 5.380000114440918, -2.690000057220459, -2.690000057220459, 10.760000228881836, -8.069999694824219)
2024/05/03/13:27:02.549345;218309;1714768022;582581463;;['BL_Position', 'BL_Wheel', 'BR_Position', 'BR_Wheel', 'FL_Position', 'FL_Wheel', 'FR_Position', 'FR_Wheel'];(0.7823302149772644, 2786.0498046875, -0.7838642001152039, 2944.555908203125, -0.7853981852531433, 2784.454345703125, 0.7838642001152039, 2948.854248046875);(0.0, 0.0, 0.0, 0.0, 0.0, 0.0, 0.0, 0.0);(24.21000099182129, -34.970001220703125, -32.279998779296875, 5.380000114440918, -2.690000057220459, -2.690000057220459, 10.760000228881836, -8.069999694824219)
2024/05/03/13:27:02.564954;218310;1714768022;598566759;;['BL_Position', 'BL_Wheel', 'BR_Position', 'BR_Wheel', 'FL_Position', 'FL_Wheel', 'FR_Position', 'FR_Wheel'];(0.7838642001152039, 2786.0498046875, -0.7823302149772644, 2944.555908203125, -0.7853981852531433, 2784.454345703125, 0.7838642001152039, 2948.854248046875);(0.0, 0.0, 0.0, 0.0, 0.0, 0.0, 0.0, 0.0);(24.21000099182129, -34.970001220703125, -32.279998779296875, 5.380000114440918, -2.690000057220459, -2.690000057220459, 10.760000228881836, -8.069999694824219)
2024/05/03/13:27:02.581366;218311;1714768022;614536740;;['BL_Position', 'BL_Wheel', 'BR_Position', 'BR_Wheel', 'FL_Position', 'FL_Wheel', 'FR_Position', 'FR_Wheel'];(0.7838642001152039, 2786.0498046875, -0.7823302149772644, 2944.555908203125, -0.7853981852531433, 2784.454345703125, 0.7838642001152039, 2948.854248046875);(0.0, 0.0, 0.0, 0.0, 0.0, 0.0, 0.0, 0.0);(24.21000099182129, -34.970001220703125, -29.59000015258789, 5.380000114440918, -2.690000057220459, -2.690000057220459, 10.760000228881836, -8.069999694824219)
2024/05/03/13:27:02.599770;218312;1714768022;630537573;;['BL_Position', 'BL_Wheel', 'BR_Position', 'BR_Wheel', 'FL_Position', 'FL_Wheel', 'FR_Position', 'FR_Wheel'];(0.7823302149772644, 2786.0498046875, -0.7838642001152039, 2944.555908203125, -0.7853981852531433, 2784.454345703125, 0.7838642001152039, 2948.8525390625);(0.0, 0.0, 0.0, 0.0, 0.0, 0.0, 0.0, 0.0);(21.520000457763672, -34.970001220703125, -29.59000015258789, 5.380000114440918, -2.690000057220459, -2.690000057220459, 10.760000228881836, -8.069999694824219)
2024/05/03/13:27:02.612790;218313;1714768022;646535332;;['BL_Position', 'BL_Wheel', 'BR_Position', 'BR_Wheel', 'FL_Position', 'FL_Wheel', 'FR_Position', 'FR_Wheel'];(0.7838642001152039, 2786.0498046875, -0.7838642001152039, 2944.555908203125, -0.7853981852531433, 2784.454345703125, 0.7838642001152039, 2948.854248046875);(0.0, 0.0, 0.0, 0.0, 0.0, 0.0, 0.0, 0.0);(26.900001525878906, -34.970001220703125, -34.970001220703125, 5.380000114440918, -2.690000057220459, -2.690000057220459, 10.760000228881836, -8.069999694824219)
2024/05/03/13:27:02.630253;218314;1714768022;662560887;;['BL_Position', 'BL_Wheel', 'BR_Position', 'BR_Wheel', 'FL_Position', 'FL_Wheel', 'FR_Position', 'FR_Wheel'];(0.7838642001152039, 2786.0498046875, -0.7838642001152039, 2944.555908203125, -0.7853981852531433, 2784.454345703125, 0.7838642001152039, 2948.854248046875);(0.0, 0.0, 0.0, 0.0, 0.0, 0.0, 0.0, 0.0);(21.520000457763672, -34.970001220703125, -29.59000015258789, 5.380000114440918, -2.690000057220459, -2.690000057220459, 10.760000228881836, -8.069999694824219)
2024/05/03/13:27:02.644969;218315;1714768022;678489831;;['BL_Position', 'BL_Wheel', 'BR_Position', 'BR_Wheel', 'FL_Position', 'FL_Wheel', 'FR_Position', 'FR_Wheel'];(0.7838642001152039, 2786.0498046875, -0.7838642001152039, 2944.555908203125, -0.7853981852531433, 2784.454345703125, 0.7838642001152039, 2948.8525390625);(0.0, 0.0, 0.0, 0.0, 0.0, 0.0, 0.0, 0.0);(24.21000099182129, -34.970001220703125, -29.59000015258789, 5.380000114440918, -2.690000057220459, -2.690000057220459, 8.069999694824219, -8.069999694824219)
2024/05/03/13:27:02.661185;218316;1714768022;694531183;;['BL_Position', 'BL_Wheel', 'BR_Position', 'BR_Wheel', 'FL_Position', 'FL_Wheel', 'FR_Position', 'FR_Wheel'];(0.7838642001152039, 2786.0498046875, -0.7823302149772644, 2944.555908203125, -0.7853981852531433, 2784.454345703125, 0.7838642001152039, 2948.854248046875);(0.0, 0.0, 0.0, 0.0, 0.0, 0.0, 0.0, 0.0);(21.520000457763672, -34.970001220703125, -32.279998779296875, 5.380000114440918, -2.690000057220459, -2.690000057220459, 10.760000228881836, -8.069999694824219)
2024/05/03/13:27:02.677073;218317;1714768022;710474923;;['BL_Position', 'BL_Wheel', 'BR_Position', 'BR_Wheel', 'FL_Position', 'FL_Wheel', 'FR_Position', 'FR_Wheel'];(0.7823302149772644, 2786.0498046875, -0.7823302149772644, 2944.555908203125, -0.7853981852531433, 2784.454345703125, 0.7838642001152039, 2948.8525390625);(0.0, 0.0, 0.0, 0.0, 0.0, 0.0, 0.0, 0.0);(24.21000099182129, -34.970001220703125, -26.900001525878906, 5.380000114440918, -2.690000057220459, -2.690000057220459, 10.760000228881836, -8.069999694824219)
2024/05/03/13:27:02.703041;218318;1714768022;726499664;;['BL_Position', 'BL_Wheel', 'BR_Position', 'BR_Wheel', 'FL_Position', 'FL_Wheel', 'FR_Position', 'FR_Wheel'];(0.7823302149772644, 2786.0498046875, -0.7838642001152039, 2944.555908203125, -0.7853981852531433, 2784.454345703125, 0.7838642001152039, 2948.8525390625);(0.0, 0.0, 0.0, 0.0, 0.0, 0.0, 0.0, 0.0);(21.520000457763672, -34.970001220703125, -32.279998779296875, 5.380000114440918, -2.690000057220459, -2.690000057220459, 10.760000228881836, -8.069999694824219)
2024/05/03/13:27:02.709009;218319;1714768022;742491441;;['BL_Position', 'BL_Wheel', 'BR_Position', 'BR_Wheel', 'FL_Position', 'FL_Wheel', 'FR_Position', 'FR_Wheel'];(0.7823302149772644, 2786.0498046875, -0.7838642001152039, 2944.554443359375, -0.7853981852531433, 2784.454345703125, 0.7838642001152039, 2948.854248046875);(0.0, 0.0, 0.0, 0.0, 0.0, 0.0, 0.0, 0.0);(21.520000457763672, -34.970001220703125, -29.59000015258789, 5.380000114440918, -2.690000057220459, -2.690000057220459, 10.760000228881836, -8.069999694824219)
2024/05/03/13:27:02.737211;218320;1714768022;758523978;;['BL_Position', 'BL_Wheel', 'BR_Position', 'BR_Wheel', 'FL_Position', 'FL_Wheel', 'FR_Position', 'FR_Wheel'];(0.7823302149772644, 2786.0498046875, -0.7823302149772644, 2944.555908203125, -0.7853981852531433, 2784.454345703125, 0.7838642001152039, 2948.854248046875);(0.0, 0.0, 0.0, 0.0, 0.0, 0.0, 0.0, 0.0);(21.520000457763672, -34.970001220703125, -29.59000015258789, 5.380000114440918, -2.690000057220459, -2.690000057220459, 10.760000228881836, -8.069999694824219)
2024/05/03/13:27:02.746161;218321;1714768022;774561181;;['BL_Position', 'BL_Wheel', 'BR_Position', 'BR_Wheel', 'FL_Position', 'FL_Wheel', 'FR_Position', 'FR_Wheel'];(0.7838642001152039, 2786.0498046875, -0.7823302149772644, 2944.555908203125, -0.7853981852531433, 2784.454345703125, 0.7838642001152039, 2948.854248046875);(0.0, 0.0, 0.0, 0.0, 0.0, 0.0, 0.0, 0.0);(24.21000099182129, -34.970001220703125, -26.900001525878906, 5.380000114440918, -2.690000057220459, -2.690000057220459, 10.760000228881836, -8.069999694824219)
2024/05/03/13:27:02.758216;218322;1714768022;790522347;;['BL_Position', 'BL_Wheel', 'BR_Position', 'BR_Wheel', 'FL_Position', 'FL_Wheel', 'FR_Position', 'FR_Wheel'];(0.7838642001152039, 2786.0498046875, -0.7823302149772644, 2944.555908203125, -0.7853981852531433, 2784.454345703125, 0.7838642001152039, 2948.8525390625);(0.0, 0.0, 0.0, 0.0, 0.0, 0.0, 0.0, 0.0);(29.59000015258789, -34.970001220703125, -29.59000015258789, 5.380000114440918, -2.690000057220459, -2.690000057220459, 10.760000228881836, -8.069999694824219)
2024/05/03/13:27:02.774502;218323;1714768022;806946606;;['BL_Position', 'BL_Wheel', 'BR_Position', 'BR_Wheel', 'FL_Position', 'FL_Wheel', 'FR_Position', 'FR_Wheel'];(0.7838642001152039, 2786.0498046875, -0.7838642001152039, 2944.555908203125, -0.7853981852531433, 2784.454345703125, 0.7838642001152039, 2948.854248046875);(0.0, 0.0, 0.0, 0.0, 0.0, 0.0, 0.0, 0.0);(26.900001525878906, -34.970001220703125, -32.279998779296875, 5.380000114440918, -2.690000057220459, -2.690000057220459, 10.760000228881836, -8.069999694824219)
2024/05/03/13:27:02.789985;218324;1714768022;822533587;;['BL_Position', 'BL_Wheel', 'BR_Position', 'BR_Wheel', 'FL_Position', 'FL_Wheel', 'FR_Position', 'FR_Wheel'];(0.7838642001152039, 2786.0498046875, -0.7838642001152039, 2944.555908203125, -0.7853981852531433, 2784.454345703125, 0.7838642001152039, 2948.854248046875);(0.0, 0.0, 0.0, 0.0, 0.0, 0.0, 0.0, 0.0);(26.900001525878906, -34.970001220703125, -26.900001525878906, 5.380000114440918, -2.690000057220459, -2.690000057220459, 10.760000228881836, -8.069999694824219)
2024/05/03/13:27:02.804509;218325;1714768022;838624180;;['BL_Position', 'BL_Wheel', 'BR_Position', 'BR_Wheel', 'FL_Position', 'FL_Wheel', 'FR_Position', 'FR_Wheel'];(0.7838642001152039, 2786.0498046875, -0.7838642001152039, 2944.555908203125, -0.7853981852531433, 2784.454345703125, 0.7838642001152039, 2948.854248046875);(0.0, 0.0, 0.0, 0.0, 0.0, 0.0, 0.0, 0.0);(24.21000099182129, -34.970001220703125, -26.900001525878906, 5.380000114440918, -2.690000057220459, -2.690000057220459, 10.760000228881836, -8.069999694824219)
2024/05/03/13:27:02.827812;218326;1714768022;854540013;;['BL_Position', 'BL_Wheel', 'BR_Position', 'BR_Wheel', 'FL_Position', 'FL_Wheel', 'FR_Position', 'FR_Wheel'];(0.7838642001152039, 2786.0498046875, -0.7838642001152039, 2944.555908203125, -0.7853981852531433, 2784.454345703125, 0.7838642001152039, 2948.8525390625);(0.0, 0.0, 0.0, 0.0, 0.0, 0.0, 0.0, 0.0);(24.21000099182129, -34.970001220703125, -29.59000015258789, 5.380000114440918, -2.690000057220459, -2.690000057220459, 10.760000228881836, -8.069999694824219)
2024/05/03/13:27:02.837818;218327;1714768022;870547068;;['BL_Position', 'BL_Wheel', 'BR_Position', 'BR_Wheel', 'FL_Position', 'FL_Wheel', 'FR_Position', 'FR_Wheel'];(0.7823302149772644, 2786.0498046875, -0.7823302149772644, 2944.555908203125, -0.7853981852531433, 2784.454345703125, 0.7838642001152039, 2948.854248046875);(0.0, 0.0, 0.0, 0.0, 0.0, 0.0, 0.0, 0.0);(29.59000015258789, -34.970001220703125, -29.59000015258789, 5.380000114440918, -2.690000057220459, -2.690000057220459, 10.760000228881836, -8.069999694824219)
2024/05/03/13:27:02.853157;218328;1714768022;886569030;;['BL_Position', 'BL_Wheel', 'BR_Position', 'BR_Wheel', 'FL_Position', 'FL_Wheel', 'FR_Position', 'FR_Wheel'];(0.7823302149772644, 2786.0498046875, -0.7823302149772644, 2944.555908203125, -0.7853981852531433, 2784.454345703125, 0.7838642001152039, 2948.854248046875);(0.0, 0.0, 0.0, 0.0, 0.0, 0.0, 0.0, 0.0);(26.900001525878906, -34.970001220703125, -26.900001525878906, 5.380000114440918, -2.690000057220459, -2.690000057220459, 10.760000228881836, -8.069999694824219)
2024/05/03/13:27:02.868970;218329;1714768022;902500697;;['BL_Position', 'BL_Wheel', 'BR_Position', 'BR_Wheel', 'FL_Position', 'FL_Wheel', 'FR_Position', 'FR_Wheel'];(0.7823302149772644, 2786.0498046875, -0.7838642001152039, 2944.555908203125, -0.7853981852531433, 2784.454345703125, 0.7838642001152039, 2948.8525390625);(0.0, 0.0, 0.0, 0.0, 0.0, 0.0, 0.0, 0.0);(26.900001525878906, -34.970001220703125, -26.900001525878906, 5.380000114440918, -2.690000057220459, -2.690000057220459, 10.760000228881836, -8.069999694824219)
2024/05/03/13:27:02.884789;218330;1714768022;918572919;;['BL_Position', 'BL_Wheel', 'BR_Position', 'BR_Wheel', 'FL_Position', 'FL_Wheel', 'FR_Position', 'FR_Wheel'];(0.7823302149772644, 2786.0498046875, -0.7838642001152039, 2944.555908203125, -0.7853981852531433, 2784.454345703125, 0.7838642001152039, 2948.8525390625);(0.0, 0.0, 0.0, 0.0, 0.0, 0.0, 0.0, 0.0);(21.520000457763672, -34.970001220703125, -26.900001525878906, 5.380000114440918, -2.690000057220459, -2.690000057220459, 10.760000228881836, -8.069999694824219)
2024/05/03/13:27:02.908742;218331;1714768022;934593844;;['BL_Position', 'BL_Wheel', 'BR_Position', 'BR_Wheel', 'FL_Position', 'FL_Wheel', 'FR_Position', 'FR_Wheel'];(0.7823302149772644, 2786.0498046875, -0.7838642001152039, 2944.555908203125, -0.7853981852531433, 2784.454345703125, 0.7838642001152039, 2948.8525390625);(0.0, 0.0, 0.0, 0.0, 0.0, 0.0, 0.0, 0.0);(24.21000099182129, -34.970001220703125, -29.59000015258789, 5.380000114440918, -2.690000057220459, -2.690000057220459, 10.760000228881836, -8.069999694824219)
2024/05/03/13:27:02.931343;218332;1714768022;950508807;;['BL_Position', 'BL_Wheel', 'BR_Position', 'BR_Wheel', 'FL_Position', 'FL_Wheel', 'FR_Position', 'FR_Wheel'];(0.7838642001152039, 2786.0498046875, -0.7823302149772644, 2944.555908203125, -0.7853981852531433, 2784.454345703125, 0.7838642001152039, 2948.854248046875);(0.0, 0.0, 0.0, 0.0, 0.0, 0.0, 0.0, 0.0);(24.21000099182129, -34.970001220703125, -29.59000015258789, 5.380000114440918, -2.690000057220459, -2.690000057220459, 10.760000228881836, -8.069999694824219)
2024/05/03/13:27:02.942364;218333;1714768022;966508566;;['BL_Position', 'BL_Wheel', 'BR_Position', 'BR_Wheel', 'FL_Position', 'FL_Wheel', 'FR_Position', 'FR_Wheel'];(0.7838642001152039, 2786.0498046875, -0.7838642001152039, 2944.554443359375, -0.7853981852531433, 2784.454345703125, 0.7838642001152039, 2948.854248046875);(0.0, 0.0, 0.0, 0.0, 0.0, 0.0, 0.0, 0.0);(26.900001525878906, -34.970001220703125, -29.59000015258789, 5.380000114440918, -2.690000057220459, -2.690000057220459, 10.760000228881836, -8.069999694824219)
2024/05/03/13:27:02.953666;218334;1714768022;982589732;;['BL_Position', 'BL_Wheel', 'BR_Position', 'BR_Wheel', 'FL_Position', 'FL_Wheel', 'FR_Position', 'FR_Wheel'];(0.7838642001152039, 2786.0498046875, -0.7838642001152039, 2944.554443359375, -0.7853981852531433, 2784.454345703125, 0.7838642001152039, 2948.854248046875);(0.0, 0.0, 0.0, 0.0, 0.0, 0.0, 0.0, 0.0);(26.900001525878906, -34.970001220703125, -29.59000015258789, 5.380000114440918, -2.690000057220459, -2.690000057220459, 10.760000228881836, -8.069999694824219)
2024/05/03/13:27:02.964401;218335;1714768022;998515935;;['BL_Position', 'BL_Wheel', 'BR_Position', 'BR_Wheel', 'FL_Position', 'FL_Wheel', 'FR_Position', 'FR_Wheel'];(0.7823302149772644, 2786.0498046875, -0.7823302149772644, 2944.555908203125, -0.7853981852531433, 2784.454345703125, 0.7838642001152039, 2948.8525390625);(0.0, 0.0, 0.0, 0.0, 0.0, 0.0, 0.0, 0.0);(21.520000457763672, -34.970001220703125, -29.59000015258789, 5.380000114440918, -2.690000057220459, -2.690000057220459, 10.760000228881836, -8.069999694824219)
2024/05/03/13:27:02.995258;218336;1714768023;14550583;;['BL_Position', 'BL_Wheel', 'BR_Position', 'BR_Wheel', 'FL_Position', 'FL_Wheel', 'FR_Position', 'FR_Wheel'];(0.7823302149772644, 2786.0498046875, -0.7838642001152039, 2944.555908203125, -0.7853981852531433, 2784.454345703125, 0.7838642001152039, 2948.8525390625);(0.0, 0.0, 0.0, 0.0, 0.0, 0.0, 0.0, 0.0);(29.59000015258789, -34.970001220703125, -26.900001525878906, 5.380000114440918, -2.690000057220459, -2.690000057220459, 10.760000228881836, -8.069999694824219)
2024/05/03/13:27:03.011925;218337;1714768023;30480842;;['BL_Position', 'BL_Wheel', 'BR_Position', 'BR_Wheel', 'FL_Position', 'FL_Wheel', 'FR_Position', 'FR_Wheel'];(0.7823302149772644, 2786.0498046875, -0.7823302149772644, 2944.555908203125, -0.7853981852531433, 2784.454345703125, 0.7838642001152039, 2948.854248046875);(0.0, 0.0, 0.0, 0.0, 0.0, 0.0, 0.0, 0.0);(21.520000457763672, -34.970001220703125, -29.59000015258789, 5.380000114440918, -2.690000057220459, -2.690000057220459, 10.760000228881836, -8.069999694824219)
2024/05/03/13:27:03.018803;218338;1714768023;46592768;;['BL_Position', 'BL_Wheel', 'BR_Position', 'BR_Wheel', 'FL_Position', 'FL_Wheel', 'FR_Position', 'FR_Wheel'];(0.7838642001152039, 2786.0498046875, -0.7838642001152039, 2944.555908203125, -0.7853981852531433, 2784.454345703125, 0.7838642001152039, 2948.8525390625);(0.0, 0.0, 0.0, 0.0, 0.0, 0.0, 0.0, 0.0);(24.21000099182129, -34.970001220703125, -26.900001525878906, 5.380000114440918, -2.690000057220459, -2.690000057220459, 10.760000228881836, -8.069999694824219)
2024/05/03/13:27:03.039715;218339;1714768023;62521267;;['BL_Position', 'BL_Wheel', 'BR_Position', 'BR_Wheel', 'FL_Position', 'FL_Wheel', 'FR_Position', 'FR_Wheel'];(0.7823302149772644, 2786.0498046875, -0.7838642001152039, 2944.555908203125, -0.7853981852531433, 2784.454345703125, 0.7838642001152039, 2948.854248046875);(0.0, 0.0, 0.0, 0.0, 0.0, 0.0, 0.0, 0.0);(21.520000457763672, -34.970001220703125, -32.279998779296875, 5.380000114440918, -2.690000057220459, -2.690000057220459, 10.760000228881836, -8.069999694824219)
2024/05/03/13:27:03.044395;218340;1714768023;78641693;;['BL_Position', 'BL_Wheel', 'BR_Position', 'BR_Wheel', 'FL_Position', 'FL_Wheel', 'FR_Position', 'FR_Wheel'];(0.7838642001152039, 2786.0498046875, -0.7823302149772644, 2944.555908203125, -0.7853981852531433, 2784.454345703125, 0.7838642001152039, 2948.854248046875);(0.0, 0.0, 0.0, 0.0, 0.0, 0.0, 0.0, 0.0);(24.21000099182129, -34.970001220703125, -26.900001525878906, 5.380000114440918, -2.690000057220459, -2.690000057220459, 10.760000228881836, -8.069999694824219)
2024/05/03/13:27:03.062434;218341;1714768023;95122600;;['BL_Position', 'BL_Wheel', 'BR_Position', 'BR_Wheel', 'FL_Position', 'FL_Wheel', 'FR_Position', 'FR_Wheel'];(0.7823302149772644, 2786.0498046875, -0.7838642001152039, 2944.555908203125, -0.7853981852531433, 2784.454345703125, 0.7838642001152039, 2948.8525390625);(0.0, 0.0, 0.0, 0.0, 0.0, 0.0, 0.0, 0.0);(26.900001525878906, -34.970001220703125, -26.900001525878906, 5.380000114440918, -2.690000057220459, -2.690000057220459, 10.760000228881836, -8.069999694824219)
2024/05/03/13:27:03.078805;218342;1714768023;110524266;;['BL_Position', 'BL_Wheel', 'BR_Position', 'BR_Wheel', 'FL_Position', 'FL_Wheel', 'FR_Position', 'FR_Wheel'];(0.7823302149772644, 2786.0498046875, -0.7823302149772644, 2944.555908203125, -0.7853981852531433, 2784.454345703125, 0.7838642001152039, 2948.8525390625);(0.0, 0.0, 0.0, 0.0, 0.0, 0.0, 0.0, 0.0);(24.21000099182129, -34.970001220703125, -29.59000015258789, 5.380000114440918, -2.690000057220459, -2.690000057220459, 10.760000228881836, -8.069999694824219)
2024/05/03/13:27:03.093055;218343;1714768023;126485766;;['BL_Position', 'BL_Wheel', 'BR_Position', 'BR_Wheel', 'FL_Position', 'FL_Wheel', 'FR_Position', 'FR_Wheel'];(0.7838642001152039, 2786.0498046875, -0.7838642001152039, 2944.555908203125, -0.7853981852531433, 2784.454345703125, 0.7838642001152039, 2948.854248046875);(0.0, 0.0, 0.0, 0.0, 0.0, 0.0, 0.0, 0.0);(24.21000099182129, -34.970001220703125, -29.59000015258789, 5.380000114440918, -2.690000057220459, -2.690000057220459, 10.760000228881836, -8.069999694824219)
2024/05/03/13:27:03.111559;218344;1714768023;142566858;;['BL_Position', 'BL_Wheel', 'BR_Position', 'BR_Wheel', 'FL_Position', 'FL_Wheel', 'FR_Position', 'FR_Wheel'];(0.7838642001152039, 2786.0498046875, -0.7823302149772644, 2944.555908203125, -0.7853981852531433, 2784.454345703125, 0.7838642001152039, 2948.8525390625);(0.0, 0.0, 0.0, 0.0, 0.0, 0.0, 0.0, 0.0);(29.59000015258789, -34.970001220703125, -29.59000015258789, 5.380000114440918, -2.690000057220459, -2.690000057220459, 10.760000228881836, -8.069999694824219)
2024/05/03/13:27:03.135433;218345;1714768023;158593525;;['BL_Position', 'BL_Wheel', 'BR_Position', 'BR_Wheel', 'FL_Position', 'FL_Wheel', 'FR_Position', 'FR_Wheel'];(0.7823302149772644, 2786.0498046875, -0.7823302149772644, 2944.555908203125, -0.7853981852531433, 2784.454345703125, 0.7838642001152039, 2948.854248046875);(0.0, 0.0, 0.0, 0.0, 0.0, 0.0, 0.0, 0.0);(24.21000099182129, -34.970001220703125, -26.900001525878906, 5.380000114440918, -2.690000057220459, -2.690000057220459, 10.760000228881836, -8.069999694824219)
2024/05/03/13:27:03.143417;218346;1714768023;174537117;;['BL_Position', 'BL_Wheel', 'BR_Position', 'BR_Wheel', 'FL_Position', 'FL_Wheel', 'FR_Position', 'FR_Wheel'];(0.7823302149772644, 2786.0498046875, -0.7838642001152039, 2944.555908203125, -0.7853981852531433, 2784.454345703125, 0.7838642001152039, 2948.8525390625);(0.0, 0.0, 0.0, 0.0, 0.0, 0.0, 0.0, 0.0);(29.59000015258789, -34.970001220703125, -26.900001525878906, 5.380000114440918, -2.690000057220459, -2.690000057220459, 10.760000228881836, -8.069999694824219)
2024/05/03/13:27:03.158860;218347;1714768023;190575246;;['BL_Position', 'BL_Wheel', 'BR_Position', 'BR_Wheel', 'FL_Position', 'FL_Wheel', 'FR_Position', 'FR_Wheel'];(0.7838642001152039, 2786.0498046875, -0.7838642001152039, 2944.555908203125, -0.7853981852531433, 2784.454345703125, 0.7853981852531433, 2948.854248046875);(0.0, 0.0, 0.0, 0.0, 0.0, 0.0, 0.0, 0.0);(26.900001525878906, -34.970001220703125, -26.900001525878906, 5.380000114440918, -2.690000057220459, -2.690000057220459, 10.760000228881836, -8.069999694824219)
2024/05/03/13:27:03.174925;218348;1714768023;206526524;;['BL_Position', 'BL_Wheel', 'BR_Position', 'BR_Wheel', 'FL_Position', 'FL_Wheel', 'FR_Position', 'FR_Wheel'];(0.7823302149772644, 2786.0498046875, -0.7823302149772644, 2944.555908203125, -0.7853981852531433, 2784.454345703125, 0.7838642001152039, 2948.8525390625);(0.0, 0.0, 0.0, 0.0, 0.0, 0.0, 0.0, 0.0);(24.21000099182129, -34.970001220703125, -29.59000015258789, 5.380000114440918, -2.690000057220459, -2.690000057220459, 10.760000228881836, -8.069999694824219)
2024/05/03/13:27:03.190222;218349;1714768023;222575505;;['BL_Position', 'BL_Wheel', 'BR_Position', 'BR_Wheel', 'FL_Position', 'FL_Wheel', 'FR_Position', 'FR_Wheel'];(0.7823302149772644, 2786.0498046875, -0.7823302149772644, 2944.555908203125, -0.7853981852531433, 2784.454345703125, 0.7838642001152039, 2948.8525390625);(0.0, 0.0, 0.0, 0.0, 0.0, 0.0, 0.0, 0.0);(24.21000099182129, -34.970001220703125, -34.970001220703125, 5.380000114440918, -2.690000057220459, -2.690000057220459, 10.760000228881836, -8.069999694824219)
2024/05/03/13:27:03.216929;218350;1714768023;238543208;;['BL_Position', 'BL_Wheel', 'BR_Position', 'BR_Wheel', 'FL_Position', 'FL_Wheel', 'FR_Position', 'FR_Wheel'];(0.7823302149772644, 2786.0498046875, -0.7838642001152039, 2944.555908203125, -0.7853981852531433, 2784.454345703125, 0.7838642001152039, 2948.8525390625);(0.0, 0.0, 0.0, 0.0, 0.0, 0.0, 0.0, 0.0);(29.59000015258789, -34.970001220703125, -29.59000015258789, 5.380000114440918, -2.690000057220459, -2.690000057220459, 10.760000228881836, -8.069999694824219)
2024/05/03/13:27:03.222938;218351;1714768023;254787837;;['BL_Position', 'BL_Wheel', 'BR_Position', 'BR_Wheel', 'FL_Position', 'FL_Wheel', 'FR_Position', 'FR_Wheel'];(0.7838642001152039, 2786.0498046875, -0.7838642001152039, 2944.554443359375, -0.7853981852531433, 2784.454345703125, 0.7838642001152039, 2948.8525390625);(0.0, 0.0, 0.0, 0.0, 0.0, 0.0, 0.0, 0.0);(21.520000457763672, -34.970001220703125, -29.59000015258789, 5.380000114440918, -2.690000057220459, -2.690000057220459, 10.760000228881836, -8.069999694824219)
2024/05/03/13:27:03.240172;218352;1714768023;270565226;;['BL_Position', 'BL_Wheel', 'BR_Position', 'BR_Wheel', 'FL_Position', 'FL_Wheel', 'FR_Position', 'FR_Wheel'];(0.7838642001152039, 2786.0498046875, -0.7823302149772644, 2944.555908203125, -0.7853981852531433, 2784.454345703125, 0.7838642001152039, 2948.8525390625);(0.0, 0.0, 0.0, 0.0, 0.0, 0.0, 0.0, 0.0);(26.900001525878906, -34.970001220703125, -26.900001525878906, 5.380000114440918, -2.690000057220459, -2.690000057220459, 10.760000228881836, -8.069999694824219)
2024/05/03/13:27:03.253046;218353;1714768023;286578170;;['BL_Position', 'BL_Wheel', 'BR_Position', 'BR_Wheel', 'FL_Position', 'FL_Wheel', 'FR_Position', 'FR_Wheel'];(0.7838642001152039, 2786.0498046875, -0.7838642001152039, 2944.555908203125, -0.7853981852531433, 2784.454345703125, 0.7853981852531433, 2948.854248046875);(0.0, 0.0, 0.0, 0.0, 0.0, 0.0, 0.0, 0.0);(26.900001525878906, -34.970001220703125, -32.279998779296875, 5.380000114440918, -2.690000057220459, -2.690000057220459, 10.760000228881836, -8.069999694824219)
2024/05/03/13:27:03.271577;218354;1714768023;302508484;;['BL_Position', 'BL_Wheel', 'BR_Position', 'BR_Wheel', 'FL_Position', 'FL_Wheel', 'FR_Position', 'FR_Wheel'];(0.7823302149772644, 2786.0498046875, -0.7823302149772644, 2944.555908203125, -0.7853981852531433, 2784.454345703125, 0.7838642001152039, 2948.8525390625);(0.0, 0.0, 0.0, 0.0, 0.0, 0.0, 0.0, 0.0);(21.520000457763672, -34.970001220703125, -26.900001525878906, 5.380000114440918, -2.690000057220459, -2.690000057220459, 10.760000228881836, -8.069999694824219)
2024/05/03/13:27:03.284996;218355;1714768023;318485873;;['BL_Position', 'BL_Wheel', 'BR_Position', 'BR_Wheel', 'FL_Position', 'FL_Wheel', 'FR_Position', 'FR_Wheel'];(0.7838642001152039, 2786.0498046875, -0.7838642001152039, 2944.555908203125, -0.7853981852531433, 2784.454345703125, 0.7838642001152039, 2948.8525390625);(0.0, 0.0, 0.0, 0.0, 0.0, 0.0, 0.0, 0.0);(21.520000457763672, -34.970001220703125, -34.970001220703125, 5.380000114440918, -2.690000057220459, -2.690000057220459, 10.760000228881836, -8.069999694824219)
2024/05/03/13:27:03.301104;218356;1714768023;334545243;;['BL_Position', 'BL_Wheel', 'BR_Position', 'BR_Wheel', 'FL_Position', 'FL_Wheel', 'FR_Position', 'FR_Wheel'];(0.7838642001152039, 2786.0498046875, -0.7838642001152039, 2944.555908203125, -0.7853981852531433, 2784.454345703125, 0.7838642001152039, 2948.854248046875);(0.0, 0.0, 0.0, 0.0, 0.0, 0.0, 0.0, 0.0);(24.21000099182129, -34.970001220703125, -26.900001525878906, 5.380000114440918, -2.690000057220459, -2.690000057220459, 10.760000228881836, -8.069999694824219)
2024/05/03/13:27:03.316881;218357;1714768023;350530520;;['BL_Position', 'BL_Wheel', 'BR_Position', 'BR_Wheel', 'FL_Position', 'FL_Wheel', 'FR_Position', 'FR_Wheel'];(0.7823302149772644, 2786.0498046875, -0.7823302149772644, 2944.555908203125, -0.7853981852531433, 2784.454345703125, 0.7838642001152039, 2948.8525390625);(0.0, 0.0, 0.0, 0.0, 0.0, 0.0, 0.0, 0.0);(21.520000457763672, -34.970001220703125, -34.970001220703125, 5.380000114440918, -2.690000057220459, -2.690000057220459, 10.760000228881836, -8.069999694824219)
2024/05/03/13:27:03.340258;218358;1714768023;366496131;;['BL_Position', 'BL_Wheel', 'BR_Position', 'BR_Wheel', 'FL_Position', 'FL_Wheel', 'FR_Position', 'FR_Wheel'];(0.7838642001152039, 2786.0498046875, -0.7838642001152039, 2944.555908203125, -0.7853981852531433, 2784.454345703125, 0.7838642001152039, 2948.8525390625);(0.0, 0.0, 0.0, 0.0, 0.0, 0.0, 0.0, 0.0);(26.900001525878906, -34.970001220703125, -29.59000015258789, 5.380000114440918, -2.690000057220459, -2.690000057220459, 10.760000228881836, -8.069999694824219)
2024/05/03/13:27:03.349698;218359;1714768023;382613131;;['BL_Position', 'BL_Wheel', 'BR_Position', 'BR_Wheel', 'FL_Position', 'FL_Wheel', 'FR_Position', 'FR_Wheel'];(0.7838642001152039, 2786.0498046875, -0.7838642001152039, 2944.554443359375, -0.7853981852531433, 2784.454345703125, 0.7838642001152039, 2948.854248046875);(0.0, 0.0, 0.0, 0.0, 0.0, 0.0, 0.0, 0.0);(29.59000015258789, -34.970001220703125, -26.900001525878906, 5.380000114440918, -2.690000057220459, -2.690000057220459, 10.760000228881836, -8.069999694824219)
2024/05/03/13:27:03.365618;218360;1714768023;398494242;;['BL_Position', 'BL_Wheel', 'BR_Position', 'BR_Wheel', 'FL_Position', 'FL_Wheel', 'FR_Position', 'FR_Wheel'];(0.7823302149772644, 2786.048095703125, -0.7838642001152039, 2944.555908203125, -0.7853981852531433, 2784.454345703125, 0.7838642001152039, 2948.854248046875);(0.0, 0.0, 0.0, 0.0, 0.0, 0.0, 0.0, 0.0);(18.829999923706055, -34.970001220703125, -29.59000015258789, 5.380000114440918, -2.690000057220459, -2.690000057220459, 10.760000228881836, -8.069999694824219)
2024/05/03/13:27:03.383694;218361;1714768023;414544686;;['BL_Position', 'BL_Wheel', 'BR_Position', 'BR_Wheel', 'FL_Position', 'FL_Wheel', 'FR_Position', 'FR_Wheel'];(0.7838642001152039, 2786.0498046875, -0.7823302149772644, 2944.555908203125, -0.7853981852531433, 2784.454345703125, 0.7838642001152039, 2948.8525390625);(0.0, 0.0, 0.0, 0.0, 0.0, 0.0, 0.0, 0.0);(29.59000015258789, -34.970001220703125, -26.900001525878906, 5.380000114440918, -2.690000057220459, -2.690000057220459, 10.760000228881836, -8.069999694824219)
2024/05/03/13:27:03.397637;218362;1714768023;430527204;;['BL_Position', 'BL_Wheel', 'BR_Position', 'BR_Wheel', 'FL_Position', 'FL_Wheel', 'FR_Position', 'FR_Wheel'];(0.7838642001152039, 2786.0498046875, -0.7838642001152039, 2944.555908203125, -0.7853981852531433, 2784.454345703125, 0.7838642001152039, 2948.8525390625);(0.0, 0.0, 0.0, 0.0, 0.0, 0.0, 0.0, 0.0);(26.900001525878906, -34.970001220703125, -26.900001525878906, 5.380000114440918, -2.690000057220459, -2.690000057220459, 10.760000228881836, -8.069999694824219)
2024/05/03/13:27:03.414194;218363;1714768023;446477852;;['BL_Position', 'BL_Wheel', 'BR_Position', 'BR_Wheel', 'FL_Position', 'FL_Wheel', 'FR_Position', 'FR_Wheel'];(0.7838642001152039, 2786.0498046875, -0.7823302149772644, 2944.555908203125, -0.7853981852531433, 2784.454345703125, 0.7838642001152039, 2948.8525390625);(0.0, 0.0, 0.0, 0.0, 0.0, 0.0, 0.0, 0.0);(21.520000457763672, -34.970001220703125, -34.970001220703125, 5.380000114440918, -2.690000057220459, -2.690000057220459, 10.760000228881836, -8.069999694824219)
2024/05/03/13:27:03.442842;218364;1714768023;462616648;;['BL_Position', 'BL_Wheel', 'BR_Position', 'BR_Wheel', 'FL_Position', 'FL_Wheel', 'FR_Position', 'FR_Wheel'];(0.7823302149772644, 2786.0498046875, -0.7823302149772644, 2944.555908203125, -0.7853981852531433, 2784.454345703125, 0.7838642001152039, 2948.854248046875);(0.0, 0.0, 0.0, 0.0, 0.0, 0.0, 0.0, 0.0);(18.829999923706055, -34.970001220703125, -29.59000015258789, 5.380000114440918, -2.690000057220459, -2.690000057220459, 10.760000228881836, -8.069999694824219)
2024/05/03/13:27:03.456070;218365;1714768023;478593406;;['BL_Position', 'BL_Wheel', 'BR_Position', 'BR_Wheel', 'FL_Position', 'FL_Wheel', 'FR_Position', 'FR_Wheel'];(0.7823302149772644, 2786.0498046875, -0.7838642001152039, 2944.555908203125, -0.7853981852531433, 2784.454345703125, 0.7838642001152039, 2948.8525390625);(0.0, 0.0, 0.0, 0.0, 0.0, 0.0, 0.0, 0.0);(29.59000015258789, -34.970001220703125, -26.900001525878906, 5.380000114440918, -2.690000057220459, -2.690000057220459, 10.760000228881836, -8.069999694824219)
