time;.header.seq;.header.stamp.secs;.header.stamp.nsecs;.header.frame_id;.name;.position;.velocity;.effort
2024/05/03/13:00:37.081373;119213;1714766437;104471986;;['BL_Position', 'BL_Wheel', 'BR_Position', 'BR_Wheel', 'FL_Position', 'FL_Wheel', 'FR_Position', 'FR_Wheel'];(0.0, 1686.8114013671875, -0.004601942375302315, 1739.6370849609375, 0.0015339808305725455, 1684.626953125, 0.0, 1743.8968505859375);(0.0, 0.0, 0.0, 0.0, 0.0, 0.0, 0.0, 0.0);(0.0, 40.35000228881836, 56.4900016784668, 5.380000114440918, -16.139999389648438, -2.690000057220459, 2.690000057220459, -24.21000099182129)
2024/05/03/13:00:37.097493;119214;1714766437;120470652;;['BL_Position', 'BL_Wheel', 'BR_Position', 'BR_Wheel', 'FL_Position', 'FL_Wheel', 'FR_Position', 'FR_Wheel'];(0.0, 1686.8114013671875, -0.004601942375302315, 1739.6370849609375, 0.003067961661145091, 1684.626953125, 0.0, 1743.8968505859375);(0.0, 0.0, 0.0, 0.0, 0.0, 0.0, 0.0, 0.0);(0.0, 40.35000228881836, 56.4900016784668, 5.380000114440918, -16.139999389648438, -2.690000057220459, 2.690000057220459, -24.21000099182129)
2024/05/03/13:00:37.112099;119215;1714766437;136463966;;['BL_Position', 'BL_Wheel', 'BR_Position', 'BR_Wheel', 'FL_Position', 'FL_Wheel', 'FR_Position', 'FR_Wheel'];(0.0, 1686.8114013671875, -0.004601942375302315, 1739.6370849609375, 0.0015339808305725455, 1684.626953125, 0.0, 1743.8968505859375);(0.0, 0.0, 0.0, 0.0, 0.0, 0.0, 0.0, 0.0);(0.0, 40.35000228881836, 56.4900016784668, 5.380000114440918, -16.139999389648438, -2.690000057220459, 2.690000057220459, -24.21000099182129)
2024/05/03/13:00:37.135435;119216;1714766437;152482483;;['BL_Position', 'BL_Wheel', 'BR_Position', 'BR_Wheel', 'FL_Position', 'FL_Wheel', 'FR_Position', 'FR_Wheel'];(0.0, 1686.8114013671875, -0.004601942375302315, 1739.635498046875, 0.0015339808305725455, 1684.626953125, 0.0, 1743.8968505859375);(0.0, 0.0, 0.0, 0.0, 0.0, 0.0, 0.0, 0.0);(0.0, 40.35000228881836, 56.4900016784668, 5.380000114440918, -18.829999923706055, -2.690000057220459, 2.690000057220459, -24.21000099182129)
2024/05/03/13:00:37.145636;119217;1714766437;168454519;;['BL_Position', 'BL_Wheel', 'BR_Position', 'BR_Wheel', 'FL_Position', 'FL_Wheel', 'FR_Position', 'FR_Wheel'];(0.0, 1686.8114013671875, -0.004601942375302315, 1739.635498046875, 0.003067961661145091, 1684.626953125, 0.0, 1743.8968505859375);(0.0, 0.0, 0.0, 0.0, 0.0, 0.0, 0.0, 0.0);(0.0, 40.35000228881836, 56.4900016784668, 5.380000114440918, -18.829999923706055, -2.690000057220459, 2.690000057220459, -24.21000099182129)
2024/05/03/13:00:37.161295;119218;1714766437;184453407;;['BL_Position', 'BL_Wheel', 'BR_Position', 'BR_Wheel', 'FL_Position', 'FL_Wheel', 'FR_Position', 'FR_Wheel'];(0.0, 1686.8114013671875, -0.004601942375302315, 1739.6370849609375, 0.0015339808305725455, 1684.626953125, 0.0, 1743.8968505859375);(0.0, 0.0, 0.0, 0.0, 0.0, 0.0, 0.0, 0.0);(2.690000057220459, 40.35000228881836, 56.4900016784668, 5.380000114440918, -16.139999389648438, -2.690000057220459, 2.690000057220459, -24.21000099182129)
2024/05/03/13:00:37.177385;119219;1714766437;200435462;;['BL_Position', 'BL_Wheel', 'BR_Position', 'BR_Wheel', 'FL_Position', 'FL_Wheel', 'FR_Position', 'FR_Wheel'];(0.0, 1686.8114013671875, -0.004601942375302315, 1739.635498046875, 0.0015339808305725455, 1684.626953125, 0.0, 1743.8984375);(0.0, 0.0, 0.0, 0.0, 0.0, 0.0, 0.0, 0.0);(0.0, 40.35000228881836, 56.4900016784668, 5.380000114440918, -13.450000762939453, -2.690000057220459, 2.690000057220459, -24.21000099182129)
2024/05/03/13:00:37.193676;119220;1714766437;216491609;;['BL_Position', 'BL_Wheel', 'BR_Position', 'BR_Wheel', 'FL_Position', 'FL_Wheel', 'FR_Position', 'FR_Wheel'];(0.0015339808305725455, 1686.809814453125, -0.004601942375302315, 1739.635498046875, 0.0015339808305725455, 1684.626953125, 0.0, 1743.8968505859375);(0.0, 0.0, 0.0, 0.0, 0.0, 0.0, 0.0, 0.0);(2.690000057220459, 40.35000228881836, 56.4900016784668, 5.380000114440918, -18.829999923706055, -2.690000057220459, 2.690000057220459, -24.21000099182129)
2024/05/03/13:00:37.214962;119221;1714766437;232510553;;['BL_Position', 'BL_Wheel', 'BR_Position', 'BR_Wheel', 'FL_Position', 'FL_Wheel', 'FR_Position', 'FR_Wheel'];(0.0, 1686.8114013671875, -0.004601942375302315, 1739.6370849609375, 0.0015339808305725455, 1684.626953125, 0.0, 1743.8968505859375);(0.0, 0.0, 0.0, 0.0, 0.0, 0.0, 0.0, 0.0);(0.0, 40.35000228881836, 56.4900016784668, 5.380000114440918, -16.139999389648438, -2.690000057220459, 2.690000057220459, -24.21000099182129)
2024/05/03/13:00:37.227936;119222;1714766437;250439311;;['BL_Position', 'BL_Wheel', 'BR_Position', 'BR_Wheel', 'FL_Position', 'FL_Wheel', 'FR_Position', 'FR_Wheel'];(0.0, 1686.8114013671875, -0.004601942375302315, 1739.6370849609375, 0.003067961661145091, 1684.626953125, 0.0, 1743.8968505859375);(0.0, 0.0, 0.0, 0.0, 0.0, 0.0, 0.0, 0.0);(0.0, 40.35000228881836, 56.4900016784668, 5.380000114440918, -16.139999389648438, -2.690000057220459, 2.690000057220459, -24.21000099182129)
2024/05/03/13:00:37.246477;119223;1714766437;264488292;;['BL_Position', 'BL_Wheel', 'BR_Position', 'BR_Wheel', 'FL_Position', 'FL_Wheel', 'FR_Position', 'FR_Wheel'];(0.0, 1686.8114013671875, -0.004601942375302315, 1739.635498046875, 0.0015339808305725455, 1684.626953125, 0.0, 1743.8984375);(0.0, 0.0, 0.0, 0.0, 0.0, 0.0, 0.0, 0.0);(0.0, 40.35000228881836, 56.4900016784668, 5.380000114440918, -8.069999694824219, -2.690000057220459, 2.690000057220459, -24.21000099182129)
2024/05/03/13:00:37.255813;119224;1714766437;280466902;;['BL_Position', 'BL_Wheel', 'BR_Position', 'BR_Wheel', 'FL_Position', 'FL_Wheel', 'FR_Position', 'FR_Wheel'];(0.0, 1686.8114013671875, -0.004601942375302315, 1739.6370849609375, 0.003067961661145091, 1684.626953125, 0.0, 1743.8984375);(0.0, 0.0, 0.0, 0.0, 0.0, 0.0, 0.0, 0.0);(0.0, 40.35000228881836, 56.4900016784668, 5.380000114440918, -18.829999923706055, -2.690000057220459, 2.690000057220459, -24.21000099182129)
2024/05/03/13:00:37.273408;119225;1714766437;296463346;;['BL_Position', 'BL_Wheel', 'BR_Position', 'BR_Wheel', 'FL_Position', 'FL_Wheel', 'FR_Position', 'FR_Wheel'];(0.0, 1686.8114013671875, -0.004601942375302315, 1739.635498046875, 0.003067961661145091, 1684.626953125, 0.0, 1743.8968505859375);(0.0, 0.0, 0.0, 0.0, 0.0, 0.0, 0.0, 0.0);(2.690000057220459, 40.35000228881836, 61.87000274658203, 5.380000114440918, -18.829999923706055, -2.690000057220459, 2.690000057220459, -24.21000099182129)
2024/05/03/13:00:37.289043;119226;1714766437;312427493;;['BL_Position', 'BL_Wheel', 'BR_Position', 'BR_Wheel', 'FL_Position', 'FL_Wheel', 'FR_Position', 'FR_Wheel'];(0.0, 1686.8114013671875, -0.004601942375302315, 1739.6370849609375, 0.003067961661145091, 1684.626953125, 0.0, 1743.8968505859375);(0.0, 0.0, 0.0, 0.0, 0.0, 0.0, 0.0, 0.0);(0.0, 40.35000228881836, 56.4900016784668, 5.380000114440918, -16.139999389648438, -2.690000057220459, 2.690000057220459, -24.21000099182129)
2024/05/03/13:00:37.316885;119227;1714766437;328433418;;['BL_Position', 'BL_Wheel', 'BR_Position', 'BR_Wheel', 'FL_Position', 'FL_Wheel', 'FR_Position', 'FR_Wheel'];(0.0015339808305725455, 1686.8114013671875, -0.004601942375302315, 1739.6370849609375, 0.0015339808305725455, 1684.626953125, 0.0, 1743.8968505859375);(0.0, 0.0, 0.0, 0.0, 0.0, 0.0, 0.0, 0.0);(0.0, 40.35000228881836, 56.4900016784668, 5.380000114440918, -16.139999389648438, -2.690000057220459, 2.690000057220459, -24.21000099182129)
2024/05/03/13:00:37.321749;119228;1714766437;344443269;;['BL_Position', 'BL_Wheel', 'BR_Position', 'BR_Wheel', 'FL_Position', 'FL_Wheel', 'FR_Position', 'FR_Wheel'];(0.0, 1686.8114013671875, -0.004601942375302315, 1739.635498046875, 0.003067961661145091, 1684.626953125, 0.0, 1743.8968505859375);(0.0, 0.0, 0.0, 0.0, 0.0, 0.0, 0.0, 0.0);(0.0, 40.35000228881836, 56.4900016784668, 5.380000114440918, -18.829999923706055, -2.690000057220459, 2.690000057220459, -24.21000099182129)
2024/05/03/13:00:37.345897;119229;1714766437;360412509;;['BL_Position', 'BL_Wheel', 'BR_Position', 'BR_Wheel', 'FL_Position', 'FL_Wheel', 'FR_Position', 'FR_Wheel'];(0.0, 1686.8114013671875, -0.004601942375302315, 1739.635498046875, 0.003067961661145091, 1684.626953125, 0.0, 1743.8968505859375);(0.0, 0.0, 0.0, 0.0, 0.0, 0.0, 0.0, 0.0);(0.0, 40.35000228881836, 56.4900016784668, 5.380000114440918, -16.139999389648438, -2.690000057220459, 2.690000057220459, -24.21000099182129)
2024/05/03/13:00:37.353281;119230;1714766437;376404582;;['BL_Position', 'BL_Wheel', 'BR_Position', 'BR_Wheel', 'FL_Position', 'FL_Wheel', 'FR_Position', 'FR_Wheel'];(0.0, 1686.8114013671875, -0.004601942375302315, 1739.635498046875, 0.0015339808305725455, 1684.626953125, 0.0, 1743.8968505859375);(0.0, 0.0, 0.0, 0.0, 0.0, 0.0, 0.0, 0.0);(0.0, 40.35000228881836, 56.4900016784668, 5.380000114440918, -16.139999389648438, -2.690000057220459, 2.690000057220459, -24.21000099182129)
2024/05/03/13:00:37.369342;119231;1714766437;392426822;;['BL_Position', 'BL_Wheel', 'BR_Position', 'BR_Wheel', 'FL_Position', 'FL_Wheel', 'FR_Position', 'FR_Wheel'];(0.0015339808305725455, 1686.8114013671875, -0.004601942375302315, 1739.635498046875, 0.003067961661145091, 1684.626953125, 0.0, 1743.8968505859375);(0.0, 0.0, 0.0, 0.0, 0.0, 0.0, 0.0, 0.0);(0.0, 40.35000228881836, 56.4900016784668, 5.380000114440918, -16.139999389648438, -2.690000057220459, 2.690000057220459, -24.21000099182129)
2024/05/03/13:00:37.385227;119232;1714766437;408450784;;['BL_Position', 'BL_Wheel', 'BR_Position', 'BR_Wheel', 'FL_Position', 'FL_Wheel', 'FR_Position', 'FR_Wheel'];(0.0, 1686.8114013671875, -0.004601942375302315, 1739.6370849609375, 0.0015339808305725455, 1684.626953125, 0.0, 1743.8968505859375);(0.0, 0.0, 0.0, 0.0, 0.0, 0.0, 0.0, 0.0);(0.0, 40.35000228881836, 56.4900016784668, 5.380000114440918, -18.829999923706055, -2.690000057220459, 2.690000057220459, -24.21000099182129)
2024/05/03/13:00:37.401918;119233;1714766437;425182006;;['BL_Position', 'BL_Wheel', 'BR_Position', 'BR_Wheel', 'FL_Position', 'FL_Wheel', 'FR_Position', 'FR_Wheel'];(0.0, 1686.8114013671875, -0.004601942375302315, 1739.635498046875, 0.003067961661145091, 1684.626953125, 0.0, 1743.8968505859375);(0.0, 0.0, 0.0, 0.0, 0.0, 0.0, 0.0, 0.0);(0.0, 40.35000228881836, 56.4900016784668, 5.380000114440918, -16.139999389648438, -2.690000057220459, 2.690000057220459, -24.21000099182129)
2024/05/03/13:00:37.419625;119234;1714766437;442659171;;['BL_Position', 'BL_Wheel', 'BR_Position', 'BR_Wheel', 'FL_Position', 'FL_Wheel', 'FR_Position', 'FR_Wheel'];(0.0, 1686.8114013671875, -0.004601942375302315, 1739.6370849609375, 0.003067961661145091, 1684.626953125, 0.0, 1743.8968505859375);(0.0, 0.0, 0.0, 0.0, 0.0, 0.0, 0.0, 0.0);(0.0, 40.35000228881836, 56.4900016784668, 5.380000114440918, -16.139999389648438, -2.690000057220459, 2.690000057220459, -24.21000099182129)
2024/05/03/13:00:37.433914;119235;1714766437;456500282;;['BL_Position', 'BL_Wheel', 'BR_Position', 'BR_Wheel', 'FL_Position', 'FL_Wheel', 'FR_Position', 'FR_Wheel'];(0.0015339808305725455, 1686.8114013671875, -0.004601942375302315, 1739.635498046875, 0.003067961661145091, 1684.626953125, 0.0, 1743.8968505859375);(0.0, 0.0, 0.0, 0.0, 0.0, 0.0, 0.0, 0.0);(0.0, 40.35000228881836, 56.4900016784668, 5.380000114440918, -13.450000762939453, -2.690000057220459, 2.690000057220459, -24.21000099182129)
2024/05/03/13:00:37.453400;119236;1714766437;472477059;;['BL_Position', 'BL_Wheel', 'BR_Position', 'BR_Wheel', 'FL_Position', 'FL_Wheel', 'FR_Position', 'FR_Wheel'];(0.0, 1686.8114013671875, -0.004601942375302315, 1739.6370849609375, 0.003067961661145091, 1684.626953125, 0.0, 1743.8968505859375);(0.0, 0.0, 0.0, 0.0, 0.0, 0.0, 0.0, 0.0);(0.0, 40.35000228881836, 56.4900016784668, 5.380000114440918, -13.450000762939453, -2.690000057220459, 2.690000057220459, -24.21000099182129)
2024/05/03/13:00:37.467497;119237;1714766437;488487280;;['BL_Position', 'BL_Wheel', 'BR_Position', 'BR_Wheel', 'FL_Position', 'FL_Wheel', 'FR_Position', 'FR_Wheel'];(0.0, 1686.8114013671875, -0.004601942375302315, 1739.6370849609375, 0.003067961661145091, 1684.626953125, 0.0, 1743.8968505859375);(0.0, 0.0, 0.0, 0.0, 0.0, 0.0, 0.0, 0.0);(2.690000057220459, 40.35000228881836, 56.4900016784668, 5.380000114440918, -16.139999389648438, -2.690000057220459, 2.690000057220459, -24.21000099182129)
2024/05/03/13:00:37.481241;119238;1714766437;504524946;;['BL_Position', 'BL_Wheel', 'BR_Position', 'BR_Wheel', 'FL_Position', 'FL_Wheel', 'FR_Position', 'FR_Wheel'];(0.0, 1686.8114013671875, -0.004601942375302315, 1739.6370849609375, 0.003067961661145091, 1684.626953125, 0.0, 1743.8968505859375);(0.0, 0.0, 0.0, 0.0, 0.0, 0.0, 0.0, 0.0);(0.0, 40.35000228881836, 56.4900016784668, 5.380000114440918, -18.829999923706055, -2.690000057220459, 2.690000057220459, -24.21000099182129)
2024/05/03/13:00:37.496101;119239;1714766437;520438908;;['BL_Position', 'BL_Wheel', 'BR_Position', 'BR_Wheel', 'FL_Position', 'FL_Wheel', 'FR_Position', 'FR_Wheel'];(0.0, 1686.8114013671875, -0.004601942375302315, 1739.635498046875, 0.003067961661145091, 1684.626953125, 0.0, 1743.8984375);(0.0, 0.0, 0.0, 0.0, 0.0, 0.0, 0.0, 0.0);(2.690000057220459, 40.35000228881836, 56.4900016784668, 5.380000114440918, -16.139999389648438, -2.690000057220459, 2.690000057220459, -24.21000099182129)
2024/05/03/13:00:37.521932;119240;1714766437;536479296;;['BL_Position', 'BL_Wheel', 'BR_Position', 'BR_Wheel', 'FL_Position', 'FL_Wheel', 'FR_Position', 'FR_Wheel'];(0.0, 1686.8114013671875, -0.004601942375302315, 1739.6370849609375, 0.0015339808305725455, 1684.626953125, 0.0, 1743.8968505859375);(0.0, 0.0, 0.0, 0.0, 0.0, 0.0, 0.0, 0.0);(0.0, 40.35000228881836, 56.4900016784668, 5.380000114440918, -16.139999389648438, -2.690000057220459, 2.690000057220459, -24.21000099182129)
2024/05/03/13:00:37.529348;119241;1714766437;552472462;;['BL_Position', 'BL_Wheel', 'BR_Position', 'BR_Wheel', 'FL_Position', 'FL_Wheel', 'FR_Position', 'FR_Wheel'];(0.0015339808305725455, 1686.8114013671875, -0.004601942375302315, 1739.635498046875, 0.003067961661145091, 1684.626953125, 0.0, 1743.8968505859375);(0.0, 0.0, 0.0, 0.0, 0.0, 0.0, 0.0, 0.0);(0.0, 40.35000228881836, 56.4900016784668, 5.380000114440918, -16.139999389648438, -2.690000057220459, 2.690000057220459, -24.21000099182129)
2024/05/03/13:00:37.549422;119242;1714766437;568438572;;['BL_Position', 'BL_Wheel', 'BR_Position', 'BR_Wheel', 'FL_Position', 'FL_Wheel', 'FR_Position', 'FR_Wheel'];(0.0015339808305725455, 1686.8114013671875, -0.004601942375302315, 1739.635498046875, 0.0015339808305725455, 1684.626953125, 0.0, 1743.8968505859375);(0.0, 0.0, 0.0, 0.0, 0.0, 0.0, 0.0, 0.0);(0.0, 40.35000228881836, 56.4900016784668, 5.380000114440918, -18.829999923706055, -2.690000057220459, 2.690000057220459, -24.21000099182129)
2024/05/03/13:00:37.561707;119243;1714766437;584456423;;['BL_Position', 'BL_Wheel', 'BR_Position', 'BR_Wheel', 'FL_Position', 'FL_Wheel', 'FR_Position', 'FR_Wheel'];(0.0, 1686.809814453125, -0.004601942375302315, 1739.6370849609375, 0.003067961661145091, 1684.626953125, 0.0, 1743.8968505859375);(0.0, 0.0, 0.0, 0.0, 0.0, 0.0, 0.0, 0.0);(0.0, 40.35000228881836, 56.4900016784668, 5.380000114440918, -18.829999923706055, -2.690000057220459, 2.690000057220459, -24.21000099182129)
2024/05/03/13:00:37.577507;119244;1714766437;600499904;;['BL_Position', 'BL_Wheel', 'BR_Position', 'BR_Wheel', 'FL_Position', 'FL_Wheel', 'FR_Position', 'FR_Wheel'];(0.0, 1686.8114013671875, -0.004601942375302315, 1739.635498046875, 0.003067961661145091, 1684.626953125, 0.0, 1743.8968505859375);(0.0, 0.0, 0.0, 0.0, 0.0, 0.0, 0.0, 0.0);(0.0, 40.35000228881836, 56.4900016784668, 5.380000114440918, -16.139999389648438, -2.690000057220459, 2.690000057220459, -24.21000099182129)
2024/05/03/13:00:37.593874;119245;1714766437;616436606;;['BL_Position', 'BL_Wheel', 'BR_Position', 'BR_Wheel', 'FL_Position', 'FL_Wheel', 'FR_Position', 'FR_Wheel'];(0.0, 1686.809814453125, -0.004601942375302315, 1739.6370849609375, 0.003067961661145091, 1684.626953125, 0.0, 1743.8968505859375);(0.0, 0.0, 0.0, 0.0, 0.0, 0.0, 0.0, 0.0);(0.0, 40.35000228881836, 56.4900016784668, 5.380000114440918, -16.139999389648438, -2.690000057220459, 2.690000057220459, -24.21000099182129)
2024/05/03/13:00:37.609366;119246;1714766437;632425291;;['BL_Position', 'BL_Wheel', 'BR_Position', 'BR_Wheel', 'FL_Position', 'FL_Wheel', 'FR_Position', 'FR_Wheel'];(0.0, 1686.8114013671875, -0.004601942375302315, 1739.6370849609375, 0.003067961661145091, 1684.626953125, 0.0, 1743.8968505859375);(0.0, 0.0, 0.0, 0.0, 0.0, 0.0, 0.0, 0.0);(0.0, 40.35000228881836, 56.4900016784668, 5.380000114440918, -16.139999389648438, -2.690000057220459, 2.690000057220459, -24.21000099182129)
2024/05/03/13:00:37.624679;119247;1714766437;648767142;;['BL_Position', 'BL_Wheel', 'BR_Position', 'BR_Wheel', 'FL_Position', 'FL_Wheel', 'FR_Position', 'FR_Wheel'];(0.0, 1686.8114013671875, -0.004601942375302315, 1739.6370849609375, 0.0015339808305725455, 1684.626953125, 0.0, 1743.8968505859375);(0.0, 0.0, 0.0, 0.0, 0.0, 0.0, 0.0, 0.0);(0.0, 40.35000228881836, 56.4900016784668, 5.380000114440918, -18.829999923706055, -2.690000057220459, 2.690000057220459, -24.21000099182129)
2024/05/03/13:00:37.641834;119248;1714766437;664846104;;['BL_Position', 'BL_Wheel', 'BR_Position', 'BR_Wheel', 'FL_Position', 'FL_Wheel', 'FR_Position', 'FR_Wheel'];(0.0, 1686.809814453125, -0.004601942375302315, 1739.6370849609375, 0.003067961661145091, 1684.626953125, 0.0, 1743.8968505859375);(0.0, 0.0, 0.0, 0.0, 0.0, 0.0, 0.0, 0.0);(0.0, 40.35000228881836, 56.4900016784668, 5.380000114440918, -18.829999923706055, -2.690000057220459, 2.690000057220459, -24.21000099182129)
2024/05/03/13:00:37.662073;119249;1714766437;680462825;;['BL_Position', 'BL_Wheel', 'BR_Position', 'BR_Wheel', 'FL_Position', 'FL_Wheel', 'FR_Position', 'FR_Wheel'];(0.0, 1686.8114013671875, -0.004601942375302315, 1739.635498046875, 0.003067961661145091, 1684.626953125, 0.0, 1743.8984375);(0.0, 0.0, 0.0, 0.0, 0.0, 0.0, 0.0, 0.0);(0.0, 40.35000228881836, 56.4900016784668, 5.380000114440918, -16.139999389648438, -2.690000057220459, 2.690000057220459, -24.21000099182129)
2024/05/03/13:00:37.675099;119250;1714766437;698042472;;['BL_Position', 'BL_Wheel', 'BR_Position', 'BR_Wheel', 'FL_Position', 'FL_Wheel', 'FR_Position', 'FR_Wheel'];(0.0, 1686.8114013671875, -0.004601942375302315, 1739.6370849609375, 0.003067961661145091, 1684.626953125, 0.0, 1743.8968505859375);(0.0, 0.0, 0.0, 0.0, 0.0, 0.0, 0.0, 0.0);(2.690000057220459, 40.35000228881836, 56.4900016784668, 5.380000114440918, -13.450000762939453, -2.690000057220459, 2.690000057220459, -24.21000099182129)
2024/05/03/13:00:37.689458;119251;1714766437;712449286;;['BL_Position', 'BL_Wheel', 'BR_Position', 'BR_Wheel', 'FL_Position', 'FL_Wheel', 'FR_Position', 'FR_Wheel'];(0.0, 1686.8114013671875, -0.004601942375302315, 1739.635498046875, 0.003067961661145091, 1684.626953125, 0.0, 1743.8968505859375);(0.0, 0.0, 0.0, 0.0, 0.0, 0.0, 0.0, 0.0);(0.0, 40.35000228881836, 56.4900016784668, 5.380000114440918, -18.829999923706055, -2.690000057220459, 2.690000057220459, -24.21000099182129)
2024/05/03/13:00:37.705273;119252;1714766437;728453971;;['BL_Position', 'BL_Wheel', 'BR_Position', 'BR_Wheel', 'FL_Position', 'FL_Wheel', 'FR_Position', 'FR_Wheel'];(0.0, 1686.8114013671875, -0.004601942375302315, 1739.6370849609375, 0.003067961661145091, 1684.626953125, 0.0, 1743.8968505859375);(0.0, 0.0, 0.0, 0.0, 0.0, 0.0, 0.0, 0.0);(0.0, 40.35000228881836, 56.4900016784668, 5.380000114440918, -18.829999923706055, -2.690000057220459, 2.690000057220459, -24.21000099182129)
2024/05/03/13:00:37.726505;119253;1714766437;744415766;;['BL_Position', 'BL_Wheel', 'BR_Position', 'BR_Wheel', 'FL_Position', 'FL_Wheel', 'FR_Position', 'FR_Wheel'];(0.0015339808305725455, 1686.8114013671875, -0.004601942375302315, 1739.6370849609375, 0.003067961661145091, 1684.626953125, 0.0, 1743.8968505859375);(0.0, 0.0, 0.0, 0.0, 0.0, 0.0, 0.0, 0.0);(0.0, 40.35000228881836, 56.4900016784668, 5.380000114440918, -16.139999389648438, -2.690000057220459, 2.690000057220459, -24.21000099182129)
2024/05/03/13:00:37.737327;119254;1714766437;760463376;;['BL_Position', 'BL_Wheel', 'BR_Position', 'BR_Wheel', 'FL_Position', 'FL_Wheel', 'FR_Position', 'FR_Wheel'];(0.0, 1686.8114013671875, -0.004601942375302315, 1739.635498046875, 0.003067961661145091, 1684.626953125, 0.0, 1743.8968505859375);(0.0, 0.0, 0.0, 0.0, 0.0, 0.0, 0.0, 0.0);(0.0, 40.35000228881836, 56.4900016784668, 5.380000114440918, -18.829999923706055, -2.690000057220459, 2.690000057220459, -24.21000099182129)
2024/05/03/13:00:37.753691;119255;1714766437;776402968;;['BL_Position', 'BL_Wheel', 'BR_Position', 'BR_Wheel', 'FL_Position', 'FL_Wheel', 'FR_Position', 'FR_Wheel'];(0.0015339808305725455, 1686.8114013671875, -0.004601942375302315, 1739.6370849609375, 0.003067961661145091, 1684.626953125, 0.0, 1743.8984375);(0.0, 0.0, 0.0, 0.0, 0.0, 0.0, 0.0, 0.0);(0.0, 40.35000228881836, 56.4900016784668, 5.380000114440918, -16.139999389648438, -2.690000057220459, 2.690000057220459, -24.21000099182129)
2024/05/03/13:00:37.769344;119256;1714766437;792438467;;['BL_Position', 'BL_Wheel', 'BR_Position', 'BR_Wheel', 'FL_Position', 'FL_Wheel', 'FR_Position', 'FR_Wheel'];(0.0015339808305725455, 1686.8114013671875, -0.004601942375302315, 1739.635498046875, 0.0015339808305725455, 1684.626953125, 0.0, 1743.8968505859375);(0.0, 0.0, 0.0, 0.0, 0.0, 0.0, 0.0, 0.0);(0.0, 40.35000228881836, 56.4900016784668, 5.380000114440918, -18.829999923706055, -2.690000057220459, 2.690000057220459, -24.21000099182129)
2024/05/03/13:00:37.785486;119257;1714766437;808496522;;['BL_Position', 'BL_Wheel', 'BR_Position', 'BR_Wheel', 'FL_Position', 'FL_Wheel', 'FR_Position', 'FR_Wheel'];(0.0015339808305725455, 1686.8114013671875, -0.004601942375302315, 1739.6370849609375, 0.003067961661145091, 1684.626953125, 0.0, 1743.8968505859375);(0.0, 0.0, 0.0, 0.0, 0.0, 0.0, 0.0, 0.0);(0.0, 40.35000228881836, 56.4900016784668, 5.380000114440918, -16.139999389648438, -2.690000057220459, 2.690000057220459, -24.21000099182129)
2024/05/03/13:00:37.801502;119258;1714766437;824444688;;['BL_Position', 'BL_Wheel', 'BR_Position', 'BR_Wheel', 'FL_Position', 'FL_Wheel', 'FR_Position', 'FR_Wheel'];(0.0, 1686.809814453125, -0.004601942375302315, 1739.635498046875, 0.0015339808305725455, 1684.626953125, 0.0, 1743.8968505859375);(0.0, 0.0, 0.0, 0.0, 0.0, 0.0, 0.0, 0.0);(0.0, 40.35000228881836, 56.4900016784668, 5.380000114440918, -16.139999389648438, -2.690000057220459, 2.690000057220459, -24.21000099182129)
2024/05/03/13:00:37.829135;119259;1714766437;840473224;;['BL_Position', 'BL_Wheel', 'BR_Position', 'BR_Wheel', 'FL_Position', 'FL_Wheel', 'FR_Position', 'FR_Wheel'];(0.0, 1686.8114013671875, -0.004601942375302315, 1739.6370849609375, 0.003067961661145091, 1684.626953125, 0.0, 1743.8968505859375);(0.0, 0.0, 0.0, 0.0, 0.0, 0.0, 0.0, 0.0);(0.0, 40.35000228881836, 56.4900016784668, 5.380000114440918, -16.139999389648438, -2.690000057220459, 2.690000057220459, -24.21000099182129)
2024/05/03/13:00:37.833921;119260;1714766437;856466686;;['BL_Position', 'BL_Wheel', 'BR_Position', 'BR_Wheel', 'FL_Position', 'FL_Wheel', 'FR_Position', 'FR_Wheel'];(0.0, 1686.8114013671875, -0.004601942375302315, 1739.635498046875, 0.003067961661145091, 1684.626953125, 0.0, 1743.8968505859375);(0.0, 0.0, 0.0, 0.0, 0.0, 0.0, 0.0, 0.0);(0.0, 40.35000228881836, 56.4900016784668, 5.380000114440918, -18.829999923706055, -2.690000057220459, 2.690000057220459, -24.21000099182129)
2024/05/03/13:00:37.852885;119261;1714766437;872441426;;['BL_Position', 'BL_Wheel', 'BR_Position', 'BR_Wheel', 'FL_Position', 'FL_Wheel', 'FR_Position', 'FR_Wheel'];(0.0015339808305725455, 1686.809814453125, -0.004601942375302315, 1739.635498046875, 0.003067961661145091, 1684.626953125, 0.0, 1743.8984375);(0.0, 0.0, 0.0, 0.0, 0.0, 0.0, 0.0, 0.0);(0.0, 40.35000228881836, 56.4900016784668, 5.380000114440918, -13.450000762939453, -2.690000057220459, 2.690000057220459, -24.21000099182129)
2024/05/03/13:00:37.867347;119262;1714766437;888435925;;['BL_Position', 'BL_Wheel', 'BR_Position', 'BR_Wheel', 'FL_Position', 'FL_Wheel', 'FR_Position', 'FR_Wheel'];(0.0, 1686.8114013671875, -0.004601942375302315, 1739.6370849609375, 0.0015339808305725455, 1684.626953125, 0.0, 1743.8968505859375);(0.0, 0.0, 0.0, 0.0, 0.0, 0.0, 0.0, 0.0);(0.0, 40.35000228881836, 56.4900016784668, 5.380000114440918, -13.450000762939453, -2.690000057220459, 2.690000057220459, -24.21000099182129)
2024/05/03/13:00:37.881500;119263;1714766437;904451109;;['BL_Position', 'BL_Wheel', 'BR_Position', 'BR_Wheel', 'FL_Position', 'FL_Wheel', 'FR_Position', 'FR_Wheel'];(0.0, 1686.8114013671875, -0.004601942375302315, 1739.635498046875, 0.003067961661145091, 1684.626953125, 0.0, 1743.8968505859375);(0.0, 0.0, 0.0, 0.0, 0.0, 0.0, 0.0, 0.0);(0.0, 40.35000228881836, 56.4900016784668, 5.380000114440918, -18.829999923706055, -2.690000057220459, 2.690000057220459, -24.21000099182129)
2024/05/03/13:00:37.897850;119264;1714766437;920714812;;['BL_Position', 'BL_Wheel', 'BR_Position', 'BR_Wheel', 'FL_Position', 'FL_Wheel', 'FR_Position', 'FR_Wheel'];(0.0, 1686.8114013671875, -0.004601942375302315, 1739.6370849609375, 0.003067961661145091, 1684.626953125, 0.0, 1743.8984375);(0.0, 0.0, 0.0, 0.0, 0.0, 0.0, 0.0, 0.0);(0.0, 40.35000228881836, 56.4900016784668, 5.380000114440918, -10.760000228881836, -2.690000057220459, 2.690000057220459, -24.21000099182129)
2024/05/03/13:00:37.913766;119265;1714766437;936432645;;['BL_Position', 'BL_Wheel', 'BR_Position', 'BR_Wheel', 'FL_Position', 'FL_Wheel', 'FR_Position', 'FR_Wheel'];(0.0, 1686.8114013671875, -0.004601942375302315, 1739.635498046875, 0.003067961661145091, 1684.626953125, 0.0, 1743.8968505859375);(0.0, 0.0, 0.0, 0.0, 0.0, 0.0, 0.0, 0.0);(0.0, 40.35000228881836, 56.4900016784668, 5.380000114440918, -13.450000762939453, -2.690000057220459, 2.690000057220459, -24.21000099182129)
2024/05/03/13:00:37.932130;119266;1714766437;952390718;;['BL_Position', 'BL_Wheel', 'BR_Position', 'BR_Wheel', 'FL_Position', 'FL_Wheel', 'FR_Position', 'FR_Wheel'];(0.0, 1686.8114013671875, -0.004601942375302315, 1739.635498046875, 0.003067961661145091, 1684.626953125, 0.0, 1743.8968505859375);(0.0, 0.0, 0.0, 0.0, 0.0, 0.0, 0.0, 0.0);(0.0, 40.35000228881836, 56.4900016784668, 5.380000114440918, -18.829999923706055, -2.690000057220459, 2.690000057220459, -24.21000099182129)
2024/05/03/13:00:37.945186;119267;1714766437;968408495;;['BL_Position', 'BL_Wheel', 'BR_Position', 'BR_Wheel', 'FL_Position', 'FL_Wheel', 'FR_Position', 'FR_Wheel'];(0.0, 1686.8114013671875, -0.004601942375302315, 1739.635498046875, 0.003067961661145091, 1684.626953125, 0.0, 1743.8968505859375);(0.0, 0.0, 0.0, 0.0, 0.0, 0.0, 0.0, 0.0);(0.0, 40.35000228881836, 56.4900016784668, 5.380000114440918, -18.829999923706055, -2.690000057220459, 2.690000057220459, -24.21000099182129)
2024/05/03/13:00:37.961602;119268;1714766437;984587957;;['BL_Position', 'BL_Wheel', 'BR_Position', 'BR_Wheel', 'FL_Position', 'FL_Wheel', 'FR_Position', 'FR_Wheel'];(0.0, 1686.8114013671875, -0.004601942375302315, 1739.6370849609375, 0.003067961661145091, 1684.626953125, 0.0, 1743.8968505859375);(0.0, 0.0, 0.0, 0.0, 0.0, 0.0, 0.0, 0.0);(0.0, 40.35000228881836, 56.4900016784668, 5.380000114440918, -18.829999923706055, -2.690000057220459, 2.690000057220459, -24.21000099182129)
2024/05/03/13:00:37.979694;119269;1714766438;424104;;['BL_Position', 'BL_Wheel', 'BR_Position', 'BR_Wheel', 'FL_Position', 'FL_Wheel', 'FR_Position', 'FR_Wheel'];(0.0, 1686.8114013671875, -0.004601942375302315, 1739.6370849609375, 0.0015339808305725455, 1684.626953125, 0.0, 1743.8968505859375);(0.0, 0.0, 0.0, 0.0, 0.0, 0.0, 0.0, 0.0);(0.0, 40.35000228881836, 56.4900016784668, 5.380000114440918, -18.829999923706055, -2.690000057220459, 2.690000057220459, -24.21000099182129)
2024/05/03/13:00:37.992790;119270;1714766438;16470715;;['BL_Position', 'BL_Wheel', 'BR_Position', 'BR_Wheel', 'FL_Position', 'FL_Wheel', 'FR_Position', 'FR_Wheel'];(0.0, 1686.8114013671875, -0.004601942375302315, 1739.635498046875, 0.0015339808305725455, 1684.626953125, 0.0, 1743.8968505859375);(0.0, 0.0, 0.0, 0.0, 0.0, 0.0, 0.0, 0.0);(0.0, 40.35000228881836, 56.4900016784668, 5.380000114440918, -10.760000228881836, -2.690000057220459, 2.690000057220459, -24.21000099182129)
2024/05/03/13:00:38.010117;119271;1714766438;32474343;;['BL_Position', 'BL_Wheel', 'BR_Position', 'BR_Wheel', 'FL_Position', 'FL_Wheel', 'FR_Position', 'FR_Wheel'];(0.0, 1686.8114013671875, -0.004601942375302315, 1739.635498046875, 0.0015339808305725455, 1684.626953125, 0.0, 1743.8968505859375);(0.0, 0.0, 0.0, 0.0, 0.0, 0.0, 0.0, 0.0);(0.0, 40.35000228881836, 56.4900016784668, 5.380000114440918, -18.829999923706055, -2.690000057220459, 2.690000057220459, -24.21000099182129)
2024/05/03/13:00:38.033831;119272;1714766438;48441787;;['BL_Position', 'BL_Wheel', 'BR_Position', 'BR_Wheel', 'FL_Position', 'FL_Wheel', 'FR_Position', 'FR_Wheel'];(0.0, 1686.8114013671875, -0.004601942375302315, 1739.6370849609375, 0.003067961661145091, 1684.626953125, 0.0, 1743.8968505859375);(0.0, 0.0, 0.0, 0.0, 0.0, 0.0, 0.0, 0.0);(0.0, 40.35000228881836, 56.4900016784668, 5.380000114440918, -16.139999389648438, -2.690000057220459, 2.690000057220459, -24.21000099182129)
2024/05/03/13:00:38.040262;119273;1714766438;64410805;;['BL_Position', 'BL_Wheel', 'BR_Position', 'BR_Wheel', 'FL_Position', 'FL_Wheel', 'FR_Position', 'FR_Wheel'];(0.0, 1686.8114013671875, -0.004601942375302315, 1739.635498046875, 0.003067961661145091, 1684.626953125, 0.0, 1743.8968505859375);(0.0, 0.0, 0.0, 0.0, 0.0, 0.0, 0.0, 0.0);(0.0, 40.35000228881836, 64.55999755859375, 5.380000114440918, -18.829999923706055, -2.690000057220459, 2.690000057220459, -24.21000099182129)
2024/05/03/13:00:38.063020;119274;1714766438;80416970;;['BL_Position', 'BL_Wheel', 'BR_Position', 'BR_Wheel', 'FL_Position', 'FL_Wheel', 'FR_Position', 'FR_Wheel'];(0.0, 1686.8114013671875, -0.004601942375302315, 1739.635498046875, 0.003067961661145091, 1684.626953125, 0.0, 1743.8968505859375);(0.0, 0.0, 0.0, 0.0, 0.0, 0.0, 0.0, 0.0);(2.690000057220459, 40.35000228881836, 56.4900016784668, 5.380000114440918, -13.450000762939453, -2.690000057220459, 2.690000057220459, -24.21000099182129)
2024/05/03/13:00:38.073670;119275;1714766438;96454581;;['BL_Position', 'BL_Wheel', 'BR_Position', 'BR_Wheel', 'FL_Position', 'FL_Wheel', 'FR_Position', 'FR_Wheel'];(0.0015339808305725455, 1686.809814453125, -0.004601942375302315, 1739.635498046875, 0.003067961661145091, 1684.626953125, 0.0, 1743.8968505859375);(0.0, 0.0, 0.0, 0.0, 0.0, 0.0, 0.0, 0.0);(0.0, 40.35000228881836, 61.87000274658203, 5.380000114440918, -18.829999923706055, -2.690000057220459, 2.690000057220459, -24.21000099182129)
2024/05/03/13:00:38.089423;119276;1714766438;112413765;;['BL_Position', 'BL_Wheel', 'BR_Position', 'BR_Wheel', 'FL_Position', 'FL_Wheel', 'FR_Position', 'FR_Wheel'];(0.0, 1686.8114013671875, -0.004601942375302315, 1739.635498046875, 0.0015339808305725455, 1684.626953125, 0.0, 1743.8968505859375);(0.0, 0.0, 0.0, 0.0, 0.0, 0.0, 0.0, 0.0);(0.0, 40.35000228881836, 56.4900016784668, 5.380000114440918, -16.139999389648438, -2.690000057220459, 2.690000057220459, -24.21000099182129)
2024/05/03/13:00:38.105294;119277;1714766438;128426894;;['BL_Position', 'BL_Wheel', 'BR_Position', 'BR_Wheel', 'FL_Position', 'FL_Wheel', 'FR_Position', 'FR_Wheel'];(0.0, 1686.8114013671875, -0.004601942375302315, 1739.6370849609375, 0.003067961661145091, 1684.626953125, 0.0, 1743.8968505859375);(0.0, 0.0, 0.0, 0.0, 0.0, 0.0, 0.0, 0.0);(2.690000057220459, 40.35000228881836, 59.18000030517578, 5.380000114440918, -16.139999389648438, -2.690000057220459, 2.690000057220459, -24.21000099182129)
2024/05/03/13:00:38.121846;119278;1714766438;144413541;;['BL_Position', 'BL_Wheel', 'BR_Position', 'BR_Wheel', 'FL_Position', 'FL_Wheel', 'FR_Position', 'FR_Wheel'];(0.0, 1686.8114013671875, -0.004601942375302315, 1739.6370849609375, 0.0015339808305725455, 1684.626953125, 0.0, 1743.8968505859375);(0.0, 0.0, 0.0, 0.0, 0.0, 0.0, 0.0, 0.0);(0.0, 40.35000228881836, 56.4900016784668, 5.380000114440918, -16.139999389648438, -2.690000057220459, 2.690000057220459, -24.21000099182129)
2024/05/03/13:00:38.138862;119279;1714766438;160382762;;['BL_Position', 'BL_Wheel', 'BR_Position', 'BR_Wheel', 'FL_Position', 'FL_Wheel', 'FR_Position', 'FR_Wheel'];(0.0, 1686.8114013671875, -0.004601942375302315, 1739.6370849609375, 0.003067961661145091, 1684.626953125, 0.0, 1743.8968505859375);(0.0, 0.0, 0.0, 0.0, 0.0, 0.0, 0.0, 0.0);(0.0, 40.35000228881836, 56.4900016784668, 5.380000114440918, -18.829999923706055, -2.690000057220459, 2.690000057220459, -24.21000099182129)
2024/05/03/13:00:38.165134;119280;1714766438;177206373;;['BL_Position', 'BL_Wheel', 'BR_Position', 'BR_Wheel', 'FL_Position', 'FL_Wheel', 'FR_Position', 'FR_Wheel'];(0.0, 1686.8114013671875, -0.004601942375302315, 1739.635498046875, 0.003067961661145091, 1684.626953125, 0.0, 1743.8984375);(0.0, 0.0, 0.0, 0.0, 0.0, 0.0, 0.0, 0.0);(0.0, 40.35000228881836, 56.4900016784668, 5.380000114440918, -16.139999389648438, -2.690000057220459, 2.690000057220459, -24.21000099182129)
2024/05/03/13:00:38.174332;119281;1714766438;192484427;;['BL_Position', 'BL_Wheel', 'BR_Position', 'BR_Wheel', 'FL_Position', 'FL_Wheel', 'FR_Position', 'FR_Wheel'];(0.0, 1686.8114013671875, -0.004601942375302315, 1739.635498046875, 0.003067961661145091, 1684.626953125, 0.0, 1743.8968505859375);(0.0, 0.0, 0.0, 0.0, 0.0, 0.0, 0.0, 0.0);(0.0, 40.35000228881836, 56.4900016784668, 5.380000114440918, -16.139999389648438, -2.690000057220459, 2.690000057220459, -24.21000099182129)
2024/05/03/13:00:38.185349;119282;1714766438;208437482;;['BL_Position', 'BL_Wheel', 'BR_Position', 'BR_Wheel', 'FL_Position', 'FL_Wheel', 'FR_Position', 'FR_Wheel'];(0.0, 1686.8114013671875, -0.004601942375302315, 1739.6370849609375, 0.0015339808305725455, 1684.626953125, 0.0, 1743.8968505859375);(0.0, 0.0, 0.0, 0.0, 0.0, 0.0, 0.0, 0.0);(0.0, 40.35000228881836, 56.4900016784668, 5.380000114440918, -18.829999923706055, -2.690000057220459, 2.690000057220459, -24.21000099182129)
2024/05/03/13:00:38.200432;119283;1714766438;224417259;;['BL_Position', 'BL_Wheel', 'BR_Position', 'BR_Wheel', 'FL_Position', 'FL_Wheel', 'FR_Position', 'FR_Wheel'];(0.0015339808305725455, 1686.8114013671875, -0.004601942375302315, 1739.6370849609375, 0.003067961661145091, 1684.626953125, 0.0, 1743.8968505859375);(0.0, 0.0, 0.0, 0.0, 0.0, 0.0, 0.0, 0.0);(0.0, 40.35000228881836, 59.18000030517578, 5.380000114440918, -16.139999389648438, -2.690000057220459, 2.690000057220459, -24.21000099182129)
2024/05/03/13:00:38.216379;119284;1714766438;241090814;;['BL_Position', 'BL_Wheel', 'BR_Position', 'BR_Wheel', 'FL_Position', 'FL_Wheel', 'FR_Position', 'FR_Wheel'];(0.0, 1686.8114013671875, -0.004601942375302315, 1739.6370849609375, 0.003067961661145091, 1684.626953125, 0.0, 1743.8984375);(0.0, 0.0, 0.0, 0.0, 0.0, 0.0, 0.0, 0.0);(0.0, 40.35000228881836, 56.4900016784668, 5.380000114440918, -13.450000762939453, -2.690000057220459, 2.690000057220459, -24.21000099182129)
2024/05/03/13:00:38.241255;119285;1714766438;256543294;;['BL_Position', 'BL_Wheel', 'BR_Position', 'BR_Wheel', 'FL_Position', 'FL_Wheel', 'FR_Position', 'FR_Wheel'];(0.0, 1686.8114013671875, -0.004601942375302315, 1739.6370849609375, 0.003067961661145091, 1684.626953125, 0.0, 1743.8968505859375);(0.0, 0.0, 0.0, 0.0, 0.0, 0.0, 0.0, 0.0);(0.0, 40.35000228881836, 56.4900016784668, 5.380000114440918, -16.139999389648438, -2.690000057220459, 2.690000057220459, -24.21000099182129)
2024/05/03/13:00:38.251762;119286;1714766438;275829626;;['BL_Position', 'BL_Wheel', 'BR_Position', 'BR_Wheel', 'FL_Position', 'FL_Wheel', 'FR_Position', 'FR_Wheel'];(0.0, 1686.8114013671875, -0.004601942375302315, 1739.635498046875, 0.003067961661145091, 1684.626953125, 0.0, 1743.8968505859375);(0.0, 0.0, 0.0, 0.0, 0.0, 0.0, 0.0, 0.0);(0.0, 40.35000228881836, 59.18000030517578, 5.380000114440918, -16.139999389648438, -2.690000057220459, 2.690000057220459, -24.21000099182129)
2024/05/03/13:00:38.277617;119287;1714766438;289075755;;['BL_Position', 'BL_Wheel', 'BR_Position', 'BR_Wheel', 'FL_Position', 'FL_Wheel', 'FR_Position', 'FR_Wheel'];(0.0015339808305725455, 1686.8114013671875, -0.006135923322290182, 1739.635498046875, 0.003067961661145091, 1684.626953125, 0.0, 1743.8968505859375);(0.0, 0.0, 0.0, 0.0, 0.0, 0.0, 0.0, 0.0);(0.0, 40.35000228881836, 56.4900016784668, 5.380000114440918, -16.139999389648438, -2.690000057220459, 2.690000057220459, -24.21000099182129)
2024/05/03/13:00:38.281226;119288;1714766438;304431662;;['BL_Position', 'BL_Wheel', 'BR_Position', 'BR_Wheel', 'FL_Position', 'FL_Wheel', 'FR_Position', 'FR_Wheel'];(0.0015339808305725455, 1686.8114013671875, -0.004601942375302315, 1739.6370849609375, 0.003067961661145091, 1684.626953125, 0.0, 1743.8968505859375);(0.0, 0.0, 0.0, 0.0, 0.0, 0.0, 0.0, 0.0);(0.0, 40.35000228881836, 56.4900016784668, 5.380000114440918, -13.450000762939453, -2.690000057220459, 2.690000057220459, -24.21000099182129)
2024/05/03/13:00:38.297601;119289;1714766438;320442531;;['BL_Position', 'BL_Wheel', 'BR_Position', 'BR_Wheel', 'FL_Position', 'FL_Wheel', 'FR_Position', 'FR_Wheel'];(0.0, 1686.8114013671875, -0.004601942375302315, 1739.635498046875, 0.003067961661145091, 1684.626953125, 0.0, 1743.8968505859375);(0.0, 0.0, 0.0, 0.0, 0.0, 0.0, 0.0, 0.0);(0.0, 40.35000228881836, 56.4900016784668, 5.380000114440918, -16.139999389648438, -2.690000057220459, 2.690000057220459, -24.21000099182129)
2024/05/03/13:00:38.312355;119290;1714766438;336457327;;['BL_Position', 'BL_Wheel', 'BR_Position', 'BR_Wheel', 'FL_Position', 'FL_Wheel', 'FR_Position', 'FR_Wheel'];(0.0, 1686.8114013671875, -0.004601942375302315, 1739.635498046875, 0.003067961661145091, 1684.626953125, 0.0, 1743.8968505859375);(0.0, 0.0, 0.0, 0.0, 0.0, 0.0, 0.0, 0.0);(0.0, 40.35000228881836, 59.18000030517578, 5.380000114440918, -16.139999389648438, -2.690000057220459, 2.690000057220459, -24.21000099182129)
2024/05/03/13:00:38.341403;119291;1714766438;352402789;;['BL_Position', 'BL_Wheel', 'BR_Position', 'BR_Wheel', 'FL_Position', 'FL_Wheel', 'FR_Position', 'FR_Wheel'];(0.0, 1686.809814453125, -0.004601942375302315, 1739.635498046875, 0.003067961661145091, 1684.626953125, 0.0, 1743.8968505859375);(0.0, 0.0, 0.0, 0.0, 0.0, 0.0, 0.0, 0.0);(0.0, 40.35000228881836, 56.4900016784668, 5.380000114440918, -10.760000228881836, -2.690000057220459, 2.690000057220459, -24.21000099182129)
2024/05/03/13:00:38.347321;119292;1714766438;368428010;;['BL_Position', 'BL_Wheel', 'BR_Position', 'BR_Wheel', 'FL_Position', 'FL_Wheel', 'FR_Position', 'FR_Wheel'];(0.0015339808305725455, 1686.8114013671875, -0.004601942375302315, 1739.635498046875, 0.0015339808305725455, 1684.626953125, 0.0, 1743.8968505859375);(0.0, 0.0, 0.0, 0.0, 0.0, 0.0, 0.0, 0.0);(2.690000057220459, 40.35000228881836, 56.4900016784668, 5.380000114440918, -18.829999923706055, -2.690000057220459, 2.690000057220459, -24.21000099182129)
2024/05/03/13:00:38.372356;119293;1714766438;384403435;;['BL_Position', 'BL_Wheel', 'BR_Position', 'BR_Wheel', 'FL_Position', 'FL_Wheel', 'FR_Position', 'FR_Wheel'];(0.0, 1686.8114013671875, -0.004601942375302315, 1739.635498046875, 0.003067961661145091, 1684.626953125, 0.0, 1743.8968505859375);(0.0, 0.0, 0.0, 0.0, 0.0, 0.0, 0.0, 0.0);(0.0, 40.35000228881836, 59.18000030517578, 5.380000114440918, -16.139999389648438, -2.690000057220459, 2.690000057220459, -24.21000099182129)
2024/05/03/13:00:38.380842;119294;1714766438;401289564;;['BL_Position', 'BL_Wheel', 'BR_Position', 'BR_Wheel', 'FL_Position', 'FL_Wheel', 'FR_Position', 'FR_Wheel'];(0.0, 1686.8114013671875, -0.004601942375302315, 1739.6370849609375, 0.003067961661145091, 1684.626953125, 0.0, 1743.8968505859375);(0.0, 0.0, 0.0, 0.0, 0.0, 0.0, 0.0, 0.0);(0.0, 40.35000228881836, 56.4900016784668, 5.380000114440918, -16.139999389648438, -2.690000057220459, 2.690000057220459, -24.21000099182129)
2024/05/03/13:00:38.393669;119295;1714766438;416416137;;['BL_Position', 'BL_Wheel', 'BR_Position', 'BR_Wheel', 'FL_Position', 'FL_Wheel', 'FR_Position', 'FR_Wheel'];(0.0, 1686.8114013671875, -0.004601942375302315, 1739.635498046875, 0.0015339808305725455, 1684.626953125, 0.0, 1743.8968505859375);(0.0, 0.0, 0.0, 0.0, 0.0, 0.0, 0.0, 0.0);(0.0, 40.35000228881836, 56.4900016784668, 5.380000114440918, -18.829999923706055, -2.690000057220459, 2.690000057220459, -24.21000099182129)
2024/05/03/13:00:38.409421;119296;1714766438;432451618;;['BL_Position', 'BL_Wheel', 'BR_Position', 'BR_Wheel', 'FL_Position', 'FL_Wheel', 'FR_Position', 'FR_Wheel'];(0.0, 1686.8114013671875, -0.004601942375302315, 1739.6370849609375, 0.003067961661145091, 1684.626953125, 0.0, 1743.8968505859375);(0.0, 0.0, 0.0, 0.0, 0.0, 0.0, 0.0, 0.0);(0.0, 40.35000228881836, 56.4900016784668, 5.380000114440918, -18.829999923706055, -2.690000057220459, 2.690000057220459, -24.21000099182129)
2024/05/03/13:00:38.425096;119297;1714766438;448400302;;['BL_Position', 'BL_Wheel', 'BR_Position', 'BR_Wheel', 'FL_Position', 'FL_Wheel', 'FR_Position', 'FR_Wheel'];(0.0, 1686.8114013671875, -0.004601942375302315, 1739.6370849609375, 0.003067961661145091, 1684.626953125, 0.0, 1743.8968505859375);(0.0, 0.0, 0.0, 0.0, 0.0, 0.0, 0.0, 0.0);(2.690000057220459, 40.35000228881836, 56.4900016784668, 5.380000114440918, -18.829999923706055, -2.690000057220459, 2.690000057220459, -24.21000099182129)
2024/05/03/13:00:38.443410;119298;1714766438;464392524;;['BL_Position', 'BL_Wheel', 'BR_Position', 'BR_Wheel', 'FL_Position', 'FL_Wheel', 'FR_Position', 'FR_Wheel'];(0.0, 1686.809814453125, -0.004601942375302315, 1739.635498046875, 0.003067961661145091, 1684.626953125, 0.0, 1743.8968505859375);(0.0, 0.0, 0.0, 0.0, 0.0, 0.0, 0.0, 0.0);(2.690000057220459, 40.35000228881836, 56.4900016784668, 5.380000114440918, -18.829999923706055, -2.690000057220459, 2.690000057220459, -24.21000099182129)
2024/05/03/13:00:38.457075;119299;1714766438;480442801;;['BL_Position', 'BL_Wheel', 'BR_Position', 'BR_Wheel', 'FL_Position', 'FL_Wheel', 'FR_Position', 'FR_Wheel'];(0.0, 1686.8114013671875, -0.004601942375302315, 1739.635498046875, 0.0015339808305725455, 1684.626953125, 0.0, 1743.8968505859375);(0.0, 0.0, 0.0, 0.0, 0.0, 0.0, 0.0, 0.0);(0.0, 40.35000228881836, 56.4900016784668, 5.380000114440918, -13.450000762939453, -2.690000057220459, 2.690000057220459, -24.21000099182129)
2024/05/03/13:00:38.474054;119300;1714766438;496470281;;['BL_Position', 'BL_Wheel', 'BR_Position', 'BR_Wheel', 'FL_Position', 'FL_Wheel', 'FR_Position', 'FR_Wheel'];(0.0, 1686.8114013671875, -0.004601942375302315, 1739.6370849609375, 0.003067961661145091, 1684.626953125, 0.0, 1743.8968505859375);(0.0, 0.0, 0.0, 0.0, 0.0, 0.0, 0.0, 0.0);(0.0, 40.35000228881836, 56.4900016784668, 5.380000114440918, -16.139999389648438, -2.690000057220459, 2.690000057220459, -24.21000099182129)
2024/05/03/13:00:38.491483;119301;1714766438;512457151;;['BL_Position', 'BL_Wheel', 'BR_Position', 'BR_Wheel', 'FL_Position', 'FL_Wheel', 'FR_Position', 'FR_Wheel'];(0.0, 1686.8114013671875, -0.004601942375302315, 1739.635498046875, 0.003067961661145091, 1684.626953125, 0.0, 1743.8968505859375);(0.0, 0.0, 0.0, 0.0, 0.0, 0.0, 0.0, 0.0);(0.0, 40.35000228881836, 56.4900016784668, 5.380000114440918, -18.829999923706055, -2.690000057220459, 2.690000057220459, -24.21000099182129)
2024/05/03/13:00:38.504355;119302;1714766438;528406631;;['BL_Position', 'BL_Wheel', 'BR_Position', 'BR_Wheel', 'FL_Position', 'FL_Wheel', 'FR_Position', 'FR_Wheel'];(0.0, 1686.8114013671875, -0.006135923322290182, 1739.6370849609375, 0.003067961661145091, 1684.626953125, 0.0, 1743.8968505859375);(0.0, 0.0, 0.0, 0.0, 0.0, 0.0, 0.0, 0.0);(0.0, 40.35000228881836, 56.4900016784668, 5.380000114440918, -18.829999923706055, -2.690000057220459, 2.690000057220459, -24.21000099182129)
2024/05/03/13:00:38.521651;119303;1714766438;544389945;;['BL_Position', 'BL_Wheel', 'BR_Position', 'BR_Wheel', 'FL_Position', 'FL_Wheel', 'FR_Position', 'FR_Wheel'];(0.0015339808305725455, 1686.809814453125, -0.004601942375302315, 1739.635498046875, 0.0015339808305725455, 1684.626953125, 0.0, 1743.8968505859375);(0.0, 0.0, 0.0, 0.0, 0.0, 0.0, 0.0, 0.0);(0.0, 40.35000228881836, 56.4900016784668, 5.380000114440918, -18.829999923706055, -2.690000057220459, 2.690000057220459, -24.21000099182129)
2024/05/03/13:00:38.546293;119304;1714766438;560414204;;['BL_Position', 'BL_Wheel', 'BR_Position', 'BR_Wheel', 'FL_Position', 'FL_Wheel', 'FR_Position', 'FR_Wheel'];(-0.03374757990241051, 1686.814453125, -0.03374757990241051, 1739.6370849609375, 0.03374757990241051, 1684.6285400390625, 0.03221359848976135, 1743.903076171875);(-0.0959232971072197, 0.0, -0.07194247096776962, 0.0, 0.07194247096776962, 0.0, 0.07194247096776962, 0.0);(-244.79000854492188, 112.9800033569336, -295.8999938964844, 110.29000091552734, 295.8999938964844, 64.55999755859375, 279.760009765625, 112.9800033569336)
2024/05/03/13:00:38.553927;119305;1714766438;576387073;;['BL_Position', 'BL_Wheel', 'BR_Position', 'BR_Wheel', 'FL_Position', 'FL_Wheel', 'FR_Position', 'FR_Wheel'];(-0.09970875084400177, 1686.8251953125, -0.09817477315664291, 1739.65234375, 0.10124273598194122, 1684.6407470703125, 0.09817477315664291, 1743.9183349609375);(-0.6714630722999573, 0.07194247096776962, -0.6235014200210571, 0.04796164855360985, 0.6235014200210571, 0.04796164855360985, 0.6474822759628296, 0.11990412324666977);(-99.52999877929688, 137.19000244140625, 67.25, 118.36000061035156, 137.19000244140625, 67.25, -86.08000183105469, 153.3300018310547)
2024/05/03/13:00:38.574601;119306;1714766438;592608035;;['BL_Position', 'BL_Wheel', 'BR_Position', 'BR_Wheel', 'FL_Position', 'FL_Wheel', 'FR_Position', 'FR_Wheel'];(-0.1702718734741211, 1686.843505859375, -0.13499031960964203, 1739.6815185546875, 0.1672039031982422, 1684.66064453125, 0.1395922601222992, 1743.947509765625);(-1.5587536096572876, 0.23980824649333954, -1.2949645519256592, 0.2877698838710785, 1.4868111610412598, 0.21582742035388947, 1.366907000541687, 0.3597123622894287);(212.510009765625, 145.260009765625, 107.60000610351562, 118.36000061035156, -107.60000610351562, 72.6300048828125, -156.02000427246094, 134.5)
2024/05/03/13:00:38.585476;119307;1714766438;608389831;;['BL_Position', 'BL_Wheel', 'BR_Position', 'BR_Wheel', 'FL_Position', 'FL_Wheel', 'FR_Position', 'FR_Wheel'];(-0.20555342733860016, 1686.86962890625, -0.14419420063495636, 1739.7183837890625, 0.20862139761447906, 1684.6898193359375, 0.1533980816602707, 1743.9827880859375);(-2.4220633506774902, 0.5035973191261292, -1.822542667388916, 0.6954439282417297, 2.350120782852173, 0.5035973191261292, 1.9664275646209717, 0.7434055805206299);(177.54000854492188, 126.43000030517578, -18.829999923706055, 110.29000091552734, -107.60000610351562, 59.18000030517578, -43.040000915527344, 107.60000610351562)
2024/05/03/13:00:38.601492;119308;1714766438;624481793;;['BL_Position', 'BL_Wheel', 'BR_Position', 'BR_Wheel', 'FL_Position', 'FL_Wheel', 'FR_Position', 'FR_Wheel'];(-0.21322333812713623, 1686.90185546875, -0.14419420063495636, 1739.764404296875, 0.2178252786397934, 1684.7236328125, 0.1533980816602707, 1744.02734375);(-2.8537180423736572, 0.8872904777526855, -1.9424467086791992, 1.2709836959838867, 2.8297371864318848, 0.9352521300315857, 2.1342933177948, 1.2709836959838867);(43.040000915527344, 107.60000610351562, -45.72999954223633, 91.45999908447266, -10.760000228881836, 40.35000228881836, 10.760000228881836, 72.6300048828125)
2024/05/03/13:00:38.616121;119309;1714766438;640438033;;['BL_Position', 'BL_Wheel', 'BR_Position', 'BR_Wheel', 'FL_Position', 'FL_Wheel', 'FR_Position', 'FR_Wheel'];(-0.21322333812713623, 1686.940185546875, -0.14419420063495636, 1739.819580078125, 0.2178252786397934, 1684.761962890625, 0.1533980816602707, 1744.0794677734375);(-2.470024824142456, 1.2949645519256592, -1.4868111610412598, 1.9184659719467163, 2.517986536026001, 1.4148685932159424, 1.654676914215088, 1.8705042600631714);(5.380000114440918, 88.77000427246094, -29.59000015258789, 78.01000213623047, 24.21000099182129, 29.59000015258789, 0.0, 51.11000061035156)
2024/05/03/13:00:38.633765;119310;1714766438;656449550;;['BL_Position', 'BL_Wheel', 'BR_Position', 'BR_Wheel', 'FL_Position', 'FL_Wheel', 'FR_Position', 'FR_Wheel'];(-0.21322333812713623, 1686.9815673828125, -0.14419420063495636, 1739.874755859375, 0.21629129350185394, 1684.8018798828125, 0.1533980816602707, 1744.1346435546875);(-1.7026385068893433, 1.7026385068893433, -0.7913671731948853, 2.4460439682006836, 1.774580955505371, 1.7985618114471436, 0.9352521300315857, 2.350120782852173);(8.069999694824219, 86.08000183105469, -13.450000762939453, 75.31999969482422, 10.760000228881836, 29.59000015258789, 0.0, 32.279998779296875)
2024/05/03/13:00:38.650162;119311;1714766438;672396438;;['BL_Position', 'BL_Wheel', 'BR_Position', 'BR_Wheel', 'FL_Position', 'FL_Wheel', 'FR_Position', 'FR_Wheel'];(-0.20862139761447906, 1687.027587890625, -0.1426602154970169, 1739.9345703125, 0.21629129350185394, 1684.84326171875, 0.1533980816602707, 1744.196044921875);(-0.8393288254737854, 2.0623509883880615, -0.33573153614997864, 2.901679754257202, 0.911271333694458, 2.1103124618530273, 0.40767401456832886, 2.8057563304901123);(0.0, 86.08000183105469, -2.690000057220459, 75.31999969482422, 0.0, 29.59000015258789, 0.0, 24.21000099182129)
2024/05/03/13:00:38.677054;119312;1714766438;688463938;;['BL_Position', 'BL_Wheel', 'BR_Position', 'BR_Wheel', 'FL_Position', 'FL_Wheel', 'FR_Position', 'FR_Wheel'];(-0.20555342733860016, 1687.0721435546875, -0.1426602154970169, 1739.99755859375, 0.21629129350185394, 1684.8876953125, 0.1533980816602707, 1744.2574462890625);(-0.2637890577316284, 2.3261399269104004, -0.11990412324666977, 3.261392116546631, 0.3597123622894287, 2.3741016387939453, 0.14388494193553925, 3.1894495487213135);(0.0, 80.70000457763672, 0.0, 64.55999755859375, 5.380000114440918, 21.520000457763672, 0.0, 2.690000057220459)
2024/05/03/13:00:38.681866;119313;1714766438;704433381;;['BL_Position', 'BL_Wheel', 'BR_Position', 'BR_Wheel', 'FL_Position', 'FL_Wheel', 'FR_Position', 'FR_Wheel'];(-0.20555342733860016, 1687.11962890625, -0.1426602154970169, 1740.0650634765625, 0.21629129350185394, 1684.936767578125, 0.1533980816602707, 1744.326416015625);(-0.023980824276804924, 2.5419673919677734, -0.023980824276804924, 3.5731427669525146, 0.0959232971072197, 2.5419673919677734, 0.04796164855360985, 3.5012004375457764);(2.690000057220459, 75.31999969482422, -2.690000057220459, 56.4900016784668, 5.380000114440918, 16.139999389648438, 0.0, 0.0)
2024/05/03/13:00:38.696666;119314;1714766438;720406806;;['BL_Position', 'BL_Wheel', 'BR_Position', 'BR_Wheel', 'FL_Position', 'FL_Wheel', 'FR_Position', 'FR_Wheel'];(-0.20555342733860016, 1687.1641845703125, -0.14419420063495636, 1740.1279296875, 0.21629129350185394, 1684.9827880859375, 0.1533980816602707, 1744.3878173828125);(0.04796164855360985, 2.685852289199829, 0.0, 3.7649893760681152, 0.023980824276804924, 2.685852289199829, 0.0, 3.7170276641845703);(0.0, 75.31999969482422, -32.279998779296875, 53.80000305175781, 18.829999923706055, 13.450000762939453, 2.690000057220459, 0.0)
2024/05/03/13:00:38.712729;119315;1714766438;736526694;;['BL_Position', 'BL_Wheel', 'BR_Position', 'BR_Wheel', 'FL_Position', 'FL_Wheel', 'FR_Position', 'FR_Wheel'];(-0.20555342733860016, 1687.211669921875, -0.14419420063495636, 1740.1968994140625, 0.2178252786397934, 1685.031982421875, 0.1533980816602707, 1744.4598388671875);(0.04796164855360985, 2.781775712966919, 0.0, 3.9328551292419434, 0.023980824276804924, 2.781775712966919, 0.0, 3.908874273300171);(0.0, 72.6300048828125, -34.970001220703125, 51.11000061035156, 40.35000228881836, 13.450000762939453, 0.0, 0.0)
2024/05/03/13:00:38.729217;119316;1714766438;752379879;;['BL_Position', 'BL_Wheel', 'BR_Position', 'BR_Wheel', 'FL_Position', 'FL_Wheel', 'FR_Position', 'FR_Wheel'];(-0.21015536785125732, 1687.2576904296875, -0.14419420063495636, 1740.2659912109375, 0.21935926377773285, 1685.0780029296875, 0.15493206679821014, 1744.52587890625);(0.0, 2.8537180423736572, 0.0, 4.052759170532227, 0.023980824276804924, 2.8537180423736572, 0.0, 4.004797458648682);(0.0, 67.25, -72.6300048828125, 45.72999954223633, 78.01000213623047, 10.760000228881836, 21.520000457763672, -5.380000114440918)
2024/05/03/13:00:38.751507;119317;1714766438;768480396;;['BL_Position', 'BL_Wheel', 'BR_Position', 'BR_Wheel', 'FL_Position', 'FL_Wheel', 'FR_Position', 'FR_Wheel'];(-0.2178252786397934, 1687.3052978515625, -0.14419420063495636, 1740.328857421875, 0.22396120429039001, 1685.1224365234375, 0.15493206679821014, 1744.5887451171875);(-0.07194247096776962, 2.8776988983154297, 0.0, 4.124701976776123, 0.04796164855360985, 2.8776988983154297, 0.0, 4.1007208824157715);(0.0, 64.55999755859375, -107.60000610351562, 37.65999984741211, 61.87000274658203, 5.380000114440918, 48.42000198364258, -13.450000762939453)
2024/05/03/13:00:38.761965;119318;1714766438;784404932;;['BL_Position', 'BL_Wheel', 'BR_Position', 'BR_Wheel', 'FL_Position', 'FL_Wheel', 'FR_Position', 'FR_Wheel'];(-0.22396120429039001, 1687.3482666015625, -0.14726215600967407, 1740.394775390625, 0.23009712994098663, 1685.16845703125, 0.15800002217292786, 1744.65771484375);(-0.16786576807498932, 2.8776988983154297, -0.023980824276804924, 4.124701976776123, 0.11990412324666977, 2.8776988983154297, 0.023980824276804924, 4.124701976776123);(10.760000228881836, 61.87000274658203, -96.84000396728516, 34.970001220703125, 53.80000305175781, 2.690000057220459, 29.59000015258789, -21.520000457763672)
2024/05/03/13:00:38.787159;119319;1714766438;800415580;;['BL_Position', 'BL_Wheel', 'BR_Position', 'BR_Wheel', 'FL_Position', 'FL_Wheel', 'FR_Position', 'FR_Wheel'];(-0.23009712994098663, 1687.3912353515625, -0.14879614114761353, 1740.457763671875, 0.2346990704536438, 1685.21142578125, 0.1595340073108673, 1744.720703125);(-0.2637890577316284, 2.8537180423736572, -0.04796164855360985, 4.1007208824157715, 0.16786576807498932, 2.8537180423736572, 0.04796164855360985, 4.1007208824157715);(0.0, 61.87000274658203, -91.45999908447266, 34.970001220703125, 64.55999755859375, 2.690000057220459, 37.65999984741211, -26.900001525878906)
2024/05/03/13:00:38.794126;119320;1714766438;816399783;;['BL_Position', 'BL_Wheel', 'BR_Position', 'BR_Wheel', 'FL_Position', 'FL_Wheel', 'FR_Position', 'FR_Wheel'];(-0.2377670258283615, 1687.4326171875, -0.1533980816602707, 1740.51904296875, 0.24083499610424042, 1685.2528076171875, 0.16260196268558502, 1744.781982421875);(-0.33573153614997864, 2.8057563304901123, -0.07194247096776962, 4.052759170532227, 0.23980824649333954, 2.8057563304901123, 0.07194247096776962, 4.052759170532227);(0.0, 59.18000030517578, -80.70000457763672, 26.900001525878906, 72.6300048828125, 0.0, 34.970001220703125, -21.520000457763672)
2024/05/03/13:00:38.809410;119321;1714766438;832408467;;['BL_Position', 'BL_Wheel', 'BR_Position', 'BR_Wheel', 'FL_Position', 'FL_Wheel', 'FR_Position', 'FR_Wheel'];(-0.24390295147895813, 1687.4725341796875, -0.15800002217292786, 1740.577392578125, 0.2485048919916153, 1685.294189453125, 0.1672039031982422, 1744.8433837890625);(-0.3836931884288788, 2.733814001083374, -0.14388494193553925, 3.956835985183716, 0.31175071001052856, 2.7577948570251465, 0.11990412324666977, 3.9808168411254883);(8.069999694824219, 59.18000030517578, -78.01000213623047, 26.900001525878906, 53.80000305175781, 0.0, 24.21000099182129, -16.139999389648438)
2024/05/03/13:00:38.825601;119322;1714766438;848370299;;['BL_Position', 'BL_Wheel', 'BR_Position', 'BR_Wheel', 'FL_Position', 'FL_Wheel', 'FR_Position', 'FR_Wheel'];(-0.25617480278015137, 1687.5123291015625, -0.16413594782352448, 1740.6356201171875, 0.25617480278015137, 1685.3326416015625, 0.1702718734741211, 1744.900146484375);(-0.40767401456832886, 2.6618714332580566, -0.16786576807498932, 3.860912799835205, 0.3597123622894287, 2.6618714332580566, 0.14388494193553925, 3.8848934173583984);(2.690000057220459, 53.80000305175781, -72.6300048828125, 21.520000457763672, 51.11000061035156, 0.0, 21.520000457763672, -13.450000762939453)
2024/05/03/13:00:38.854194;119323;1714766438;864434187;;['BL_Position', 'BL_Wheel', 'BR_Position', 'BR_Wheel', 'FL_Position', 'FL_Wheel', 'FR_Position', 'FR_Wheel'];(-0.26998063921928406, 1687.5491943359375, -0.1672039031982422, 1740.6878662109375, 0.26998063921928406, 1685.367919921875, 0.1764077991247177, 1744.953857421875);(-0.4796164929866791, 2.565948247909546, -0.21582742035388947, 3.7410085201263428, 0.43165484070777893, 2.565948247909546, 0.1918465942144394, 3.7649893760681152);(10.760000228881836, 56.4900016784668, -75.31999969482422, 18.829999923706055, 45.72999954223633, 0.0, 16.139999389648438, -10.760000228881836)
2024/05/03/13:00:38.860278;119324;1714766438;880966631;;['BL_Position', 'BL_Wheel', 'BR_Position', 'BR_Wheel', 'FL_Position', 'FL_Wheel', 'FR_Position', 'FR_Wheel'];(-0.2853204309940338, 1687.5828857421875, -0.17487381398677826, 1740.7384033203125, 0.28378644585609436, 1685.401611328125, 0.18100973963737488, 1745.0074462890625);(-0.575539767742157, 2.4460439682006836, -0.2637890577316284, 3.6211044788360596, 0.5515589714050293, 2.4460439682006836, 0.21582742035388947, 3.645085334777832);(18.829999923706055, 56.4900016784668, -61.87000274658203, 16.139999389648438, 45.72999954223633, 0.0, 21.520000457763672, -8.069999694824219)
2024/05/03/13:00:38.880543;119325;1714766438;896416315;;['BL_Position', 'BL_Wheel', 'BR_Position', 'BR_Wheel', 'FL_Position', 'FL_Wheel', 'FR_Position', 'FR_Wheel'];(-0.29759228229522705, 1687.6151123046875, -0.18100973963737488, 1740.7906494140625, 0.29759228229522705, 1685.433837890625, 0.1871456652879715, 1745.05810546875);(-0.6954439282417297, 2.3261399269104004, -0.31175071001052856, 3.4532387256622314, 0.6714630722999573, 2.3261399269104004, 0.2637890577316284, 3.477219581604004);(32.279998779296875, 59.18000030517578, -59.18000030517578, 16.139999389648438, 26.900001525878906, 0.0, 18.829999923706055, -2.690000057220459)
2024/05/03/13:00:38.889862;119326;1714766438;912390500;;['BL_Position', 'BL_Wheel', 'BR_Position', 'BR_Wheel', 'FL_Position', 'FL_Wheel', 'FR_Position', 'FR_Wheel'];(-0.3067961633205414, 1687.6427001953125, -0.1840776950120926, 1740.8350830078125, 0.3067961633205414, 1685.4630126953125, 0.1902136206626892, 1745.1026611328125);(-0.7673863768577576, 2.1822550296783447, -0.33573153614997864, 3.309353828430176, 0.7434055805206299, 2.206235885620117, 0.2877698838710785, 3.3333346843719482);(13.450000762939453, 56.4900016784668, -78.01000213623047, 16.139999389648438, 43.040000915527344, 0.0, 24.21000099182129, 0.0)
2024/05/03/13:00:38.907493;119327;1714766438;929158351;;['BL_Position', 'BL_Wheel', 'BR_Position', 'BR_Wheel', 'FL_Position', 'FL_Wheel', 'FR_Position', 'FR_Wheel'];(-0.3206019997596741, 1687.67041015625, -0.18867963552474976, 1740.8795166015625, 0.3190680146217346, 1685.4906005859375, 0.19481556117534637, 1745.1470947265625);(-0.7913671731948853, 2.038370132446289, -0.33573153614997864, 3.165468692779541, 0.7434055805206299, 2.086331605911255, 0.2877698838710785, 3.165468692779541);(8.069999694824219, 61.87000274658203, -80.70000457763672, 18.829999923706055, 69.94000244140625, 0.0, 29.59000015258789, 0.0)
2024/05/03/13:00:38.968678;119328;1714766438;944552813;;['BL_Position', 'BL_Wheel', 'BR_Position', 'BR_Wheel', 'FL_Position', 'FL_Wheel', 'FR_Position', 'FR_Wheel'];(-0.33900976181030273, 1687.697998046875, -0.19634954631328583, 1740.9224853515625, 0.3374757766723633, 1685.519775390625, 0.20248547196388245, 1745.1900634765625);(-0.8153480291366577, 1.9184659719467163, -0.31175071001052856, 2.997602939605713, 0.7673863768577576, 1.9424467086791992, 0.2877698838710785, 2.997602939605713);(32.279998779296875, 61.87000274658203, -75.31999969482422, 18.829999923706055, 40.35000228881836, 0.0, 18.829999923706055, 0.0)
