time;.header.seq;.header.stamp.secs;.header.stamp.nsecs;.header.frame_id;.name;.position;.velocity;.effort
2024/05/03/13:18:14.988957;185335;1714767495;17928262;;['BL_Position', 'BL_Wheel', 'BR_Position', 'BR_Wheel', 'FL_Position', 'FL_Wheel', 'FR_Position', 'FR_Wheel'];(0.0, 2399.845458984375, 0.006135923322290182, 2562.610107421875, -0.0015339808305725455, 2398.09228515625, 0.0, 2566.968017578125);(0.0, 0.0, 0.0, 0.0, 0.0, 0.0, 0.0, 0.0);(5.380000114440918, 102.22000122070312, -61.87000274658203, 5.380000114440918, 21.520000457763672, 0.0, 0.0, -21.520000457763672)
2024/05/03/13:18:15.004540;185336;1714767495;33883872;;['BL_Position', 'BL_Wheel', 'BR_Position', 'BR_Wheel', 'FL_Position', 'FL_Wheel', 'FR_Position', 'FR_Wheel'];(0.0, 2399.845458984375, 0.006135923322290182, 2562.608642578125, -0.003067961661145091, 2398.09228515625, 0.0, 2566.968017578125);(0.0, 0.0, 0.0, 0.0, 0.0, 0.0, 0.0, 0.0);(5.380000114440918, 102.22000122070312, -61.87000274658203, 5.380000114440918, 37.65999984741211, 0.0, 0.0, -21.520000457763672)
2024/05/03/13:18:15.023571;185337;1714767495;50030353;;['BL_Position', 'BL_Wheel', 'BR_Position', 'BR_Wheel', 'FL_Position', 'FL_Wheel', 'FR_Position', 'FR_Wheel'];(0.0, 2399.845458984375, 0.006135923322290182, 2562.610107421875, -0.003067961661145091, 2398.09228515625, 0.0, 2566.968017578125);(0.0, 0.0, 0.0, 0.0, 0.0, 0.0, 0.0, 0.0);(5.380000114440918, 102.22000122070312, -59.18000030517578, 5.380000114440918, 10.760000228881836, 0.0, 0.0, -21.520000457763672)
2024/05/03/13:18:15.036952;185338;1714767495;65993242;;['BL_Position', 'BL_Wheel', 'BR_Position', 'BR_Wheel', 'FL_Position', 'FL_Wheel', 'FR_Position', 'FR_Wheel'];(0.0, 2399.845458984375, 0.006135923322290182, 2562.608642578125, -0.003067961661145091, 2398.09375, 0.0, 2566.968017578125);(0.0, 0.0, 0.0, 0.0, 0.0, 0.0, 0.0, 0.0);(5.380000114440918, 102.22000122070312, -61.87000274658203, 5.380000114440918, 53.80000305175781, 0.0, 0.0, -21.520000457763672)
2024/05/03/13:18:15.055809;185339;1714767495;81914797;;['BL_Position', 'BL_Wheel', 'BR_Position', 'BR_Wheel', 'FL_Position', 'FL_Wheel', 'FR_Position', 'FR_Wheel'];(0.0, 2399.845458984375, 0.006135923322290182, 2562.608642578125, -0.003067961661145091, 2398.09228515625, 0.0, 2566.966552734375);(0.0, 0.0, 0.0, 0.0, 0.0, 0.0, 0.0, 0.0);(5.380000114440918, 102.22000122070312, -61.87000274658203, 5.380000114440918, 32.279998779296875, 0.0, 0.0, -21.520000457763672)
2024/05/03/13:18:15.071495;185340;1714767495;97894445;;['BL_Position', 'BL_Wheel', 'BR_Position', 'BR_Wheel', 'FL_Position', 'FL_Wheel', 'FR_Position', 'FR_Wheel'];(0.0, 2399.845458984375, 0.006135923322290182, 2562.608642578125, -0.003067961661145091, 2398.09228515625, 0.0, 2566.968017578125);(0.0, 0.0, 0.0, 0.0, 0.0, 0.0, 0.0, 0.0);(5.380000114440918, 102.22000122070312, -61.87000274658203, 5.380000114440918, 13.450000762939453, 0.0, 0.0, -21.520000457763672)
2024/05/03/13:18:15.084709;185341;1714767495;113910167;;['BL_Position', 'BL_Wheel', 'BR_Position', 'BR_Wheel', 'FL_Position', 'FL_Wheel', 'FR_Position', 'FR_Wheel'];(0.0, 2399.845458984375, 0.006135923322290182, 2562.608642578125, -0.003067961661145091, 2398.09375, 0.0, 2566.968017578125);(0.0, 0.0, 0.0, 0.0, 0.0, 0.0, 0.0, 0.0);(5.380000114440918, 102.22000122070312, -61.87000274658203, 5.380000114440918, 32.279998779296875, 0.0, 0.0, -21.520000457763672)
2024/05/03/13:18:15.102015;185342;1714767495;130252240;;['BL_Position', 'BL_Wheel', 'BR_Position', 'BR_Wheel', 'FL_Position', 'FL_Wheel', 'FR_Position', 'FR_Wheel'];(0.0, 2399.845458984375, 0.006135923322290182, 2562.608642578125, -0.003067961661145091, 2398.09228515625, 0.0, 2566.968017578125);(0.0, 0.0, 0.0, 0.0, 0.0, 0.0, 0.0, 0.0);(5.380000114440918, 102.22000122070312, -59.18000030517578, 5.380000114440918, 29.59000015258789, 0.0, 0.0, -21.520000457763672)
2024/05/03/13:18:15.118792;185343;1714767495;145935184;;['BL_Position', 'BL_Wheel', 'BR_Position', 'BR_Wheel', 'FL_Position', 'FL_Wheel', 'FR_Position', 'FR_Wheel'];(0.0, 2399.845458984375, 0.006135923322290182, 2562.610107421875, -0.0015339808305725455, 2398.09228515625, 0.0, 2566.968017578125);(0.0, 0.0, 0.0, 0.0, 0.0, 0.0, 0.0, 0.0);(5.380000114440918, 102.22000122070312, -61.87000274658203, 5.380000114440918, 32.279998779296875, 0.0, 0.0, -21.520000457763672)
2024/05/03/13:18:15.132795;185344;1714767495;161940814;;['BL_Position', 'BL_Wheel', 'BR_Position', 'BR_Wheel', 'FL_Position', 'FL_Wheel', 'FR_Position', 'FR_Wheel'];(0.0, 2399.845458984375, 0.006135923322290182, 2562.610107421875, -0.0015339808305725455, 2398.09228515625, 0.0, 2566.968017578125);(0.0, 0.0, 0.0, 0.0, 0.0, 0.0, 0.0, 0.0);(5.380000114440918, 102.22000122070312, -61.87000274658203, 5.380000114440918, 37.65999984741211, 0.0, 0.0, -21.520000457763672)
2024/05/03/13:18:15.150750;185345;1714767495;177930184;;['BL_Position', 'BL_Wheel', 'BR_Position', 'BR_Wheel', 'FL_Position', 'FL_Wheel', 'FR_Position', 'FR_Wheel'];(0.0, 2399.845458984375, 0.006135923322290182, 2562.608642578125, -0.0015339808305725455, 2398.09228515625, 0.0, 2566.968017578125);(0.0, 0.0, 0.0, 0.0, 0.0, 0.0, 0.0, 0.0);(5.380000114440918, 102.22000122070312, -61.87000274658203, 5.380000114440918, 24.21000099182129, 0.0, 0.0, -21.520000457763672)
2024/05/03/13:18:15.164884;185346;1714767495;193909220;;['BL_Position', 'BL_Wheel', 'BR_Position', 'BR_Wheel', 'FL_Position', 'FL_Wheel', 'FR_Position', 'FR_Wheel'];(0.0, 2399.845458984375, 0.006135923322290182, 2562.610107421875, -0.0015339808305725455, 2398.09228515625, 0.0, 2566.968017578125);(0.0, 0.0, 0.0, 0.0, 0.0, 0.0, 0.0, 0.0);(5.380000114440918, 102.22000122070312, -59.18000030517578, 5.380000114440918, 13.450000762939453, 0.0, 0.0, -21.520000457763672)
2024/05/03/13:18:15.181215;185347;1714767495;210080479;;['BL_Position', 'BL_Wheel', 'BR_Position', 'BR_Wheel', 'FL_Position', 'FL_Wheel', 'FR_Position', 'FR_Wheel'];(0.0, 2399.845458984375, 0.006135923322290182, 2562.610107421875, -0.0015339808305725455, 2398.09228515625, 0.0, 2566.966552734375);(0.0, 0.0, 0.0, 0.0, 0.0, 0.0, 0.0, 0.0);(5.380000114440918, 102.22000122070312, -61.87000274658203, 5.380000114440918, 24.21000099182129, 0.0, 0.0, -21.520000457763672)
2024/05/03/13:18:15.196787;185348;1714767495;225901312;;['BL_Position', 'BL_Wheel', 'BR_Position', 'BR_Wheel', 'FL_Position', 'FL_Wheel', 'FR_Position', 'FR_Wheel'];(0.0, 2399.845458984375, 0.006135923322290182, 2562.608642578125, -0.0015339808305725455, 2398.09228515625, 0.0, 2566.968017578125);(0.0, 0.0, 0.0, 0.0, 0.0, 0.0, 0.0, 0.0);(5.380000114440918, 102.22000122070312, -61.87000274658203, 5.380000114440918, 53.80000305175781, 0.0, 0.0, -21.520000457763672)
2024/05/03/13:18:15.212764;185349;1714767495;241872219;;['BL_Position', 'BL_Wheel', 'BR_Position', 'BR_Wheel', 'FL_Position', 'FL_Wheel', 'FR_Position', 'FR_Wheel'];(0.0, 2399.845458984375, 0.006135923322290182, 2562.610107421875, -0.003067961661145091, 2398.09228515625, 0.0, 2566.968017578125);(0.0, 0.0, 0.0, 0.0, 0.0, 0.0, 0.0, 0.0);(5.380000114440918, 102.22000122070312, -61.87000274658203, 5.380000114440918, 21.520000457763672, 0.0, 0.0, -21.520000457763672)
2024/05/03/13:18:15.229931;185350;1714767495;257900330;;['BL_Position', 'BL_Wheel', 'BR_Position', 'BR_Wheel', 'FL_Position', 'FL_Wheel', 'FR_Position', 'FR_Wheel'];(0.0, 2399.845458984375, 0.006135923322290182, 2562.610107421875, -0.003067961661145091, 2398.09228515625, 0.0, 2566.968017578125);(0.0, 0.0, 0.0, 0.0, 0.0, 0.0, 0.0, 0.0);(5.380000114440918, 102.22000122070312, -59.18000030517578, 5.380000114440918, 37.65999984741211, 0.0, 0.0, -21.520000457763672)
2024/05/03/13:18:15.249209;185351;1714767495;273874089;;['BL_Position', 'BL_Wheel', 'BR_Position', 'BR_Wheel', 'FL_Position', 'FL_Wheel', 'FR_Position', 'FR_Wheel'];(0.0, 2399.845458984375, 0.006135923322290182, 2562.610107421875, -0.003067961661145091, 2398.09375, 0.0, 2566.966552734375);(0.0, 0.0, 0.0, 0.0, 0.0, 0.0, 0.0, 0.0);(5.380000114440918, 102.22000122070312, -59.18000030517578, 5.380000114440918, 56.4900016784668, 0.0, 0.0, -21.520000457763672)
2024/05/03/13:18:15.263007;185352;1714767495;289885385;;['BL_Position', 'BL_Wheel', 'BR_Position', 'BR_Wheel', 'FL_Position', 'FL_Wheel', 'FR_Position', 'FR_Wheel'];(0.0, 2399.845458984375, 0.006135923322290182, 2562.608642578125, -0.0015339808305725455, 2398.09375, 0.0, 2566.968017578125);(0.0, 0.0, 0.0, 0.0, 0.0, 0.0, 0.0, 0.0);(5.380000114440918, 102.22000122070312, -61.87000274658203, 5.380000114440918, 40.35000228881836, 0.0, 0.0, -21.520000457763672)
2024/05/03/13:18:15.276849;185353;1714767495;305868051;;['BL_Position', 'BL_Wheel', 'BR_Position', 'BR_Wheel', 'FL_Position', 'FL_Wheel', 'FR_Position', 'FR_Wheel'];(0.0, 2399.845458984375, 0.006135923322290182, 2562.610107421875, -0.003067961661145091, 2398.09228515625, 0.0, 2566.968017578125);(0.0, 0.0, 0.0, 0.0, 0.0, 0.0, 0.0, 0.0);(5.380000114440918, 102.22000122070312, -61.87000274658203, 5.380000114440918, 13.450000762939453, 0.0, 0.0, -21.520000457763672)
2024/05/03/13:18:15.292876;185354;1714767495;321879717;;['BL_Position', 'BL_Wheel', 'BR_Position', 'BR_Wheel', 'FL_Position', 'FL_Wheel', 'FR_Position', 'FR_Wheel'];(0.0, 2399.845458984375, 0.006135923322290182, 2562.608642578125, -0.003067961661145091, 2398.09375, 0.0, 2566.966552734375);(0.0, 0.0, 0.0, 0.0, 0.0, 0.0, 0.0, 0.0);(5.380000114440918, 102.22000122070312, -59.18000030517578, 5.380000114440918, 34.970001220703125, 0.0, 0.0, -21.520000457763672)
2024/05/03/13:18:15.309097;185355;1714767495;338162161;;['BL_Position', 'BL_Wheel', 'BR_Position', 'BR_Wheel', 'FL_Position', 'FL_Wheel', 'FR_Position', 'FR_Wheel'];(0.0, 2399.845458984375, 0.006135923322290182, 2562.608642578125, -0.003067961661145091, 2398.09228515625, 0.0, 2566.968017578125);(0.0, 0.0, 0.0, 0.0, 0.0, 0.0, 0.0, 0.0);(5.380000114440918, 102.22000122070312, -59.18000030517578, 5.380000114440918, 53.80000305175781, 0.0, 0.0, -21.520000457763672)
2024/05/03/13:18:15.330452;185356;1714767495;353910624;;['BL_Position', 'BL_Wheel', 'BR_Position', 'BR_Wheel', 'FL_Position', 'FL_Wheel', 'FR_Position', 'FR_Wheel'];(0.0, 2399.845458984375, 0.006135923322290182, 2562.610107421875, -0.003067961661145091, 2398.09228515625, 0.0, 2566.968017578125);(0.0, 0.0, 0.0, 0.0, 0.0, 0.0, 0.0, 0.0);(5.380000114440918, 102.22000122070312, -59.18000030517578, 5.380000114440918, 18.829999923706055, 0.0, 0.0, -21.520000457763672)
2024/05/03/13:18:15.342362;185357;1714767495;371248772;;['BL_Position', 'BL_Wheel', 'BR_Position', 'BR_Wheel', 'FL_Position', 'FL_Wheel', 'FR_Position', 'FR_Wheel'];(0.0, 2399.845458984375, 0.006135923322290182, 2562.608642578125, -0.003067961661145091, 2398.09228515625, 0.0, 2566.968017578125);(0.0, 0.0, 0.0, 0.0, 0.0, 0.0, 0.0, 0.0);(5.380000114440918, 102.22000122070312, -61.87000274658203, 5.380000114440918, 13.450000762939453, 0.0, 0.0, -21.520000457763672)
2024/05/03/13:18:15.358505;185358;1714767495;385902938;;['BL_Position', 'BL_Wheel', 'BR_Position', 'BR_Wheel', 'FL_Position', 'FL_Wheel', 'FR_Position', 'FR_Wheel'];(0.0, 2399.845458984375, 0.006135923322290182, 2562.610107421875, -0.0015339808305725455, 2398.09228515625, 0.0, 2566.966552734375);(0.0, 0.0, 0.0, 0.0, 0.0, 0.0, 0.0, 0.0);(5.380000114440918, 102.22000122070312, -59.18000030517578, 5.380000114440918, 10.760000228881836, 0.0, 0.0, -21.520000457763672)
2024/05/03/13:18:15.373111;185359;1714767495;401948530;;['BL_Position', 'BL_Wheel', 'BR_Position', 'BR_Wheel', 'FL_Position', 'FL_Wheel', 'FR_Position', 'FR_Wheel'];(0.0, 2399.845458984375, 0.006135923322290182, 2562.610107421875, -0.003067961661145091, 2398.09375, 0.0, 2566.968017578125);(0.0, 0.0, 0.0, 0.0, 0.0, 0.0, 0.0, 0.0);(5.380000114440918, 102.22000122070312, -61.87000274658203, 5.380000114440918, 40.35000228881836, 0.0, 0.0, -21.520000457763672)
2024/05/03/13:18:15.389243;185360;1714767495;418067789;;['BL_Position', 'BL_Wheel', 'BR_Position', 'BR_Wheel', 'FL_Position', 'FL_Wheel', 'FR_Position', 'FR_Wheel'];(-0.0015339808305725455, 2399.845458984375, 0.006135923322290182, 2562.608642578125, -0.003067961661145091, 2398.09375, 0.0, 2566.968017578125);(0.0, 0.0, 0.0, 0.0, 0.0, 0.0, 0.0, 0.0);(5.380000114440918, 102.22000122070312, -59.18000030517578, 5.380000114440918, 16.139999389648438, 0.0, 0.0, -21.520000457763672)
2024/05/03/13:18:15.404764;185361;1714767495;434076844;;['BL_Position', 'BL_Wheel', 'BR_Position', 'BR_Wheel', 'FL_Position', 'FL_Wheel', 'FR_Position', 'FR_Wheel'];(0.0, 2399.845458984375, 0.004601942375302315, 2562.610107421875, -0.003067961661145091, 2398.09228515625, 0.0, 2566.968017578125);(0.0, 0.0, 0.0, 0.0, 0.0, 0.0, 0.0, 0.0);(5.380000114440918, 102.22000122070312, -61.87000274658203, 5.380000114440918, 32.279998779296875, 0.0, 0.0, -21.520000457763672)
2024/05/03/13:18:15.421209;185362;1714767495;449935529;;['BL_Position', 'BL_Wheel', 'BR_Position', 'BR_Wheel', 'FL_Position', 'FL_Wheel', 'FR_Position', 'FR_Wheel'];(0.0, 2399.845458984375, 0.006135923322290182, 2562.610107421875, -0.003067961661145091, 2398.09228515625, 0.0, 2566.968017578125);(0.0, 0.0, 0.0, 0.0, 0.0, 0.0, 0.0, 0.0);(5.380000114440918, 102.22000122070312, -59.18000030517578, 5.380000114440918, 37.65999984741211, 0.0, 0.0, -21.520000457763672)
2024/05/03/13:18:15.436562;185363;1714767495;465917880;;['BL_Position', 'BL_Wheel', 'BR_Position', 'BR_Wheel', 'FL_Position', 'FL_Wheel', 'FR_Position', 'FR_Wheel'];(0.0, 2399.845458984375, 0.006135923322290182, 2562.608642578125, -0.003067961661145091, 2398.09228515625, 0.0, 2566.968017578125);(0.0, 0.0, 0.0, 0.0, 0.0, 0.0, 0.0, 0.0);(5.380000114440918, 102.22000122070312, -59.18000030517578, 5.380000114440918, 16.139999389648438, 0.0, 0.0, -21.520000457763672)
2024/05/03/13:18:15.460793;185364;1714767495;481992232;;['BL_Position', 'BL_Wheel', 'BR_Position', 'BR_Wheel', 'FL_Position', 'FL_Wheel', 'FR_Position', 'FR_Wheel'];(0.0, 2399.845458984375, 0.006135923322290182, 2562.610107421875, -0.0015339808305725455, 2398.09375, 0.0, 2566.968017578125);(0.0, 0.0, 0.0, 0.0, 0.0, 0.0, 0.0, 0.0);(5.380000114440918, 102.22000122070312, -61.87000274658203, 5.380000114440918, 5.380000114440918, 0.0, 0.0, -21.520000457763672)
2024/05/03/13:18:15.468123;185365;1714767495;497934880;;['BL_Position', 'BL_Wheel', 'BR_Position', 'BR_Wheel', 'FL_Position', 'FL_Wheel', 'FR_Position', 'FR_Wheel'];(0.0, 2399.845458984375, 0.006135923322290182, 2562.608642578125, -0.0015339808305725455, 2398.09228515625, 0.0, 2566.968017578125);(0.0, 0.0, 0.0, 0.0, 0.0, 0.0, 0.0, 0.0);(5.380000114440918, 102.22000122070312, -59.18000030517578, 5.380000114440918, 40.35000228881836, 0.0, 0.0, -21.520000457763672)
2024/05/03/13:18:15.483645;185366;1714767495;513874490;;['BL_Position', 'BL_Wheel', 'BR_Position', 'BR_Wheel', 'FL_Position', 'FL_Wheel', 'FR_Position', 'FR_Wheel'];(0.0, 2399.845458984375, 0.006135923322290182, 2562.608642578125, -0.003067961661145091, 2398.09228515625, 0.0, 2566.966552734375);(0.0, 0.0, 0.0, 0.0, 0.0, 0.0, 0.0, 0.0);(5.380000114440918, 102.22000122070312, -59.18000030517578, 5.380000114440918, 40.35000228881836, 0.0, 0.0, -21.520000457763672)
2024/05/03/13:18:15.499596;185367;1714767495;530084971;;['BL_Position', 'BL_Wheel', 'BR_Position', 'BR_Wheel', 'FL_Position', 'FL_Wheel', 'FR_Position', 'FR_Wheel'];(0.0, 2399.845458984375, 0.006135923322290182, 2562.608642578125, -0.003067961661145091, 2398.09375, 0.0, 2566.968017578125);(0.0, 0.0, 0.0, 0.0, 0.0, 0.0, 0.0, 0.0);(5.380000114440918, 102.22000122070312, -61.87000274658203, 5.380000114440918, 26.900001525878906, 0.0, 0.0, -21.520000457763672)
2024/05/03/13:18:15.517428;185368;1714767495;545928397;;['BL_Position', 'BL_Wheel', 'BR_Position', 'BR_Wheel', 'FL_Position', 'FL_Wheel', 'FR_Position', 'FR_Wheel'];(0.0, 2399.845458984375, 0.006135923322290182, 2562.608642578125, -0.0015339808305725455, 2398.09375, 0.0, 2566.966552734375);(0.0, 0.0, 0.0, 0.0, 0.0, 0.0, 0.0, 0.0);(5.380000114440918, 102.22000122070312, -61.87000274658203, 5.380000114440918, 21.520000457763672, 0.0, 0.0, -21.520000457763672)
2024/05/03/13:18:15.539167;185369;1714767495;561985193;;['BL_Position', 'BL_Wheel', 'BR_Position', 'BR_Wheel', 'FL_Position', 'FL_Wheel', 'FR_Position', 'FR_Wheel'];(0.0, 2399.845458984375, 0.006135923322290182, 2562.610107421875, -0.0015339808305725455, 2398.09375, 0.0, 2566.968017578125);(0.0, 0.0, 0.0, 0.0, 0.0, 0.0, 0.0, 0.0);(5.380000114440918, 102.22000122070312, -61.87000274658203, 5.380000114440918, 16.139999389648438, 0.0, 0.0, -21.520000457763672)
2024/05/03/13:18:15.548981;185370;1714767495;577938266;;['BL_Position', 'BL_Wheel', 'BR_Position', 'BR_Wheel', 'FL_Position', 'FL_Wheel', 'FR_Position', 'FR_Wheel'];(0.0, 2399.845458984375, 0.006135923322290182, 2562.610107421875, -0.003067961661145091, 2398.09375, 0.0, 2566.968017578125);(0.0, 0.0, 0.0, 0.0, 0.0, 0.0, 0.0, 0.0);(5.380000114440918, 102.22000122070312, -61.87000274658203, 5.380000114440918, 24.21000099182129, 0.0, 0.0, -21.520000457763672)
2024/05/03/13:18:15.568321;185371;1714767495;593925451;;['BL_Position', 'BL_Wheel', 'BR_Position', 'BR_Wheel', 'FL_Position', 'FL_Wheel', 'FR_Position', 'FR_Wheel'];(0.0, 2399.845458984375, 0.006135923322290182, 2562.608642578125, -0.003067961661145091, 2398.09228515625, 0.0, 2566.968017578125);(0.0, 0.0, 0.0, 0.0, 0.0, 0.0, 0.0, 0.0);(5.380000114440918, 102.22000122070312, -61.87000274658203, 5.380000114440918, 26.900001525878906, 0.0, 0.0, -21.520000457763672)
2024/05/03/13:18:15.583823;185372;1714767495;609898580;;['BL_Position', 'BL_Wheel', 'BR_Position', 'BR_Wheel', 'FL_Position', 'FL_Wheel', 'FR_Position', 'FR_Wheel'];(0.0, 2399.845458984375, 0.006135923322290182, 2562.610107421875, -0.003067961661145091, 2398.09228515625, 0.0, 2566.968017578125);(0.0, 0.0, 0.0, 0.0, 0.0, 0.0, 0.0, 0.0);(5.380000114440918, 102.22000122070312, -59.18000030517578, 5.380000114440918, 8.069999694824219, 0.0, 0.0, -21.520000457763672)
2024/05/03/13:18:15.596525;185373;1714767495;625931932;;['BL_Position', 'BL_Wheel', 'BR_Position', 'BR_Wheel', 'FL_Position', 'FL_Wheel', 'FR_Position', 'FR_Wheel'];(0.0, 2399.845458984375, 0.006135923322290182, 2562.610107421875, -0.0015339808305725455, 2398.09228515625, 0.0, 2566.966552734375);(0.0, 0.0, 0.0, 0.0, 0.0, 0.0, 0.0, 0.0);(5.380000114440918, 102.22000122070312, -61.87000274658203, 5.380000114440918, 18.829999923706055, 0.0, 0.0, -21.520000457763672)
2024/05/03/13:18:15.613055;185374;1714767495;641896246;;['BL_Position', 'BL_Wheel', 'BR_Position', 'BR_Wheel', 'FL_Position', 'FL_Wheel', 'FR_Position', 'FR_Wheel'];(0.0, 2399.845458984375, 0.006135923322290182, 2562.610107421875, -0.0015339808305725455, 2398.09228515625, 0.0, 2566.968017578125);(0.0, 0.0, 0.0, 0.0, 0.0, 0.0, 0.0, 0.0);(5.380000114440918, 102.22000122070312, -59.18000030517578, 5.380000114440918, 16.139999389648438, 0.0, 0.0, -21.520000457763672)
2024/05/03/13:18:15.630752;185375;1714767495;657879450;;['BL_Position', 'BL_Wheel', 'BR_Position', 'BR_Wheel', 'FL_Position', 'FL_Wheel', 'FR_Position', 'FR_Wheel'];(0.0, 2399.845458984375, 0.006135923322290182, 2562.608642578125, -0.003067961661145091, 2398.09375, 0.0, 2566.968017578125);(0.0, 0.0, 0.0, 0.0, 0.0, 0.0, 0.0, 0.0);(5.380000114440918, 102.22000122070312, -59.18000030517578, 5.380000114440918, 26.900001525878906, 0.0, 0.0, -21.520000457763672)
2024/05/03/13:18:15.643580;185376;1714767495;673888097;;['BL_Position', 'BL_Wheel', 'BR_Position', 'BR_Wheel', 'FL_Position', 'FL_Wheel', 'FR_Position', 'FR_Wheel'];(0.0, 2399.845458984375, 0.006135923322290182, 2562.608642578125, -0.0015339808305725455, 2398.09228515625, 0.0, 2566.968017578125);(0.0, 0.0, 0.0, 0.0, 0.0, 0.0, 0.0, 0.0);(5.380000114440918, 102.22000122070312, -59.18000030517578, 5.380000114440918, 34.970001220703125, 0.0, 0.0, -21.520000457763672)
2024/05/03/13:18:15.668876;185377;1714767495;689829838;;['BL_Position', 'BL_Wheel', 'BR_Position', 'BR_Wheel', 'FL_Position', 'FL_Wheel', 'FR_Position', 'FR_Wheel'];(0.0, 2399.845458984375, 0.006135923322290182, 2562.610107421875, -0.0015339808305725455, 2398.09375, 0.0, 2566.968017578125);(0.0, 0.0, 0.0, 0.0, 0.0, 0.0, 0.0, 0.0);(5.380000114440918, 102.22000122070312, -61.87000274658203, 5.380000114440918, 53.80000305175781, 0.0, 0.0, -21.520000457763672)
2024/05/03/13:18:15.676355;185378;1714767495;705846893;;['BL_Position', 'BL_Wheel', 'BR_Position', 'BR_Wheel', 'FL_Position', 'FL_Wheel', 'FR_Position', 'FR_Wheel'];(0.0, 2399.845458984375, 0.006135923322290182, 2562.610107421875, -0.003067961661145091, 2398.09228515625, 0.0, 2566.968017578125);(0.0, 0.0, 0.0, 0.0, 0.0, 0.0, 0.0, 0.0);(5.380000114440918, 102.22000122070312, -61.87000274658203, 5.380000114440918, 40.35000228881836, 0.0, 0.0, -21.520000457763672)
2024/05/03/13:18:15.693105;185379;1714767495;721859596;;['BL_Position', 'BL_Wheel', 'BR_Position', 'BR_Wheel', 'FL_Position', 'FL_Wheel', 'FR_Position', 'FR_Wheel'];(0.0, 2399.845458984375, 0.006135923322290182, 2562.610107421875, -0.003067961661145091, 2398.09375, 0.0, 2566.968017578125);(0.0, 0.0, 0.0, 0.0, 0.0, 0.0, 0.0, 0.0);(5.380000114440918, 102.22000122070312, -61.87000274658203, 5.380000114440918, 16.139999389648438, 0.0, 0.0, -21.520000457763672)
2024/05/03/13:18:15.708876;185380;1714767495;737949318;;['BL_Position', 'BL_Wheel', 'BR_Position', 'BR_Wheel', 'FL_Position', 'FL_Wheel', 'FR_Position', 'FR_Wheel'];(0.0, 2399.845458984375, 0.006135923322290182, 2562.608642578125, -0.003067961661145091, 2398.09228515625, 0.0, 2566.968017578125);(0.0, 0.0, 0.0, 0.0, 0.0, 0.0, 0.0, 0.0);(5.380000114440918, 102.22000122070312, -59.18000030517578, 5.380000114440918, 10.760000228881836, 0.0, 0.0, -21.520000457763672)
2024/05/03/13:18:15.725035;185381;1714767495;753905670;;['BL_Position', 'BL_Wheel', 'BR_Position', 'BR_Wheel', 'FL_Position', 'FL_Wheel', 'FR_Position', 'FR_Wheel'];(0.0, 2399.845458984375, 0.006135923322290182, 2562.608642578125, -0.0015339808305725455, 2398.09228515625, 0.0, 2566.968017578125);(0.0, 0.0, 0.0, 0.0, 0.0, 0.0, 0.0, 0.0);(5.380000114440918, 102.22000122070312, -59.18000030517578, 5.380000114440918, 43.040000915527344, 0.0, 0.0, -21.520000457763672)
2024/05/03/13:18:15.743376;185382;1714767495;769911669;;['BL_Position', 'BL_Wheel', 'BR_Position', 'BR_Wheel', 'FL_Position', 'FL_Wheel', 'FR_Position', 'FR_Wheel'];(0.0, 2399.845458984375, 0.006135923322290182, 2562.608642578125, -0.0015339808305725455, 2398.09375, 0.0, 2566.966552734375);(0.0, 0.0, 0.0, 0.0, 0.0, 0.0, 0.0, 0.0);(5.380000114440918, 102.22000122070312, -61.87000274658203, 5.380000114440918, 40.35000228881836, 0.0, 0.0, -21.520000457763672)
2024/05/03/13:18:15.768146;185383;1714767495;785895687;;['BL_Position', 'BL_Wheel', 'BR_Position', 'BR_Wheel', 'FL_Position', 'FL_Wheel', 'FR_Position', 'FR_Wheel'];(0.0, 2399.845458984375, 0.006135923322290182, 2562.610107421875, -0.0015339808305725455, 2398.09228515625, 0.0, 2566.968017578125);(0.0, 0.0, 0.0, 0.0, 0.0, 0.0, 0.0, 0.0);(5.380000114440918, 102.22000122070312, -61.87000274658203, 5.380000114440918, 32.279998779296875, 0.0, 0.0, -21.520000457763672)
2024/05/03/13:18:15.774005;185384;1714767495;801910724;;['BL_Position', 'BL_Wheel', 'BR_Position', 'BR_Wheel', 'FL_Position', 'FL_Wheel', 'FR_Position', 'FR_Wheel'];(0.0, 2399.845458984375, 0.004601942375302315, 2562.608642578125, -0.003067961661145091, 2398.09228515625, 0.0, 2566.966552734375);(0.0, 0.0, 0.0, 0.0, 0.0, 0.0, 0.0, 0.0);(5.380000114440918, 102.22000122070312, -61.87000274658203, 5.380000114440918, 8.069999694824219, 0.0, 0.0, -21.520000457763672)
2024/05/03/13:18:15.787899;185385;1714767495;817874298;;['BL_Position', 'BL_Wheel', 'BR_Position', 'BR_Wheel', 'FL_Position', 'FL_Wheel', 'FR_Position', 'FR_Wheel'];(0.0, 2399.845458984375, 0.006135923322290182, 2562.610107421875, -0.003067961661145091, 2398.09228515625, 0.0015339808305725455, 2566.968017578125);(0.0, 0.0, 0.0, 0.0, 0.0, 0.0, 0.0, 0.0);(5.380000114440918, 102.22000122070312, -59.18000030517578, 5.380000114440918, 48.42000198364258, 0.0, 0.0, -21.520000457763672)
2024/05/03/13:18:15.804606;185386;1714767495;833857260;;['BL_Position', 'BL_Wheel', 'BR_Position', 'BR_Wheel', 'FL_Position', 'FL_Wheel', 'FR_Position', 'FR_Wheel'];(0.0, 2399.845458984375, 0.006135923322290182, 2562.610107421875, -0.0015339808305725455, 2398.09375, 0.0, 2566.968017578125);(0.0, 0.0, 0.0, 0.0, 0.0, 0.0, 0.0, 0.0);(5.380000114440918, 102.22000122070312, -61.87000274658203, 5.380000114440918, 24.21000099182129, 0.0, 0.0, -21.520000457763672)
2024/05/03/13:18:15.821142;185387;1714767495;849983278;;['BL_Position', 'BL_Wheel', 'BR_Position', 'BR_Wheel', 'FL_Position', 'FL_Wheel', 'FR_Position', 'FR_Wheel'];(0.0, 2399.845458984375, 0.006135923322290182, 2562.608642578125, -0.003067961661145091, 2398.09375, 0.0, 2566.968017578125);(0.0, 0.0, 0.0, 0.0, 0.0, 0.0, 0.0, 0.0);(5.380000114440918, 102.22000122070312, -61.87000274658203, 5.380000114440918, 8.069999694824219, 0.0, 0.0, -21.520000457763672)
2024/05/03/13:18:15.839453;185388;1714767495;865877093;;['BL_Position', 'BL_Wheel', 'BR_Position', 'BR_Wheel', 'FL_Position', 'FL_Wheel', 'FR_Position', 'FR_Wheel'];(0.0, 2399.845458984375, 0.006135923322290182, 2562.608642578125, -0.003067961661145091, 2398.09375, 0.0, 2566.968017578125);(0.0, 0.0, 0.0, 0.0, 0.0, 0.0, 0.0, 0.0);(5.380000114440918, 102.22000122070312, -61.87000274658203, 5.380000114440918, 24.21000099182129, 0.0, 0.0, -21.520000457763672)
2024/05/03/13:18:15.853126;185389;1714767495;881893981;;['BL_Position', 'BL_Wheel', 'BR_Position', 'BR_Wheel', 'FL_Position', 'FL_Wheel', 'FR_Position', 'FR_Wheel'];(0.0, 2399.845458984375, 0.006135923322290182, 2562.608642578125, -0.003067961661145091, 2398.09375, 0.0, 2566.968017578125);(0.0, 0.0, 0.0, 0.0, 0.0, 0.0, 0.0, 0.0);(8.069999694824219, 102.22000122070312, -61.87000274658203, 5.380000114440918, 48.42000198364258, 0.0, 0.0, -21.520000457763672)
2024/05/03/13:18:15.868696;185390;1714767495;897875425;;['BL_Position', 'BL_Wheel', 'BR_Position', 'BR_Wheel', 'FL_Position', 'FL_Wheel', 'FR_Position', 'FR_Wheel'];(0.0, 2399.845458984375, 0.006135923322290182, 2562.608642578125, -0.003067961661145091, 2398.09228515625, 0.0, 2566.968017578125);(0.0, 0.0, 0.0, 0.0, 0.0, 0.0, 0.0, 0.0);(5.380000114440918, 102.22000122070312, -59.18000030517578, 5.380000114440918, 48.42000198364258, 0.0, 0.0, -21.520000457763672)
2024/05/03/13:18:15.885195;185391;1714767495;913844536;;['BL_Position', 'BL_Wheel', 'BR_Position', 'BR_Wheel', 'FL_Position', 'FL_Wheel', 'FR_Position', 'FR_Wheel'];(0.0, 2399.845458984375, 0.006135923322290182, 2562.610107421875, -0.003067961661145091, 2398.09228515625, 0.0, 2566.968017578125);(0.0, 0.0, 0.0, 0.0, 0.0, 0.0, 0.0, 0.0);(5.380000114440918, 102.22000122070312, -61.87000274658203, 5.380000114440918, 10.760000228881836, 0.0, 0.0, -21.520000457763672)
2024/05/03/13:18:15.901222;185392;1714767495;929999461;;['BL_Position', 'BL_Wheel', 'BR_Position', 'BR_Wheel', 'FL_Position', 'FL_Wheel', 'FR_Position', 'FR_Wheel'];(0.0, 2399.845458984375, 0.004601942375302315, 2562.608642578125, -0.003067961661145091, 2398.09228515625, 0.0, 2566.968017578125);(0.0, 0.0, 0.0, 0.0, 0.0, 0.0, 0.0, 0.0);(5.380000114440918, 102.22000122070312, -61.87000274658203, 5.380000114440918, 10.760000228881836, 0.0, 0.0, -21.520000457763672)
2024/05/03/13:18:15.917143;185393;1714767495;945975313;;['BL_Position', 'BL_Wheel', 'BR_Position', 'BR_Wheel', 'FL_Position', 'FL_Wheel', 'FR_Position', 'FR_Wheel'];(0.0, 2399.845458984375, 0.006135923322290182, 2562.610107421875, -0.003067961661145091, 2398.09228515625, 0.0, 2566.968017578125);(0.0, 0.0, 0.0, 0.0, 0.0, 0.0, 0.0, 0.0);(5.380000114440918, 102.22000122070312, -59.18000030517578, 5.380000114440918, 18.829999923706055, 0.0, 0.0, -21.520000457763672)
2024/05/03/13:18:15.933654;185394;1714767495;961880961;;['BL_Position', 'BL_Wheel', 'BR_Position', 'BR_Wheel', 'FL_Position', 'FL_Wheel', 'FR_Position', 'FR_Wheel'];(0.0, 2399.845458984375, 0.006135923322290182, 2562.610107421875, -0.003067961661145091, 2398.09228515625, 0.0, 2566.968017578125);(0.0, 0.0, 0.0, 0.0, 0.0, 0.0, 0.0, 0.0);(5.380000114440918, 102.22000122070312, -59.18000030517578, 5.380000114440918, 40.35000228881836, 0.0, 0.0, -21.520000457763672)
2024/05/03/13:18:15.948224;185395;1714767495;977920942;;['BL_Position', 'BL_Wheel', 'BR_Position', 'BR_Wheel', 'FL_Position', 'FL_Wheel', 'FR_Position', 'FR_Wheel'];(0.0, 2399.845458984375, 0.006135923322290182, 2562.610107421875, -0.003067961661145091, 2398.09375, 0.0, 2566.966552734375);(0.0, 0.0, 0.0, 0.0, 0.0, 0.0, 0.0, 0.0);(5.380000114440918, 102.22000122070312, -61.87000274658203, 5.380000114440918, 48.42000198364258, 0.0, 0.0, -21.520000457763672)
2024/05/03/13:18:15.974529;185396;1714767495;993902034;;['BL_Position', 'BL_Wheel', 'BR_Position', 'BR_Wheel', 'FL_Position', 'FL_Wheel', 'FR_Position', 'FR_Wheel'];(0.0, 2399.845458984375, 0.006135923322290182, 2562.610107421875, -0.003067961661145091, 2398.09228515625, 0.0, 2566.968017578125);(0.0, 0.0, 0.0, 0.0, 0.0, 0.0, 0.0, 0.0);(5.380000114440918, 102.22000122070312, -59.18000030517578, 5.380000114440918, 16.139999389648438, 0.0, 0.0, -21.520000457763672)
2024/05/03/13:18:15.984003;185397;1714767496;9875922;;['BL_Position', 'BL_Wheel', 'BR_Position', 'BR_Wheel', 'FL_Position', 'FL_Wheel', 'FR_Position', 'FR_Wheel'];(0.0, 2399.845458984375, 0.006135923322290182, 2562.608642578125, -0.003067961661145091, 2398.09228515625, 0.0, 2566.968017578125);(0.0, 0.0, 0.0, 0.0, 0.0, 0.0, 0.0, 0.0);(5.380000114440918, 102.22000122070312, -61.87000274658203, 5.380000114440918, 16.139999389648438, 0.0, 0.0, -21.520000457763672)
2024/05/03/13:18:15.996795;185398;1714767496;25883718;;['BL_Position', 'BL_Wheel', 'BR_Position', 'BR_Wheel', 'FL_Position', 'FL_Wheel', 'FR_Position', 'FR_Wheel'];(0.0, 2399.845458984375, 0.006135923322290182, 2562.608642578125, -0.0015339808305725455, 2398.09228515625, 0.0, 2566.968017578125);(0.0, 0.0, 0.0, 0.0, 0.0, 0.0, 0.0, 0.0);(5.380000114440918, 102.22000122070312, -59.18000030517578, 5.380000114440918, 18.829999923706055, 0.0, 0.0, -21.520000457763672)
2024/05/03/13:18:16.013588;185399;1714767496;41894811;;['BL_Position', 'BL_Wheel', 'BR_Position', 'BR_Wheel', 'FL_Position', 'FL_Wheel', 'FR_Position', 'FR_Wheel'];(0.0, 2399.845458984375, 0.006135923322290182, 2562.608642578125, -0.003067961661145091, 2398.09228515625, 0.0, 2566.968017578125);(0.0, 0.0, 0.0, 0.0, 0.0, 0.0, 0.0, 0.0);(5.380000114440918, 102.22000122070312, -59.18000030517578, 5.380000114440918, 56.4900016784668, 0.0, 0.0, -21.520000457763672)
2024/05/03/13:18:16.030617;185400;1714767496;57989847;;['BL_Position', 'BL_Wheel', 'BR_Position', 'BR_Wheel', 'FL_Position', 'FL_Wheel', 'FR_Position', 'FR_Wheel'];(0.0, 2399.845458984375, 0.006135923322290182, 2562.610107421875, -0.0015339808305725455, 2398.09375, 0.0, 2566.968017578125);(0.0, 0.0, 0.0, 0.0, 0.0, 0.0, 0.0, 0.0);(5.380000114440918, 102.22000122070312, -61.87000274658203, 5.380000114440918, 43.040000915527344, 0.0, 0.0, -21.520000457763672)
2024/05/03/13:18:16.045396;185401;1714767496;73845069;;['BL_Position', 'BL_Wheel', 'BR_Position', 'BR_Wheel', 'FL_Position', 'FL_Wheel', 'FR_Position', 'FR_Wheel'];(0.0, 2399.845458984375, 0.006135923322290182, 2562.608642578125, -0.0015339808305725455, 2398.09228515625, 0.0, 2566.968017578125);(0.0, 0.0, 0.0, 0.0, 0.0, 0.0, 0.0, 0.0);(5.380000114440918, 102.22000122070312, -61.87000274658203, 5.380000114440918, 10.760000228881836, 0.0, 0.0, -21.520000457763672)
2024/05/03/13:18:16.060965;185402;1714767496;89863828;;['BL_Position', 'BL_Wheel', 'BR_Position', 'BR_Wheel', 'FL_Position', 'FL_Wheel', 'FR_Position', 'FR_Wheel'];(0.0, 2399.845458984375, 0.006135923322290182, 2562.608642578125, -0.003067961661145091, 2398.09228515625, 0.0, 2566.968017578125);(0.0, 0.0, 0.0, 0.0, 0.0, 0.0, 0.0, 0.0);(5.380000114440918, 102.22000122070312, -61.87000274658203, 5.380000114440918, 13.450000762939453, 0.0, 0.0, -21.520000457763672)
2024/05/03/13:18:16.083902;185403;1714767496;105843068;;['BL_Position', 'BL_Wheel', 'BR_Position', 'BR_Wheel', 'FL_Position', 'FL_Wheel', 'FR_Position', 'FR_Wheel'];(0.0, 2399.845458984375, 0.006135923322290182, 2562.608642578125, -0.003067961661145091, 2398.09228515625, 0.0, 2566.968017578125);(0.0, 0.0, 0.0, 0.0, 0.0, 0.0, 0.0, 0.0);(5.380000114440918, 102.22000122070312, -61.87000274658203, 5.380000114440918, 37.65999984741211, 0.0, 0.0, -21.520000457763672)
2024/05/03/13:18:16.094959;185404;1714767496;122265235;;['BL_Position', 'BL_Wheel', 'BR_Position', 'BR_Wheel', 'FL_Position', 'FL_Wheel', 'FR_Position', 'FR_Wheel'];(0.0, 2399.845458984375, 0.006135923322290182, 2562.608642578125, -0.003067961661145091, 2398.09228515625, 0.0, 2566.968017578125);(0.0, 0.0, 0.0, 0.0, 0.0, 0.0, 0.0, 0.0);(5.380000114440918, 102.22000122070312, -61.87000274658203, 5.380000114440918, 37.65999984741211, 0.0, 0.0, -21.520000457763672)
2024/05/03/13:18:16.109211;185405;1714767496;137951882;;['BL_Position', 'BL_Wheel', 'BR_Position', 'BR_Wheel', 'FL_Position', 'FL_Wheel', 'FR_Position', 'FR_Wheel'];(0.0, 2399.845458984375, 0.006135923322290182, 2562.610107421875, -0.003067961661145091, 2398.09375, 0.0, 2566.968017578125);(0.0, 0.0, 0.0, 0.0, 0.0, 0.0, 0.0, 0.0);(5.380000114440918, 102.22000122070312, -61.87000274658203, 5.380000114440918, 16.139999389648438, 0.0, 0.0, -21.520000457763672)
2024/05/03/13:18:16.124962;185406;1714767496;153965641;;['BL_Position', 'BL_Wheel', 'BR_Position', 'BR_Wheel', 'FL_Position', 'FL_Wheel', 'FR_Position', 'FR_Wheel'];(-0.0015339808305725455, 2399.845458984375, 0.006135923322290182, 2562.608642578125, -0.003067961661145091, 2398.09375, 0.0, 2566.966552734375);(0.0, 0.0, 0.0, 0.0, 0.0, 0.0, 0.0, 0.0);(5.380000114440918, 102.22000122070312, -61.87000274658203, 5.380000114440918, 32.279998779296875, 0.0, 0.0, -21.520000457763672)
2024/05/03/13:18:16.146800;185407;1714767496;170012048;;['BL_Position', 'BL_Wheel', 'BR_Position', 'BR_Wheel', 'FL_Position', 'FL_Wheel', 'FR_Position', 'FR_Wheel'];(0.0, 2399.845458984375, 0.006135923322290182, 2562.610107421875, -0.003067961661145091, 2398.09375, 0.0, 2566.968017578125);(0.0, 0.0, 0.0, 0.0, 0.0, 0.0, 0.0, 0.0);(5.380000114440918, 102.22000122070312, -61.87000274658203, 5.380000114440918, 59.18000030517578, 0.0, 0.0, -21.520000457763672)
2024/05/03/13:18:16.156950;185408;1714767496;185935511;;['BL_Position', 'BL_Wheel', 'BR_Position', 'BR_Wheel', 'FL_Position', 'FL_Wheel', 'FR_Position', 'FR_Wheel'];(0.0, 2399.845458984375, 0.006135923322290182, 2562.610107421875, -0.003067961661145091, 2398.09375, 0.0, 2566.968017578125);(0.0, 0.0, 0.0, 0.0, 0.0, 0.0, 0.0, 0.0);(5.380000114440918, 102.22000122070312, -61.87000274658203, 5.380000114440918, 13.450000762939453, 0.0, 0.0, -21.520000457763672)
2024/05/03/13:18:16.181970;185409;1714767496;201871362;;['BL_Position', 'BL_Wheel', 'BR_Position', 'BR_Wheel', 'FL_Position', 'FL_Wheel', 'FR_Position', 'FR_Wheel'];(0.0, 2399.845458984375, 0.006135923322290182, 2562.610107421875, -0.003067961661145091, 2398.09375, 0.0, 2566.968017578125);(0.0, 0.0, 0.0, 0.0, 0.0, 0.0, 0.0, 0.0);(5.380000114440918, 102.22000122070312, -59.18000030517578, 5.380000114440918, 13.450000762939453, 0.0, 0.0, -21.520000457763672)
2024/05/03/13:18:16.190168;185410;1714767496;217887991;;['BL_Position', 'BL_Wheel', 'BR_Position', 'BR_Wheel', 'FL_Position', 'FL_Wheel', 'FR_Position', 'FR_Wheel'];(0.0, 2399.845458984375, 0.006135923322290182, 2562.608642578125, -0.003067961661145091, 2398.09228515625, 0.0, 2566.968017578125);(0.0, 0.0, 0.0, 0.0, 0.0, 0.0, 0.0, 0.0);(5.380000114440918, 102.22000122070312, -59.18000030517578, 5.380000114440918, 26.900001525878906, 0.0, 0.0, -21.520000457763672)
2024/05/03/13:18:16.204756;185411;1714767496;233866158;;['BL_Position', 'BL_Wheel', 'BR_Position', 'BR_Wheel', 'FL_Position', 'FL_Wheel', 'FR_Position', 'FR_Wheel'];(0.0, 2399.845458984375, 0.006135923322290182, 2562.610107421875, -0.003067961661145091, 2398.09375, 0.0, 2566.968017578125);(0.0, 0.0, 0.0, 0.0, 0.0, 0.0, 0.0, 0.0);(5.380000114440918, 102.22000122070312, -61.87000274658203, 5.380000114440918, 53.80000305175781, 0.0, 0.0, -21.520000457763672)
2024/05/03/13:18:16.222160;185412;1714767496;249937657;;['BL_Position', 'BL_Wheel', 'BR_Position', 'BR_Wheel', 'FL_Position', 'FL_Wheel', 'FR_Position', 'FR_Wheel'];(0.0, 2399.845458984375, 0.006135923322290182, 2562.610107421875, -0.0015339808305725455, 2398.09228515625, 0.0, 2566.968017578125);(0.0, 0.0, 0.0, 0.0, 0.0, 0.0, 0.0, 0.0);(5.380000114440918, 102.22000122070312, -61.87000274658203, 5.380000114440918, 48.42000198364258, 0.0, 0.0, -21.520000457763672)
2024/05/03/13:18:16.237065;185413;1714767496;265855713;;['BL_Position', 'BL_Wheel', 'BR_Position', 'BR_Wheel', 'FL_Position', 'FL_Wheel', 'FR_Position', 'FR_Wheel'];(0.0, 2399.845458984375, 0.006135923322290182, 2562.610107421875, -0.003067961661145091, 2398.09228515625, 0.0, 2566.968017578125);(0.0, 0.0, 0.0, 0.0, 0.0, 0.0, 0.0, 0.0);(5.380000114440918, 102.22000122070312, -61.87000274658203, 5.380000114440918, 29.59000015258789, 0.0, 0.0, -21.520000457763672)
2024/05/03/13:18:16.254829;185414;1714767496;281873731;;['BL_Position', 'BL_Wheel', 'BR_Position', 'BR_Wheel', 'FL_Position', 'FL_Wheel', 'FR_Position', 'FR_Wheel'];(0.0, 2399.845458984375, 0.006135923322290182, 2562.608642578125, -0.0015339808305725455, 2398.09375, 0.0, 2566.968017578125);(0.0, 0.0, 0.0, 0.0, 0.0, 0.0, 0.0, 0.0);(5.380000114440918, 102.22000122070312, -59.18000030517578, 5.380000114440918, 13.450000762939453, 0.0, 0.0, -21.520000457763672)
2024/05/03/13:18:16.280875;185415;1714767496;298221804;;['BL_Position', 'BL_Wheel', 'BR_Position', 'BR_Wheel', 'FL_Position', 'FL_Wheel', 'FR_Position', 'FR_Wheel'];(0.0, 2399.845458984375, 0.006135923322290182, 2562.608642578125, -0.003067961661145091, 2398.09228515625, 0.0, 2566.968017578125);(0.0, 0.0, 0.0, 0.0, 0.0, 0.0, 0.0, 0.0);(5.380000114440918, 102.22000122070312, -61.87000274658203, 5.380000114440918, 21.520000457763672, 0.0, 0.0, -21.520000457763672)
2024/05/03/13:18:16.290995;185416;1714767496;313921915;;['BL_Position', 'BL_Wheel', 'BR_Position', 'BR_Wheel', 'FL_Position', 'FL_Wheel', 'FR_Position', 'FR_Wheel'];(0.0, 2399.845458984375, 0.006135923322290182, 2562.610107421875, -0.0015339808305725455, 2398.09375, 0.0, 2566.968017578125);(0.0, 0.0, 0.0, 0.0, 0.0, 0.0, 0.0, 0.0);(5.380000114440918, 102.22000122070312, -61.87000274658203, 5.380000114440918, 45.72999954223633, 0.0, 0.0, -21.520000457763672)
2024/05/03/13:18:16.301206;185417;1714767496;330093322;;['BL_Position', 'BL_Wheel', 'BR_Position', 'BR_Wheel', 'FL_Position', 'FL_Wheel', 'FR_Position', 'FR_Wheel'];(0.0, 2399.845458984375, 0.006135923322290182, 2562.610107421875, -0.0015339808305725455, 2398.09228515625, 0.0, 2566.968017578125);(0.0, 0.0, 0.0, 0.0, 0.0, 0.0, 0.0, 0.0);(5.380000114440918, 102.22000122070312, -61.87000274658203, 5.380000114440918, 40.35000228881836, 0.0, 0.0, -21.520000457763672)
2024/05/03/13:18:16.325972;185418;1714767496;352371136;;['BL_Position', 'BL_Wheel', 'BR_Position', 'BR_Wheel', 'FL_Position', 'FL_Wheel', 'FR_Position', 'FR_Wheel'];(0.0, 2399.845458984375, 0.006135923322290182, 2562.610107421875, -0.0015339808305725455, 2398.09375, 0.0, 2566.968017578125);(0.0, 0.0, 0.0, 0.0, 0.0, 0.0, 0.0, 0.0);(5.380000114440918, 102.22000122070312, -61.87000274658203, 5.380000114440918, 13.450000762939453, 0.0, 0.0, -21.520000457763672)
2024/05/03/13:18:16.332814;185419;1714767496;361839506;;['BL_Position', 'BL_Wheel', 'BR_Position', 'BR_Wheel', 'FL_Position', 'FL_Wheel', 'FR_Position', 'FR_Wheel'];(0.0, 2399.845458984375, 0.006135923322290182, 2562.608642578125, -0.003067961661145091, 2398.09228515625, 0.0, 2566.968017578125);(0.0, 0.0, 0.0, 0.0, 0.0, 0.0, 0.0, 0.0);(5.380000114440918, 102.22000122070312, -61.87000274658203, 5.380000114440918, 40.35000228881836, 0.0, 0.0, -21.520000457763672)
2024/05/03/13:18:16.358052;185420;1714767496;377866284;;['BL_Position', 'BL_Wheel', 'BR_Position', 'BR_Wheel', 'FL_Position', 'FL_Wheel', 'FR_Position', 'FR_Wheel'];(0.0, 2399.845458984375, 0.006135923322290182, 2562.608642578125, -0.0015339808305725455, 2398.09375, 0.0, 2566.968017578125);(0.0, 0.0, 0.0, 0.0, 0.0, 0.0, 0.0, 0.0);(5.380000114440918, 102.22000122070312, -61.87000274658203, 5.380000114440918, 10.760000228881836, 0.0, 0.0, -21.520000457763672)
2024/05/03/13:18:16.365342;185421;1714767496;394181765;;['BL_Position', 'BL_Wheel', 'BR_Position', 'BR_Wheel', 'FL_Position', 'FL_Wheel', 'FR_Position', 'FR_Wheel'];(0.0, 2399.845458984375, 0.006135923322290182, 2562.608642578125, -0.003067961661145091, 2398.09228515625, 0.0, 2566.968017578125);(0.0, 0.0, 0.0, 0.0, 0.0, 0.0, 0.0, 0.0);(5.380000114440918, 102.22000122070312, -61.87000274658203, 5.380000114440918, 45.72999954223633, 0.0, 0.0, -21.520000457763672)
2024/05/03/13:18:16.393116;185422;1714767496;410048302;;['BL_Position', 'BL_Wheel', 'BR_Position', 'BR_Wheel', 'FL_Position', 'FL_Wheel', 'FR_Position', 'FR_Wheel'];(0.0, 2399.845458984375, 0.006135923322290182, 2562.610107421875, -0.003067961661145091, 2398.09228515625, 0.0, 2566.968017578125);(0.0, 0.0, 0.0, 0.0, 0.0, 0.0, 0.0, 0.0);(5.380000114440918, 102.22000122070312, -61.87000274658203, 5.380000114440918, 26.900001525878906, 0.0, 0.0, -21.520000457763672)
2024/05/03/13:18:16.398618;185423;1714767496;426429616;;['BL_Position', 'BL_Wheel', 'BR_Position', 'BR_Wheel', 'FL_Position', 'FL_Wheel', 'FR_Position', 'FR_Wheel'];(0.0, 2399.845458984375, 0.006135923322290182, 2562.610107421875, -0.003067961661145091, 2398.09228515625, 0.0, 2566.968017578125);(0.0, 0.0, 0.0, 0.0, 0.0, 0.0, 0.0, 0.0);(5.380000114440918, 102.22000122070312, -61.87000274658203, 5.380000114440918, 10.760000228881836, 0.0, 0.0, -21.520000457763672)
2024/05/03/13:18:16.413206;185424;1714767496;441906634;;['BL_Position', 'BL_Wheel', 'BR_Position', 'BR_Wheel', 'FL_Position', 'FL_Wheel', 'FR_Position', 'FR_Wheel'];(0.0, 2399.845458984375, 0.006135923322290182, 2562.610107421875, -0.003067961661145091, 2398.09375, 0.0, 2566.968017578125);(0.0, 0.0, 0.0, 0.0, 0.0, 0.0, 0.0, 0.0);(5.380000114440918, 102.22000122070312, -59.18000030517578, 5.380000114440918, 32.279998779296875, 0.0, 0.0, -21.520000457763672)
2024/05/03/13:18:16.428876;185425;1714767496;457861634;;['BL_Position', 'BL_Wheel', 'BR_Position', 'BR_Wheel', 'FL_Position', 'FL_Wheel', 'FR_Position', 'FR_Wheel'];(0.0, 2399.845458984375, 0.006135923322290182, 2562.610107421875, -0.003067961661145091, 2398.09228515625, 0.0, 2566.968017578125);(0.0, 0.0, 0.0, 0.0, 0.0, 0.0, 0.0, 0.0);(5.380000114440918, 102.22000122070312, -61.87000274658203, 5.380000114440918, 43.040000915527344, 0.0, 0.0, -21.520000457763672)
2024/05/03/13:18:16.444668;185426;1714767496;473835800;;['BL_Position', 'BL_Wheel', 'BR_Position', 'BR_Wheel', 'FL_Position', 'FL_Wheel', 'FR_Position', 'FR_Wheel'];(0.0, 2399.845458984375, 0.006135923322290182, 2562.608642578125, -0.003067961661145091, 2398.09228515625, 0.0, 2566.968017578125);(0.0, 0.0, 0.0, 0.0, 0.0, 0.0, 0.0, 0.0);(5.380000114440918, 102.22000122070312, -61.87000274658203, 5.380000114440918, 37.65999984741211, 0.0, 0.0, -21.520000457763672)
2024/05/03/13:18:16.460078;185427;1714767496;489917077;;['BL_Position', 'BL_Wheel', 'BR_Position', 'BR_Wheel', 'FL_Position', 'FL_Wheel', 'FR_Position', 'FR_Wheel'];(0.0, 2399.845458984375, 0.006135923322290182, 2562.610107421875, -0.0015339808305725455, 2398.09228515625, 0.0, 2566.968017578125);(0.0, 0.0, 0.0, 0.0, 0.0, 0.0, 0.0, 0.0);(5.380000114440918, 102.22000122070312, -61.87000274658203, 5.380000114440918, 5.380000114440918, 0.0, 0.0, -21.520000457763672)
2024/05/03/13:18:16.485379;185428;1714767496;505826429;;['BL_Position', 'BL_Wheel', 'BR_Position', 'BR_Wheel', 'FL_Position', 'FL_Wheel', 'FR_Position', 'FR_Wheel'];(0.0, 2399.845458984375, 0.006135923322290182, 2562.610107421875, -0.003067961661145091, 2398.09228515625, 0.0, 2566.968017578125);(0.0, 0.0, 0.0, 0.0, 0.0, 0.0, 0.0, 0.0);(5.380000114440918, 102.22000122070312, -59.18000030517578, 5.380000114440918, 32.279998779296875, 0.0, 0.0, -21.520000457763672)
2024/05/03/13:18:16.497849;185429;1714767496;521884503;;['BL_Position', 'BL_Wheel', 'BR_Position', 'BR_Wheel', 'FL_Position', 'FL_Wheel', 'FR_Position', 'FR_Wheel'];(0.0, 2399.845458984375, 0.004601942375302315, 2562.608642578125, -0.0015339808305725455, 2398.09228515625, 0.0, 2566.968017578125);(0.0, 0.0, 0.0, 0.0, 0.0, 0.0, 0.0, 0.0);(5.380000114440918, 102.22000122070312, -61.87000274658203, 5.380000114440918, 51.11000061035156, 0.0, 0.0, -21.520000457763672)
2024/05/03/13:18:16.513451;185430;1714767496;537876928;;['BL_Position', 'BL_Wheel', 'BR_Position', 'BR_Wheel', 'FL_Position', 'FL_Wheel', 'FR_Position', 'FR_Wheel'];(0.0, 2399.845458984375, 0.006135923322290182, 2562.610107421875, -0.0015339808305725455, 2398.09375, 0.0, 2566.968017578125);(0.0, 0.0, 0.0, 0.0, 0.0, 0.0, 0.0, 0.0);(5.380000114440918, 102.22000122070312, -61.87000274658203, 5.380000114440918, 13.450000762939453, 0.0, 0.0, -21.520000457763672)
2024/05/03/13:18:16.525600;185431;1714767496;553894335;;['BL_Position', 'BL_Wheel', 'BR_Position', 'BR_Wheel', 'FL_Position', 'FL_Wheel', 'FR_Position', 'FR_Wheel'];(-0.0015339808305725455, 2399.845458984375, 0.006135923322290182, 2562.610107421875, -0.003067961661145091, 2398.09228515625, 0.0, 2566.968017578125);(0.0, 0.0, 0.0, 0.0, 0.0, 0.0, 0.0, 0.0);(5.380000114440918, 102.22000122070312, -61.87000274658203, 5.380000114440918, 43.040000915527344, 0.0, 0.0, -21.520000457763672)
2024/05/03/13:18:16.541210;185432;1714767496;569835575;;['BL_Position', 'BL_Wheel', 'BR_Position', 'BR_Wheel', 'FL_Position', 'FL_Wheel', 'FR_Position', 'FR_Wheel'];(-0.0015339808305725455, 2399.845458984375, 0.006135923322290182, 2562.610107421875, -0.0015339808305725455, 2398.09228515625, 0.0, 2566.968017578125);(0.0, 0.0, 0.0, 0.0, 0.0, 0.0, 0.0, 0.0);(5.380000114440918, 102.22000122070312, -59.18000030517578, 5.380000114440918, 43.040000915527344, 0.0, 0.0, -21.520000457763672)
2024/05/03/13:18:16.562444;185433;1714767496;585839260;;['BL_Position', 'BL_Wheel', 'BR_Position', 'BR_Wheel', 'FL_Position', 'FL_Wheel', 'FR_Position', 'FR_Wheel'];(0.0, 2399.845458984375, 0.006135923322290182, 2562.608642578125, -0.0015339808305725455, 2398.09375, 0.0, 2566.968017578125);(0.0, 0.0, 0.0, 0.0, 0.0, 0.0, 0.0, 0.0);(5.380000114440918, 102.22000122070312, -61.87000274658203, 5.380000114440918, 8.069999694824219, 0.0, 0.0, -21.520000457763672)
2024/05/03/13:18:16.573016;185434;1714767496;601888167;;['BL_Position', 'BL_Wheel', 'BR_Position', 'BR_Wheel', 'FL_Position', 'FL_Wheel', 'FR_Position', 'FR_Wheel'];(0.029145635664463043, 2399.85009765625, 0.03528155758976936, 2562.61474609375, -0.03221359848976135, 2398.098388671875, -0.03221359848976135, 2566.97265625);(0.04796164855360985, 0.0, 0.07194247096776962, 0.0, -0.07194247096776962, 0.0, -0.07194247096776962, 0.0);(269.0, 228.65000915527344, 301.2799987792969, 88.77000427246094, -282.45001220703125, 121.05000305175781, -263.6199951171875, 86.08000183105469)
2024/05/03/13:18:16.596314;185435;1714767496;617843685;;['BL_Position', 'BL_Wheel', 'BR_Position', 'BR_Wheel', 'FL_Position', 'FL_Wheel', 'FR_Position', 'FR_Wheel'];(0.0920388475060463, 2399.868408203125, 0.10124273598194122, 2562.62548828125, -0.09357283264398575, 2398.119873046875, -0.09664079546928406, 2566.986572265625);(0.575539767742157, 0.11990412324666977, 0.5995206236839294, 0.07194247096776962, -0.5995206236839294, 0.14388494193553925, -0.5995206236839294, 0.0959232971072197);(-91.45999908447266, 244.79000854492188, 177.54000854492188, 91.45999908447266, 99.52999877929688, 137.19000244140625, -110.29000091552734, 139.8800048828125)
2024/05/03/13:18:16.607124;185436;1714767496;633979778;;['BL_Position', 'BL_Wheel', 'BR_Position', 'BR_Wheel', 'FL_Position', 'FL_Wheel', 'FR_Position', 'FR_Wheel'];(0.13038836419582367, 2399.899169921875, 0.16106799244880676, 2562.6484375, -0.1365242898464203, 2398.150390625, -0.16566993296146393, 2567.008056640625);(1.2949645519256592, 0.3836931884288788, 1.4388494491577148, 0.2637890577316284, -1.318945288658142, 0.43165484070777893, -1.4868111610412598, 0.2877698838710785);(-121.05000305175781, 242.10000610351562, -112.9800033569336, 99.52999877929688, 182.9199981689453, 134.5, 188.3000030517578, 110.29000091552734)
2024/05/03/13:18:16.621058;185437;1714767496;649874999;;['BL_Position', 'BL_Wheel', 'BR_Position', 'BR_Wheel', 'FL_Position', 'FL_Wheel', 'FR_Position', 'FR_Wheel'];(0.14112623035907745, 2399.943603515625, 0.19174760580062866, 2562.67919921875, -0.15186409652233124, 2398.197998046875, -0.2070874124765396, 2567.043212890625);(1.822542667388916, 0.8633096814155579, 2.206235885620117, 0.6235014200210571, -1.8944851160049438, 0.9352521300315857, -2.4220633506774902, 0.6474822759628296);(-21.520000457763672, 209.82000732421875, -61.87000274658203, 80.70000457763672, 48.42000198364258, 104.91000366210938, 190.99000549316406, 64.55999755859375)
2024/05/03/13:18:16.637068;185438;1714767496;665862536;;['BL_Position', 'BL_Wheel', 'BR_Position', 'BR_Wheel', 'FL_Position', 'FL_Wheel', 'FR_Position', 'FR_Wheel'];(0.1426602154970169, 2399.995849609375, 0.19634954631328583, 2562.718994140625, -0.15186409652233124, 2398.251708984375, -0.21629129350185394, 2567.080078125);(1.9904084205627441, 1.4868111610412598, 2.5899291038513184, 1.0791370868682861, -2.0623509883880615, 1.5827343463897705, -2.8776988983154297, 1.1031179428100586);(2.690000057220459, 193.6800079345703, 43.040000915527344, 61.87000274658203, 0.0, 83.38999938964844, 45.72999954223633, 43.040000915527344)
2024/05/03/13:18:16.654096;185439;1714767496;681853387;;['BL_Position', 'BL_Wheel', 'BR_Position', 'BR_Wheel', 'FL_Position', 'FL_Wheel', 'FR_Position', 'FR_Wheel'];(0.1426602154970169, 2400.0556640625, 0.19481556117534637, 2562.760498046875, -0.15186409652233124, 2398.31298828125, -0.21629129350185394, 2567.12158203125);(1.5587536096572876, 2.1582741737365723, 2.2302167415618896, 1.5827343463897705, -1.6306960582733154, 2.254197597503662, -2.565948247909546, 1.5827343463897705);(0.0, 180.23001098632812, 37.65999984741211, 48.42000198364258, 0.0, 69.94000244140625, 0.0, 32.279998779296875)
2024/05/03/13:18:16.668822;185440;1714767496;697835387;;['BL_Position', 'BL_Wheel', 'BR_Position', 'BR_Wheel', 'FL_Position', 'FL_Wheel', 'FR_Position', 'FR_Wheel'];(0.1426602154970169, 2400.12158203125, 0.19481556117534637, 2562.8095703125, -0.15186409652233124, 2398.379150390625, -0.21629129350185394, 2567.16748046875);(0.8393288254737854, 2.8057563304901123, 1.4628303050994873, 2.038370132446289, -0.9352521300315857, 2.8776988983154297, -1.7506002187728882, 2.0143892765045166);(0.0, 164.08999633789062, 13.450000762939453, 48.42000198364258, 0.0, 64.55999755859375, 2.690000057220459, 29.59000015258789)
2024/05/03/13:18:16.692609;185441;1714767496;713844313;;['BL_Position', 'BL_Wheel', 'BR_Position', 'BR_Wheel', 'FL_Position', 'FL_Wheel', 'FR_Position', 'FR_Wheel'];(0.14112623035907745, 2400.1875, 0.19481556117534637, 2562.85693359375, -0.15186409652233124, 2398.446533203125, -0.21475732326507568, 2567.215087890625);(0.3597123622894287, 3.2853729724884033, 0.6954439282417297, 2.4220633506774902, -0.40767401456832886, 3.381296157836914, -0.9352521300315857, 2.350120782852173);(0.0, 145.260009765625, 0.0, 45.72999954223633, 0.0, 56.4900016784668, 5.380000114440918, 21.520000457763672)
2024/05/03/13:18:16.700933;185442;1714767496;729886460;;['BL_Position', 'BL_Wheel', 'BR_Position', 'BR_Wheel', 'FL_Position', 'FL_Wheel', 'FR_Position', 'FR_Wheel'];(0.14112623035907745, 2400.256591796875, 0.19481556117534637, 2562.91064453125, -0.15186409652233124, 2398.520263671875, -0.21475732326507568, 2567.268798828125);(0.11990412324666977, 3.693047046661377, 0.2637890577316284, 2.7098331451416016, -0.14388494193553925, 3.8369319438934326, -0.3597123622894287, 2.637890577316284);(0.0, 131.80999755859375, 2.690000057220459, 37.65999984741211, 0.0, 45.72999954223633, 5.380000114440918, 8.069999694824219)
2024/05/03/13:18:16.717347;185443;1714767496;746084164;;['BL_Position', 'BL_Wheel', 'BR_Position', 'BR_Wheel', 'FL_Position', 'FL_Wheel', 'FR_Position', 'FR_Wheel'];(0.14112623035907745, 2400.330322265625, 0.19481556117534637, 2562.962890625, -0.15186409652233124, 2398.59228515625, -0.21475732326507568, 2567.321044921875);(0.023980824276804924, 4.004797458648682, 0.07194247096776962, 2.9256606101989746, -0.04796164855360985, 4.124701976776123, -0.11990412324666977, 2.8537180423736572);(0.0, 118.36000061035156, 5.380000114440918, 32.279998779296875, 0.0, 37.65999984741211, 5.380000114440918, 5.380000114440918)
2024/05/03/13:18:16.733165;185444;1714767496;761962515;;['BL_Position', 'BL_Wheel', 'BR_Position', 'BR_Wheel', 'FL_Position', 'FL_Wheel', 'FR_Position', 'FR_Wheel'];(0.14112623035907745, 2400.40380859375, 0.19481556117534637, 2563.0166015625, -0.15186409652233124, 2398.67041015625, -0.21475732326507568, 2567.37451171875);(0.0, 4.220624923706055, 0.023980824276804924, 3.0935263633728027, 0.0, 4.3645100593566895, -0.023980824276804924, 3.045564651489258);(5.380000114440918, 102.22000122070312, 40.35000228881836, 29.59000015258789, 0.0, 37.65999984741211, 0.0, 2.690000057220459)
2024/05/03/13:18:16.749076;185445;1714767496;777857922;;['BL_Position', 'BL_Wheel', 'BR_Position', 'BR_Wheel', 'FL_Position', 'FL_Wheel', 'FR_Position', 'FR_Wheel'];(0.14112623035907745, 2400.472900390625, 0.19634954631328583, 2563.0703125, -0.15186409652233124, 2398.74267578125, -0.21475732326507568, 2567.429931640625);(0.0, 4.340528964996338, 0.0, 3.1894495487213135, 0.0, 4.508395195007324, 0.0, 3.165468692779541);(5.380000114440918, 96.84000396728516, 96.84000396728516, 26.900001525878906, -26.900001525878906, 29.59000015258789, -5.380000114440918, 0.0)
2024/05/03/13:18:16.766762;185446;1714767496;793942107;;['BL_Position', 'BL_Wheel', 'BR_Position', 'BR_Wheel', 'FL_Position', 'FL_Wheel', 'FR_Position', 'FR_Wheel'];(0.14112623035907745, 2400.544921875, 0.19941750168800354, 2563.122314453125, -0.1533980816602707, 2398.8193359375, -0.21935926377773285, 2567.48193359375);(0.0, 4.412471771240234, 0.023980824276804924, 3.261392116546631, 0.0, 4.604318141937256, -0.023980824276804924, 3.2374112606048584);(5.380000114440918, 88.77000427246094, 139.8800048828125, 21.520000457763672, -32.279998779296875, 24.21000099182129, -8.069999694824219, 0.0)
2024/05/03/13:18:16.798563;185447;1714767496;809836699;;['BL_Position', 'BL_Wheel', 'BR_Position', 'BR_Wheel', 'FL_Position', 'FL_Wheel', 'FR_Position', 'FR_Wheel'];(0.1426602154970169, 2400.61865234375, 0.20248547196388245, 2563.173095703125, -0.15493206679821014, 2398.889892578125, -0.22549518942832947, 2567.5341796875);(0.0, 4.484414100646973, 0.04796164855360985, 3.2853729724884033, -0.023980824276804924, 4.628299236297607, -0.04796164855360985, 3.261392116546631);(10.760000228881836, 83.38999938964844, 115.67000579833984, 13.450000762939453, -34.970001220703125, 16.139999389648438, -2.690000057220459, 0.0)
2024/05/03/13:18:16.807057;185448;1714767496;825834754;;['BL_Position', 'BL_Wheel', 'BR_Position', 'BR_Wheel', 'FL_Position', 'FL_Wheel', 'FR_Position', 'FR_Wheel'];(0.14879614114761353, 2400.690673828125, 0.21015536785125732, 2563.2236328125, -0.1564660519361496, 2398.9619140625, -0.23009712994098663, 2567.584716796875);(0.023980824276804924, 4.508395195007324, 0.11990412324666977, 3.261392116546631, -0.04796164855360985, 4.604318141937256, -0.11990412324666977, 3.2374112606048584);(2.690000057220459, 80.70000457763672, 94.1500015258789, 13.450000762939453, -34.970001220703125, 13.450000762939453, -2.690000057220459, 0.0)
2024/05/03/13:18:16.813726;185449;1714767496;841816698;;['BL_Position', 'BL_Wheel', 'BR_Position', 'BR_Wheel', 'FL_Position', 'FL_Wheel', 'FR_Position', 'FR_Wheel'];(0.1533980816602707, 2400.759765625, 0.2178252786397934, 2563.269775390625, -0.1595340073108673, 2399.029541015625, -0.2377670258283615, 2567.630859375);(0.07194247096776962, 4.532375812530518, 0.21582742035388947, 3.213430404663086, -0.07194247096776962, 4.556356430053711, -0.21582742035388947, 3.213430404663086);(8.069999694824219, 75.31999969482422, 102.22000122070312, 5.380000114440918, -34.970001220703125, 0.0, -5.380000114440918, 0.0)
2024/05/03/13:18:16.829129;185450;1714767496;857804013;;['BL_Position', 'BL_Wheel', 'BR_Position', 'BR_Wheel', 'FL_Position', 'FL_Wheel', 'FR_Position', 'FR_Wheel'];(0.15800002217292786, 2400.8271484375, 0.22856314480304718, 2563.31884765625, -0.16260196268558502, 2399.095458984375, -0.24543693661689758, 2567.678466796875);(0.14388494193553925, 4.484414100646973, 0.31175071001052856, 3.1414880752563477, -0.0959232971072197, 4.460433483123779, -0.31175071001052856, 3.117507219314575);(5.380000114440918, 72.6300048828125, 91.45999908447266, 5.380000114440918, -26.900001525878906, 0.0, 0.0, 0.0)
2024/05/03/13:18:16.845318;185451;1714767496;873847272;;['BL_Position', 'BL_Wheel', 'BR_Position', 'BR_Wheel', 'FL_Position', 'FL_Wheel', 'FR_Position', 'FR_Wheel'];(0.16413594782352448, 2400.8916015625, 0.23930101096630096, 2563.36181640625, -0.1672039031982422, 2399.161376953125, -0.25310683250427246, 2567.722900390625);(0.21582742035388947, 4.412471771240234, 0.43165484070777893, 3.045564651489258, -0.11990412324666977, 4.340528964996338, -0.3836931884288788, 3.0215837955474854);(10.760000228881836, 67.25, 94.1500015258789, 2.690000057220459, -37.65999984741211, 0.0, 0.0, 0.0)
2024/05/03/13:18:16.861292;185452;1714767496;889802031;;['BL_Position', 'BL_Wheel', 'BR_Position', 'BR_Wheel', 'FL_Position', 'FL_Wheel', 'FR_Position', 'FR_Wheel'];(0.1702718734741211, 2400.953125, 0.2546408176422119, 2563.403076171875, -0.17180585861206055, 2399.2197265625, -0.2653786838054657, 2567.7626953125);(0.2637890577316284, 4.2685866355896, 0.5515589714050293, 2.9256606101989746, -0.16786576807498932, 4.220624923706055, -0.455635666847229, 2.9256606101989746);(8.069999694824219, 61.87000274658203, 94.1500015258789, 2.690000057220459, -21.520000457763672, 0.0, 2.690000057220459, 0.0)
2024/05/03/13:18:16.877955;185453;1714767496;905821419;;['BL_Position', 'BL_Wheel', 'BR_Position', 'BR_Wheel', 'FL_Position', 'FL_Wheel', 'FR_Position', 'FR_Wheel'];(0.1764077991247177, 2401.009765625, 0.2684466540813446, 2563.44140625, -0.1764077991247177, 2399.27783203125, -0.2791845202445984, 2567.802490234375);(0.31175071001052856, 4.1007208824157715, 0.6474822759628296, 2.8057563304901123, -0.21582742035388947, 4.052759170532227, -0.5515589714050293, 2.781775712966919);(0.0, 64.55999755859375, 72.6300048828125, 2.690000057220459, -21.520000457763672, 0.0, 18.829999923706055, 0.0)
2024/05/03/13:18:16.901047;185454;1714767496;921791030;;['BL_Position', 'BL_Wheel', 'BR_Position', 'BR_Wheel', 'FL_Position', 'FL_Wheel', 'FR_Position', 'FR_Wheel'];(0.1840776950120926, 2401.06494140625, 0.28378644585609436, 2563.476806640625, -0.18254372477531433, 2399.33154296875, -0.2929903268814087, 2567.83935546875);(0.3597123622894287, 3.9328551292419434, 0.7434055805206299, 2.637890577316284, -0.23980824649333954, 3.8848934173583984, -0.6474822759628296, 2.6618714332580566);(2.690000057220459, 59.18000030517578, 94.1500015258789, 0.0, -21.520000457763672, -2.690000057220459, 5.380000114440918, 0.0)
2024/05/03/13:18:16.909201;185455;1714767496;937874307;;['BL_Position', 'BL_Wheel', 'BR_Position', 'BR_Wheel', 'FL_Position', 'FL_Wheel', 'FR_Position', 'FR_Wheel'];(0.19174760580062866, 2401.11572265625, 0.3037281930446625, 2563.509033203125, -0.1902136206626892, 2399.380615234375, -0.3098641335964203, 2567.87158203125);(0.40767401456832886, 3.7410085201263428, 0.8633096814155579, 2.4940056800842285, -0.2877698838710785, 3.693047046661377, -0.7434055805206299, 2.517986536026001);(10.760000228881836, 53.80000305175781, 86.08000183105469, 0.0, -13.450000762939453, -2.690000057220459, 16.139999389648438, 0.0)
