time;.header.seq;.header.stamp.secs;.header.stamp.nsecs;.header.frame_id;.name;.position;.velocity;.effort
2024/05/03/13:24:45.310908;209730;1714767885;323558582;;['BL_Position', 'BL_Wheel', 'BR_Position', 'BR_Wheel', 'FL_Position', 'FL_Wheel', 'FR_Position', 'FR_Wheel'];(0.0, 2865.988525390625, 0.006135923322290182, 2864.612548828125, -0.0015339808305725455, 2864.361083984375, 0.0, 2868.86328125);(0.0, 0.0, 0.0, 0.0, 0.0, 0.0, 0.0, 0.0);(0.0, 40.35000228881836, -69.94000244140625, 5.380000114440918, 24.21000099182129, -5.380000114440918, 0.0, 0.0)
2024/05/03/13:24:45.315987;209731;1714767885;339572045;;['BL_Position', 'BL_Wheel', 'BR_Position', 'BR_Wheel', 'FL_Position', 'FL_Wheel', 'FR_Position', 'FR_Wheel'];(0.0015339808305725455, 2865.988525390625, 0.006135923322290182, 2864.612548828125, -0.0015339808305725455, 2864.361083984375, 0.0, 2868.861572265625);(0.0, 0.0, 0.0, 0.0, 0.0, 0.0, 0.0, 0.0);(0.0, 40.35000228881836, -69.94000244140625, 5.380000114440918, 26.900001525878906, -5.380000114440918, 0.0, 0.0)
2024/05/03/13:24:45.324250;209732;1714767885;355562600;;['BL_Position', 'BL_Wheel', 'BR_Position', 'BR_Wheel', 'FL_Position', 'FL_Wheel', 'FR_Position', 'FR_Wheel'];(0.0, 2865.988525390625, 0.006135923322290182, 2864.614013671875, -0.0015339808305725455, 2864.361083984375, 0.0, 2868.86328125);(0.0, 0.0, 0.0, 0.0, 0.0, 0.0, 0.0, 0.0);(0.0, 40.35000228881836, -69.94000244140625, 5.380000114440918, 18.829999923706055, -5.380000114440918, 0.0, 0.0)
2024/05/03/13:24:45.341533;209733;1714767885;371549359;;['BL_Position', 'BL_Wheel', 'BR_Position', 'BR_Wheel', 'FL_Position', 'FL_Wheel', 'FR_Position', 'FR_Wheel'];(0.0015339808305725455, 2865.988525390625, 0.006135923322290182, 2864.612548828125, -0.0015339808305725455, 2864.361083984375, 0.0, 2868.86328125);(0.0, 0.0, 0.0, 0.0, 0.0, 0.0, 0.0, 0.0);(0.0, 40.35000228881836, -69.94000244140625, 5.380000114440918, 2.690000057220459, -5.380000114440918, 0.0, 0.0)
2024/05/03/13:24:45.356780;209734;1714767885;387524321;;['BL_Position', 'BL_Wheel', 'BR_Position', 'BR_Wheel', 'FL_Position', 'FL_Wheel', 'FR_Position', 'FR_Wheel'];(0.0, 2865.988525390625, 0.006135923322290182, 2864.614013671875, -0.0015339808305725455, 2864.361083984375, 0.0, 2868.86328125);(0.0, 0.0, 0.0, 0.0, 0.0, 0.0, 0.0, 0.0);(0.0, 40.35000228881836, -67.25, 5.380000114440918, 10.760000228881836, -5.380000114440918, 0.0, 0.0)
2024/05/03/13:24:45.372971;209735;1714767885;403553358;;['BL_Position', 'BL_Wheel', 'BR_Position', 'BR_Wheel', 'FL_Position', 'FL_Wheel', 'FR_Position', 'FR_Wheel'];(0.0015339808305725455, 2865.988525390625, 0.006135923322290182, 2864.614013671875, -0.0015339808305725455, 2864.361083984375, 0.0, 2868.86328125);(0.0, 0.0, 0.0, 0.0, 0.0, 0.0, 0.0, 0.0);(0.0, 40.35000228881836, -69.94000244140625, 5.380000114440918, 16.139999389648438, -5.380000114440918, 0.0, 0.0)
2024/05/03/13:24:45.388024;209736;1714767885;419570302;;['BL_Position', 'BL_Wheel', 'BR_Position', 'BR_Wheel', 'FL_Position', 'FL_Wheel', 'FR_Position', 'FR_Wheel'];(0.0, 2865.988525390625, 0.006135923322290182, 2864.612548828125, -0.0015339808305725455, 2864.361083984375, 0.0, 2868.86328125);(0.0, 0.0, 0.0, 0.0, 0.0, 0.0, 0.0, 0.0);(0.0, 40.35000228881836, -69.94000244140625, 5.380000114440918, 24.21000099182129, -5.380000114440918, 0.0, 0.0)
2024/05/03/13:24:45.406120;209737;1714767885;435534783;;['BL_Position', 'BL_Wheel', 'BR_Position', 'BR_Wheel', 'FL_Position', 'FL_Wheel', 'FR_Position', 'FR_Wheel'];(0.0, 2865.988525390625, 0.006135923322290182, 2864.614013671875, -0.003067961661145091, 2864.361083984375, 0.0, 2868.86328125);(0.0, 0.0, 0.0, 0.0, 0.0, 0.0, 0.0, 0.0);(0.0, 40.35000228881836, -67.25, 5.380000114440918, 43.040000915527344, -5.380000114440918, 0.0, 0.0)
2024/05/03/13:24:45.419940;209738;1714767885;451542875;;['BL_Position', 'BL_Wheel', 'BR_Position', 'BR_Wheel', 'FL_Position', 'FL_Wheel', 'FR_Position', 'FR_Wheel'];(0.0, 2865.988525390625, 0.006135923322290182, 2864.612548828125, -0.0015339808305725455, 2864.361083984375, 0.0, 2868.86328125);(0.0, 0.0, 0.0, 0.0, 0.0, 0.0, 0.0, 0.0);(0.0, 40.35000228881836, -69.94000244140625, 5.380000114440918, 45.72999954223633, -5.380000114440918, 0.0, 0.0)
2024/05/03/13:24:45.436021;209739;1714767885;467551856;;['BL_Position', 'BL_Wheel', 'BR_Position', 'BR_Wheel', 'FL_Position', 'FL_Wheel', 'FR_Position', 'FR_Wheel'];(0.0, 2865.988525390625, 0.006135923322290182, 2864.612548828125, -0.0015339808305725455, 2864.361083984375, 0.0, 2868.86328125);(0.0, 0.0, 0.0, 0.0, 0.0, 0.0, 0.0, 0.0);(0.0, 40.35000228881836, -67.25, 5.380000114440918, 18.829999923706055, -5.380000114440918, 0.0, 0.0)
2024/05/03/13:24:45.453022;209740;1714767885;483555893;;['BL_Position', 'BL_Wheel', 'BR_Position', 'BR_Wheel', 'FL_Position', 'FL_Wheel', 'FR_Position', 'FR_Wheel'];(0.0, 2865.988525390625, 0.006135923322290182, 2864.614013671875, -0.0015339808305725455, 2864.361083984375, 0.0, 2868.86328125);(0.0, 0.0, 0.0, 0.0, 0.0, 0.0, 0.0, 0.0);(0.0, 40.35000228881836, -67.25, 5.380000114440918, 13.450000762939453, -5.380000114440918, 0.0, 0.0)
2024/05/03/13:24:45.468133;209741;1714767885;499601597;;['BL_Position', 'BL_Wheel', 'BR_Position', 'BR_Wheel', 'FL_Position', 'FL_Wheel', 'FR_Position', 'FR_Wheel'];(0.0, 2865.988525390625, 0.006135923322290182, 2864.612548828125, -0.0015339808305725455, 2864.361083984375, 0.0, 2868.86328125);(0.0, 0.0, 0.0, 0.0, 0.0, 0.0, 0.0, 0.0);(0.0, 40.35000228881836, -69.94000244140625, 5.380000114440918, 8.069999694824219, -5.380000114440918, 0.0, 0.0)
2024/05/03/13:24:45.485782;209742;1714767885;515560596;;['BL_Position', 'BL_Wheel', 'BR_Position', 'BR_Wheel', 'FL_Position', 'FL_Wheel', 'FR_Position', 'FR_Wheel'];(0.0, 2865.988525390625, 0.006135923322290182, 2864.614013671875, -0.0015339808305725455, 2864.361083984375, 0.0, 2868.86328125);(0.0, 0.0, 0.0, 0.0, 0.0, 0.0, 0.0, 0.0);(0.0, 40.35000228881836, -67.25, 5.380000114440918, 13.450000762939453, -5.380000114440918, 0.0, 0.0)
2024/05/03/13:24:45.508857;209743;1714767885;531543133;;['BL_Position', 'BL_Wheel', 'BR_Position', 'BR_Wheel', 'FL_Position', 'FL_Wheel', 'FR_Position', 'FR_Wheel'];(0.0, 2865.988525390625, 0.0076699042692780495, 2864.612548828125, -0.0015339808305725455, 2864.361083984375, 0.0, 2868.86328125);(0.0, 0.0, 0.0, 0.0, 0.0, 0.0, 0.0, 0.0);(2.690000057220459, 40.35000228881836, -69.94000244140625, 5.380000114440918, 10.760000228881836, -5.380000114440918, 0.0, 0.0)
2024/05/03/13:24:45.515414;209744;1714767885;547547151;;['BL_Position', 'BL_Wheel', 'BR_Position', 'BR_Wheel', 'FL_Position', 'FL_Wheel', 'FR_Position', 'FR_Wheel'];(0.0015339808305725455, 2865.988525390625, 0.006135923322290182, 2864.614013671875, -0.0015339808305725455, 2864.361083984375, 0.0, 2868.86328125);(0.0, 0.0, 0.0, 0.0, 0.0, 0.0, 0.0, 0.0);(0.0, 40.35000228881836, -69.94000244140625, 5.380000114440918, 13.450000762939453, -5.380000114440918, 0.0, 0.0)
2024/05/03/13:24:45.532245;209745;1714767885;563592799;;['BL_Position', 'BL_Wheel', 'BR_Position', 'BR_Wheel', 'FL_Position', 'FL_Wheel', 'FR_Position', 'FR_Wheel'];(0.0, 2865.988525390625, 0.006135923322290182, 2864.612548828125, -0.0015339808305725455, 2864.361083984375, 0.0, 2868.861572265625);(0.0, 0.0, 0.0, 0.0, 0.0, 0.0, 0.0, 0.0);(0.0, 40.35000228881836, -67.25, 5.380000114440918, 16.139999389648438, -5.380000114440918, 0.0, 0.0)
2024/05/03/13:24:45.548152;209746;1714767885;579529391;;['BL_Position', 'BL_Wheel', 'BR_Position', 'BR_Wheel', 'FL_Position', 'FL_Wheel', 'FR_Position', 'FR_Wheel'];(0.0015339808305725455, 2865.988525390625, 0.006135923322290182, 2864.614013671875, -0.0015339808305725455, 2864.361083984375, 0.0, 2868.86328125);(0.0, 0.0, 0.0, 0.0, 0.0, 0.0, 0.0, 0.0);(0.0, 40.35000228881836, -67.25, 5.380000114440918, 32.279998779296875, -5.380000114440918, 0.0, 0.0)
2024/05/03/13:24:45.562119;209747;1714767885;595549705;;['BL_Position', 'BL_Wheel', 'BR_Position', 'BR_Wheel', 'FL_Position', 'FL_Wheel', 'FR_Position', 'FR_Wheel'];(0.0, 2865.988525390625, 0.006135923322290182, 2864.614013671875, -0.003067961661145091, 2864.361083984375, 0.0, 2868.86328125);(0.0, 0.0, 0.0, 0.0, 0.0, 0.0, 0.0, 0.0);(0.0, 40.35000228881836, -69.94000244140625, 5.380000114440918, 24.21000099182129, -5.380000114440918, 0.0, 0.0)
2024/05/03/13:24:45.588146;209748;1714767885;611504872;;['BL_Position', 'BL_Wheel', 'BR_Position', 'BR_Wheel', 'FL_Position', 'FL_Wheel', 'FR_Position', 'FR_Wheel'];(0.0, 2865.988525390625, 0.006135923322290182, 2864.614013671875, -0.003067961661145091, 2864.361083984375, 0.0, 2868.86328125);(0.0, 0.0, 0.0, 0.0, 0.0, 0.0, 0.0, 0.0);(0.0, 40.35000228881836, -69.94000244140625, 5.380000114440918, 26.900001525878906, -5.380000114440918, 0.0, 0.0)
2024/05/03/13:24:45.596796;209749;1714767885;627508408;;['BL_Position', 'BL_Wheel', 'BR_Position', 'BR_Wheel', 'FL_Position', 'FL_Wheel', 'FR_Position', 'FR_Wheel'];(0.0, 2865.988525390625, 0.006135923322290182, 2864.614013671875, -0.0015339808305725455, 2864.361083984375, 0.0, 2868.86328125);(0.0, 0.0, 0.0, 0.0, 0.0, 0.0, 0.0, 0.0);(0.0, 40.35000228881836, -67.25, 5.380000114440918, 26.900001525878906, -5.380000114440918, 0.0, 0.0)
2024/05/03/13:24:45.621224;209750;1714767885;643525371;;['BL_Position', 'BL_Wheel', 'BR_Position', 'BR_Wheel', 'FL_Position', 'FL_Wheel', 'FR_Position', 'FR_Wheel'];(0.0, 2865.988525390625, 0.006135923322290182, 2864.612548828125, -0.003067961661145091, 2864.361083984375, 0.0, 2868.86328125);(0.0, 0.0, 0.0, 0.0, 0.0, 0.0, 0.0, 0.0);(0.0, 40.35000228881836, -67.25, 5.380000114440918, 21.520000457763672, -5.380000114440918, 0.0, 0.0)
2024/05/03/13:24:45.630818;209751;1714767885;659527630;;['BL_Position', 'BL_Wheel', 'BR_Position', 'BR_Wheel', 'FL_Position', 'FL_Wheel', 'FR_Position', 'FR_Wheel'];(0.0, 2865.988525390625, 0.006135923322290182, 2864.612548828125, -0.0015339808305725455, 2864.361083984375, 0.0, 2868.86328125);(0.0, 0.0, 0.0, 0.0, 0.0, 0.0, 0.0, 0.0);(0.0, 40.35000228881836, -67.25, 5.380000114440918, 13.450000762939453, -5.380000114440918, 0.0, 0.0)
2024/05/03/13:24:45.644022;209752;1714767885;675533500;;['BL_Position', 'BL_Wheel', 'BR_Position', 'BR_Wheel', 'FL_Position', 'FL_Wheel', 'FR_Position', 'FR_Wheel'];(0.0, 2865.988525390625, 0.006135923322290182, 2864.614013671875, -0.003067961661145091, 2864.361083984375, 0.0, 2868.86328125);(0.0, 0.0, 0.0, 0.0, 0.0, 0.0, 0.0, 0.0);(0.0, 40.35000228881836, -69.94000244140625, 5.380000114440918, 8.069999694824219, -5.380000114440918, 0.0, 0.0)
2024/05/03/13:24:45.659803;209753;1714767885;691540851;;['BL_Position', 'BL_Wheel', 'BR_Position', 'BR_Wheel', 'FL_Position', 'FL_Wheel', 'FR_Position', 'FR_Wheel'];(0.0, 2865.988525390625, 0.006135923322290182, 2864.614013671875, -0.0015339808305725455, 2864.361083984375, 0.0, 2868.86328125);(0.0, 0.0, 0.0, 0.0, 0.0, 0.0, 0.0, 0.0);(0.0, 40.35000228881836, -67.25, 5.380000114440918, 8.069999694824219, -5.380000114440918, 0.0, 0.0)
2024/05/03/13:24:45.677582;209754;1714767885;707528684;;['BL_Position', 'BL_Wheel', 'BR_Position', 'BR_Wheel', 'FL_Position', 'FL_Wheel', 'FR_Position', 'FR_Wheel'];(0.0, 2865.988525390625, 0.006135923322290182, 2864.614013671875, -0.0015339808305725455, 2864.361083984375, 0.0, 2868.86328125);(0.0, 0.0, 0.0, 0.0, 0.0, 0.0, 0.0, 0.0);(0.0, 40.35000228881836, -67.25, 5.380000114440918, 16.139999389648438, -5.380000114440918, 0.0, 0.0)
2024/05/03/13:24:45.692398;209755;1714767885;723550332;;['BL_Position', 'BL_Wheel', 'BR_Position', 'BR_Wheel', 'FL_Position', 'FL_Wheel', 'FR_Position', 'FR_Wheel'];(0.0, 2865.988525390625, 0.006135923322290182, 2864.612548828125, -0.0015339808305725455, 2864.361083984375, 0.0, 2868.86328125);(0.0, 0.0, 0.0, 0.0, 0.0, 0.0, 0.0, 0.0);(0.0, 40.35000228881836, -69.94000244140625, 5.380000114440918, 34.970001220703125, -5.380000114440918, 0.0, 0.0)
2024/05/03/13:24:45.714202;209756;1714767885;739549906;;['BL_Position', 'BL_Wheel', 'BR_Position', 'BR_Wheel', 'FL_Position', 'FL_Wheel', 'FR_Position', 'FR_Wheel'];(0.0, 2865.988525390625, 0.006135923322290182, 2864.614013671875, -0.0015339808305725455, 2864.361083984375, 0.0, 2868.861572265625);(0.0, 0.0, 0.0, 0.0, 0.0, 0.0, 0.0, 0.0);(0.0, 40.35000228881836, -67.25, 5.380000114440918, 26.900001525878906, -5.380000114440918, 0.0, 0.0)
2024/05/03/13:24:45.724195;209757;1714767885;755573813;;['BL_Position', 'BL_Wheel', 'BR_Position', 'BR_Wheel', 'FL_Position', 'FL_Wheel', 'FR_Position', 'FR_Wheel'];(0.0, 2865.988525390625, 0.006135923322290182, 2864.612548828125, -0.0015339808305725455, 2864.361083984375, 0.0, 2868.86328125);(0.0, 0.0, 0.0, 0.0, 0.0, 0.0, 0.0, 0.0);(0.0, 40.35000228881836, -75.31999969482422, 5.380000114440918, 10.760000228881836, -5.380000114440918, 0.0, 0.0)
2024/05/03/13:24:45.740052;209758;1714767885;771506813;;['BL_Position', 'BL_Wheel', 'BR_Position', 'BR_Wheel', 'FL_Position', 'FL_Wheel', 'FR_Position', 'FR_Wheel'];(0.0015339808305725455, 2865.988525390625, 0.006135923322290182, 2864.614013671875, -0.0015339808305725455, 2864.361083984375, 0.0, 2868.86328125);(0.0, 0.0, 0.0, 0.0, 0.0, 0.0, 0.0, 0.0);(0.0, 40.35000228881836, -67.25, 5.380000114440918, 10.760000228881836, -5.380000114440918, 0.0, 0.0)
2024/05/03/13:24:45.754263;209759;1714767885;787544294;;['BL_Position', 'BL_Wheel', 'BR_Position', 'BR_Wheel', 'FL_Position', 'FL_Wheel', 'FR_Position', 'FR_Wheel'];(0.0, 2865.988525390625, 0.006135923322290182, 2864.614013671875, -0.0015339808305725455, 2864.361083984375, 0.0, 2868.86328125);(0.0, 0.0, 0.0, 0.0, 0.0, 0.0, 0.0, 0.0);(0.0, 40.35000228881836, -72.6300048828125, 5.380000114440918, 5.380000114440918, -5.380000114440918, 0.0, 0.0)
2024/05/03/13:24:45.771998;209760;1714767885;803527330;;['BL_Position', 'BL_Wheel', 'BR_Position', 'BR_Wheel', 'FL_Position', 'FL_Wheel', 'FR_Position', 'FR_Wheel'];(0.0, 2865.988525390625, 0.006135923322290182, 2864.614013671875, -0.003067961661145091, 2864.361083984375, 0.0, 2868.86328125);(0.0, 0.0, 0.0, 0.0, 0.0, 0.0, 0.0, 0.0);(0.0, 40.35000228881836, -72.6300048828125, 5.380000114440918, 18.829999923706055, -5.380000114440918, 0.0, 0.0)
2024/05/03/13:24:45.792200;209761;1714767885;819513275;;['BL_Position', 'BL_Wheel', 'BR_Position', 'BR_Wheel', 'FL_Position', 'FL_Wheel', 'FR_Position', 'FR_Wheel'];(0.0, 2865.988525390625, 0.006135923322290182, 2864.614013671875, -0.0015339808305725455, 2864.361083984375, 0.0, 2868.86328125);(0.0, 0.0, 0.0, 0.0, 0.0, 0.0, 0.0, 0.0);(0.0, 40.35000228881836, -67.25, 5.380000114440918, 34.970001220703125, -5.380000114440918, 0.0, 0.0)
2024/05/03/13:24:45.805648;209762;1714767885;835558422;;['BL_Position', 'BL_Wheel', 'BR_Position', 'BR_Wheel', 'FL_Position', 'FL_Wheel', 'FR_Position', 'FR_Wheel'];(0.0, 2865.988525390625, 0.006135923322290182, 2864.614013671875, -0.0015339808305725455, 2864.361083984375, 0.0, 2868.86328125);(0.0, 0.0, 0.0, 0.0, 0.0, 0.0, 0.0, 0.0);(0.0, 40.35000228881836, -75.31999969482422, 5.380000114440918, 40.35000228881836, -5.380000114440918, 0.0, 0.0)
2024/05/03/13:24:45.821710;209763;1714767885;851494126;;['BL_Position', 'BL_Wheel', 'BR_Position', 'BR_Wheel', 'FL_Position', 'FL_Wheel', 'FR_Position', 'FR_Wheel'];(0.0, 2865.988525390625, 0.006135923322290182, 2864.612548828125, -0.0015339808305725455, 2864.361083984375, 0.0, 2868.86328125);(0.0, 0.0, 0.0, 0.0, 0.0, 0.0, 0.0, 0.0);(0.0, 40.35000228881836, -67.25, 5.380000114440918, 24.21000099182129, -5.380000114440918, 0.0, 0.0)
2024/05/03/13:24:45.836358;209764;1714767885;867537736;;['BL_Position', 'BL_Wheel', 'BR_Position', 'BR_Wheel', 'FL_Position', 'FL_Wheel', 'FR_Position', 'FR_Wheel'];(0.0, 2865.988525390625, 0.006135923322290182, 2864.614013671875, -0.0015339808305725455, 2864.361083984375, 0.0, 2868.861572265625);(0.0, 0.0, 0.0, 0.0, 0.0, 0.0, 0.0, 0.0);(0.0, 40.35000228881836, -72.6300048828125, 5.380000114440918, 29.59000015258789, -5.380000114440918, 0.0, 0.0)
2024/05/03/13:24:45.851771;209765;1714767885;883547273;;['BL_Position', 'BL_Wheel', 'BR_Position', 'BR_Wheel', 'FL_Position', 'FL_Wheel', 'FR_Position', 'FR_Wheel'];(0.0, 2865.988525390625, 0.006135923322290182, 2864.614013671875, -0.0015339808305725455, 2864.361083984375, 0.0, 2868.86328125);(0.0, 0.0, 0.0, 0.0, 0.0, 0.0, 0.0, 0.0);(0.0, 40.35000228881836, -67.25, 5.380000114440918, 18.829999923706055, -5.380000114440918, 0.0, 0.0)
2024/05/03/13:24:45.868171;209766;1714767885;899486347;;['BL_Position', 'BL_Wheel', 'BR_Position', 'BR_Wheel', 'FL_Position', 'FL_Wheel', 'FR_Position', 'FR_Wheel'];(0.0, 2865.988525390625, 0.006135923322290182, 2864.612548828125, -0.0015339808305725455, 2864.361083984375, 0.0, 2868.86328125);(0.0, 0.0, 0.0, 0.0, 0.0, 0.0, 0.0, 0.0);(0.0, 40.35000228881836, -69.94000244140625, 5.380000114440918, 26.900001525878906, -5.380000114440918, 0.0, 0.0)
2024/05/03/13:24:45.894967;209767;1714767885;915521106;;['BL_Position', 'BL_Wheel', 'BR_Position', 'BR_Wheel', 'FL_Position', 'FL_Wheel', 'FR_Position', 'FR_Wheel'];(0.0, 2865.988525390625, 0.0076699042692780495, 2864.614013671875, -0.003067961661145091, 2864.361083984375, 0.0, 2868.86328125);(0.0, 0.0, 0.0, 0.0, 0.0, 0.0, 0.0, 0.0);(0.0, 40.35000228881836, -69.94000244140625, 5.380000114440918, 10.760000228881836, -5.380000114440918, 0.0, 0.0)
2024/05/03/13:24:45.899878;209768;1714767885;931555717;;['BL_Position', 'BL_Wheel', 'BR_Position', 'BR_Wheel', 'FL_Position', 'FL_Wheel', 'FR_Position', 'FR_Wheel'];(0.0, 2865.988525390625, 0.006135923322290182, 2864.614013671875, -0.0015339808305725455, 2864.361083984375, 0.0, 2868.86328125);(0.0, 0.0, 0.0, 0.0, 0.0, 0.0, 0.0, 0.0);(0.0, 40.35000228881836, -72.6300048828125, 5.380000114440918, 13.450000762939453, -5.380000114440918, 0.0, 0.0)
2024/05/03/13:24:45.918914;209769;1714767885;947540327;;['BL_Position', 'BL_Wheel', 'BR_Position', 'BR_Wheel', 'FL_Position', 'FL_Wheel', 'FR_Position', 'FR_Wheel'];(0.0015339808305725455, 2865.988525390625, 0.006135923322290182, 2864.612548828125, -0.0015339808305725455, 2864.361083984375, 0.0, 2868.86328125);(0.0, 0.0, 0.0, 0.0, 0.0, 0.0, 0.0, 0.0);(0.0, 40.35000228881836, -69.94000244140625, 5.380000114440918, 8.069999694824219, -5.380000114440918, 0.0, 0.0)
2024/05/03/13:24:45.932479;209770;1714767885;963529457;;['BL_Position', 'BL_Wheel', 'BR_Position', 'BR_Wheel', 'FL_Position', 'FL_Wheel', 'FR_Position', 'FR_Wheel'];(0.0, 2865.988525390625, 0.006135923322290182, 2864.612548828125, -0.0015339808305725455, 2864.361083984375, 0.0, 2868.86328125);(0.0, 0.0, 0.0, 0.0, 0.0, 0.0, 0.0, 0.0);(0.0, 40.35000228881836, -69.94000244140625, 5.380000114440918, 10.760000228881836, -5.380000114440918, 0.0, 0.0)
2024/05/03/13:24:45.948915;209771;1714767885;979495660;;['BL_Position', 'BL_Wheel', 'BR_Position', 'BR_Wheel', 'FL_Position', 'FL_Wheel', 'FR_Position', 'FR_Wheel'];(0.0, 2865.988525390625, 0.006135923322290182, 2864.614013671875, -0.003067961661145091, 2864.361083984375, 0.0, 2868.86328125);(0.0, 0.0, 0.0, 0.0, 0.0, 0.0, 0.0, 0.0);(0.0, 40.35000228881836, -67.25, 5.380000114440918, 2.690000057220459, -5.380000114440918, 0.0, 0.0)
2024/05/03/13:24:45.964517;209772;1714767885;995486400;;['BL_Position', 'BL_Wheel', 'BR_Position', 'BR_Wheel', 'FL_Position', 'FL_Wheel', 'FR_Position', 'FR_Wheel'];(0.0, 2865.988525390625, 0.006135923322290182, 2864.614013671875, -0.0015339808305725455, 2864.361083984375, 0.0, 2868.86328125);(0.0, 0.0, 0.0, 0.0, 0.0, 0.0, 0.0, 0.0);(0.0, 40.35000228881836, -67.25, 5.380000114440918, 32.279998779296875, -5.380000114440918, 0.0, 0.0)
2024/05/03/13:24:45.979775;209773;1714767886;11531252;;['BL_Position', 'BL_Wheel', 'BR_Position', 'BR_Wheel', 'FL_Position', 'FL_Wheel', 'FR_Position', 'FR_Wheel'];(0.0, 2865.988525390625, 0.006135923322290182, 2864.612548828125, -0.0015339808305725455, 2864.361083984375, 0.0, 2868.86328125);(0.0, 0.0, 0.0, 0.0, 0.0, 0.0, 0.0, 0.0);(0.0, 40.35000228881836, -69.94000244140625, 5.380000114440918, 18.829999923706055, -5.380000114440918, 0.0, 0.0)
2024/05/03/13:24:45.997344;209774;1714767886;27541344;;['BL_Position', 'BL_Wheel', 'BR_Position', 'BR_Wheel', 'FL_Position', 'FL_Wheel', 'FR_Position', 'FR_Wheel'];(0.0015339808305725455, 2865.988525390625, 0.0076699042692780495, 2864.614013671875, -0.0015339808305725455, 2864.361083984375, 0.0, 2868.86328125);(0.0, 0.0, 0.0, 0.0, 0.0, 0.0, 0.0, 0.0);(0.0, 40.35000228881836, -69.94000244140625, 5.380000114440918, 26.900001525878906, -5.380000114440918, 0.0, 0.0)
2024/05/03/13:24:46.021141;209775;1714767886;43523658;;['BL_Position', 'BL_Wheel', 'BR_Position', 'BR_Wheel', 'FL_Position', 'FL_Wheel', 'FR_Position', 'FR_Wheel'];(0.0, 2865.988525390625, 0.006135923322290182, 2864.612548828125, -0.0015339808305725455, 2864.361083984375, 0.0, 2868.86328125);(0.0, 0.0, 0.0, 0.0, 0.0, 0.0, 0.0, 0.0);(0.0, 40.35000228881836, -72.6300048828125, 5.380000114440918, 26.900001525878906, -5.380000114440918, 0.0, 0.0)
2024/05/03/13:24:46.028699;209776;1714767886;59632973;;['BL_Position', 'BL_Wheel', 'BR_Position', 'BR_Wheel', 'FL_Position', 'FL_Wheel', 'FR_Position', 'FR_Wheel'];(0.0, 2865.988525390625, 0.006135923322290182, 2864.614013671875, -0.0015339808305725455, 2864.361083984375, 0.0, 2868.861572265625);(0.0, 0.0, 0.0, 0.0, 0.0, 0.0, 0.0, 0.0);(0.0, 40.35000228881836, -75.31999969482422, 5.380000114440918, 43.040000915527344, -5.380000114440918, 0.0, 0.0)
2024/05/03/13:24:46.043850;209777;1714767886;75496454;;['BL_Position', 'BL_Wheel', 'BR_Position', 'BR_Wheel', 'FL_Position', 'FL_Wheel', 'FR_Position', 'FR_Wheel'];(0.0, 2865.988525390625, 0.006135923322290182, 2864.614013671875, -0.0015339808305725455, 2864.361083984375, 0.0, 2868.86328125);(0.0, 0.0, 0.0, 0.0, 0.0, 0.0, 0.0, 0.0);(0.0, 40.35000228881836, -67.25, 5.380000114440918, 24.21000099182129, -5.380000114440918, 0.0, 0.0)
2024/05/03/13:24:46.059986;209778;1714767886;91522843;;['BL_Position', 'BL_Wheel', 'BR_Position', 'BR_Wheel', 'FL_Position', 'FL_Wheel', 'FR_Position', 'FR_Wheel'];(0.0, 2865.988525390625, 0.0076699042692780495, 2864.612548828125, -0.0015339808305725455, 2864.361083984375, 0.0, 2868.86328125);(0.0, 0.0, 0.0, 0.0, 0.0, 0.0, 0.0, 0.0);(0.0, 40.35000228881836, -69.94000244140625, 5.380000114440918, 51.11000061035156, -5.380000114440918, 0.0, 0.0)
2024/05/03/13:24:46.075812;209779;1714767886;107516361;;['BL_Position', 'BL_Wheel', 'BR_Position', 'BR_Wheel', 'FL_Position', 'FL_Wheel', 'FR_Position', 'FR_Wheel'];(0.0, 2865.988525390625, 0.006135923322290182, 2864.614013671875, -0.0015339808305725455, 2864.361083984375, 0.0, 2868.86328125);(0.0, 0.0, 0.0, 0.0, 0.0, 0.0, 0.0, 0.0);(0.0, 40.35000228881836, -67.25, 5.380000114440918, 18.829999923706055, -5.380000114440918, 0.0, 0.0)
2024/05/03/13:24:46.099162;209780;1714767886;123554416;;['BL_Position', 'BL_Wheel', 'BR_Position', 'BR_Wheel', 'FL_Position', 'FL_Wheel', 'FR_Position', 'FR_Wheel'];(0.0, 2865.988525390625, 0.0076699042692780495, 2864.612548828125, -0.0015339808305725455, 2864.361083984375, 0.0, 2868.86328125);(0.0, 0.0, 0.0, 0.0, 0.0, 0.0, 0.0, 0.0);(0.0, 40.35000228881836, -69.94000244140625, 5.380000114440918, 2.690000057220459, -5.380000114440918, 0.0, 0.0)
2024/05/03/13:24:46.108499;209781;1714767886;139572693;;['BL_Position', 'BL_Wheel', 'BR_Position', 'BR_Wheel', 'FL_Position', 'FL_Wheel', 'FR_Position', 'FR_Wheel'];(0.0, 2865.988525390625, 0.006135923322290182, 2864.614013671875, -0.0015339808305725455, 2864.361083984375, 0.0, 2868.86328125);(0.0, 0.0, 0.0, 0.0, 0.0, 0.0, 0.0, 0.0);(0.0, 40.35000228881836, -69.94000244140625, 5.380000114440918, 8.069999694824219, -5.380000114440918, 0.0, 0.0)
2024/05/03/13:24:46.123218;209782;1714767886;155541249;;['BL_Position', 'BL_Wheel', 'BR_Position', 'BR_Wheel', 'FL_Position', 'FL_Wheel', 'FR_Position', 'FR_Wheel'];(0.0, 2865.988525390625, 0.006135923322290182, 2864.612548828125, -0.003067961661145091, 2864.361083984375, 0.0, 2868.86328125);(0.0, 0.0, 0.0, 0.0, 0.0, 0.0, 0.0, 0.0);(2.690000057220459, 40.35000228881836, -69.94000244140625, 5.380000114440918, 8.069999694824219, -5.380000114440918, 0.0, 0.0)
2024/05/03/13:24:46.142114;209783;1714767886;171597989;;['BL_Position', 'BL_Wheel', 'BR_Position', 'BR_Wheel', 'FL_Position', 'FL_Wheel', 'FR_Position', 'FR_Wheel'];(0.0015339808305725455, 2865.988525390625, 0.006135923322290182, 2864.614013671875, -0.0015339808305725455, 2864.361083984375, 0.0, 2868.86328125);(0.0, 0.0, 0.0, 0.0, 0.0, 0.0, 0.0, 0.0);(0.0, 40.35000228881836, -67.25, 5.380000114440918, 10.760000228881836, -5.380000114440918, 0.0, 0.0)
2024/05/03/13:24:46.157845;209784;1714767886;188978989;;['BL_Position', 'BL_Wheel', 'BR_Position', 'BR_Wheel', 'FL_Position', 'FL_Wheel', 'FR_Position', 'FR_Wheel'];(0.0, 2865.988525390625, 0.006135923322290182, 2864.612548828125, -0.003067961661145091, 2864.361083984375, 0.0, 2868.86328125);(0.0, 0.0, 0.0, 0.0, 0.0, 0.0, 0.0, 0.0);(0.0, 40.35000228881836, -69.94000244140625, 5.380000114440918, 16.139999389648438, -5.380000114440918, 0.0, 0.0)
2024/05/03/13:24:46.172132;209785;1714767886;203553173;;['BL_Position', 'BL_Wheel', 'BR_Position', 'BR_Wheel', 'FL_Position', 'FL_Wheel', 'FR_Position', 'FR_Wheel'];(0.0015339808305725455, 2865.988525390625, 0.006135923322290182, 2864.612548828125, -0.0015339808305725455, 2864.361083984375, 0.0, 2868.86328125);(0.0, 0.0, 0.0, 0.0, 0.0, 0.0, 0.0, 0.0);(0.0, 40.35000228881836, -69.94000244140625, 5.380000114440918, 37.65999984741211, -5.380000114440918, 0.0, 0.0)
2024/05/03/13:24:46.187272;209786;1714767886;219604099;;['BL_Position', 'BL_Wheel', 'BR_Position', 'BR_Wheel', 'FL_Position', 'FL_Wheel', 'FR_Position', 'FR_Wheel'];(0.0015339808305725455, 2865.988525390625, 0.006135923322290182, 2864.612548828125, -0.0015339808305725455, 2864.361083984375, 0.0, 2868.86328125);(0.0, 0.0, 0.0, 0.0, 0.0, 0.0, 0.0, 0.0);(0.0, 40.35000228881836, -69.94000244140625, 5.380000114440918, 18.829999923706055, -5.380000114440918, 0.0, 0.0)
2024/05/03/13:24:46.203956;209787;1714767886;235537413;;['BL_Position', 'BL_Wheel', 'BR_Position', 'BR_Wheel', 'FL_Position', 'FL_Wheel', 'FR_Position', 'FR_Wheel'];(0.0015339808305725455, 2865.988525390625, 0.006135923322290182, 2864.612548828125, -0.0015339808305725455, 2864.361083984375, 0.0, 2868.86328125);(0.0, 0.0, 0.0, 0.0, 0.0, 0.0, 0.0, 0.0);(0.0, 40.35000228881836, -67.25, 5.380000114440918, 48.42000198364258, -5.380000114440918, 0.0, 0.0)
2024/05/03/13:24:46.223916;209788;1714767886;251512746;;['BL_Position', 'BL_Wheel', 'BR_Position', 'BR_Wheel', 'FL_Position', 'FL_Wheel', 'FR_Position', 'FR_Wheel'];(0.0, 2865.988525390625, 0.006135923322290182, 2864.612548828125, -0.003067961661145091, 2864.361083984375, 0.0, 2868.86328125);(0.0, 0.0, 0.0, 0.0, 0.0, 0.0, 0.0, 0.0);(0.0, 40.35000228881836, -69.94000244140625, 5.380000114440918, 26.900001525878906, -5.380000114440918, 0.0, 0.0)
2024/05/03/13:24:46.235997;209789;1714767886;267516061;;['BL_Position', 'BL_Wheel', 'BR_Position', 'BR_Wheel', 'FL_Position', 'FL_Wheel', 'FR_Position', 'FR_Wheel'];(0.0, 2865.988525390625, 0.006135923322290182, 2864.614013671875, -0.0015339808305725455, 2864.361083984375, 0.0, 2868.86328125);(0.0, 0.0, 0.0, 0.0, 0.0, 0.0, 0.0, 0.0);(0.0, 40.35000228881836, -67.25, 5.380000114440918, 18.829999923706055, -5.380000114440918, 0.0, 0.0)
2024/05/03/13:24:46.250872;209790;1714767886;283529431;;['BL_Position', 'BL_Wheel', 'BR_Position', 'BR_Wheel', 'FL_Position', 'FL_Wheel', 'FR_Position', 'FR_Wheel'];(0.0, 2865.988525390625, 0.0076699042692780495, 2864.614013671875, -0.0015339808305725455, 2864.361083984375, 0.0, 2868.86328125);(0.0, 0.0, 0.0, 0.0, 0.0, 0.0, 0.0, 0.0);(0.0, 40.35000228881836, -67.25, 5.380000114440918, 5.380000114440918, -5.380000114440918, 0.0, 0.0)
2024/05/03/13:24:46.267926;209791;1714767886;299555134;;['BL_Position', 'BL_Wheel', 'BR_Position', 'BR_Wheel', 'FL_Position', 'FL_Wheel', 'FR_Position', 'FR_Wheel'];(0.0, 2865.988525390625, 0.0076699042692780495, 2864.614013671875, -0.003067961661145091, 2864.361083984375, 0.0, 2868.86328125);(0.0, 0.0, 0.0, 0.0, 0.0, 0.0, 0.0, 0.0);(0.0, 40.35000228881836, -75.31999969482422, 5.380000114440918, 13.450000762939453, -5.380000114440918, 0.0, 0.0)
2024/05/03/13:24:46.284090;209792;1714767886;315505967;;['BL_Position', 'BL_Wheel', 'BR_Position', 'BR_Wheel', 'FL_Position', 'FL_Wheel', 'FR_Position', 'FR_Wheel'];(0.0, 2865.988525390625, 0.006135923322290182, 2864.612548828125, -0.0015339808305725455, 2864.361083984375, 0.0, 2868.86328125);(0.0, 0.0, 0.0, 0.0, 0.0, 0.0, 0.0, 0.0);(0.0, 40.35000228881836, -67.25, 5.380000114440918, 26.900001525878906, -5.380000114440918, 0.0, 0.0)
2024/05/03/13:24:46.304003;209793;1714767886;331556800;;['BL_Position', 'BL_Wheel', 'BR_Position', 'BR_Wheel', 'FL_Position', 'FL_Wheel', 'FR_Position', 'FR_Wheel'];(0.0015339808305725455, 2865.988525390625, 0.006135923322290182, 2864.614013671875, -0.0015339808305725455, 2864.361083984375, 0.0, 2868.86328125);(0.0, 0.0, 0.0, 0.0, 0.0, 0.0, 0.0, 0.0);(0.0, 40.35000228881836, -69.94000244140625, 5.380000114440918, 26.900001525878906, -5.380000114440918, 0.0, 0.0)
2024/05/03/13:24:46.328251;209794;1714767886;347524429;;['BL_Position', 'BL_Wheel', 'BR_Position', 'BR_Wheel', 'FL_Position', 'FL_Wheel', 'FR_Position', 'FR_Wheel'];(0.0, 2865.988525390625, 0.006135923322290182, 2864.614013671875, -0.0015339808305725455, 2864.361083984375, 0.0, 2868.86328125);(0.0, 0.0, 0.0, 0.0, 0.0, 0.0, 0.0, 0.0);(0.0, 40.35000228881836, -69.94000244140625, 5.380000114440918, 18.829999923706055, -5.380000114440918, 0.0, 0.0)
2024/05/03/13:24:46.335806;209795;1714767886;363491096;;['BL_Position', 'BL_Wheel', 'BR_Position', 'BR_Wheel', 'FL_Position', 'FL_Wheel', 'FR_Position', 'FR_Wheel'];(0.0, 2865.988525390625, 0.006135923322290182, 2864.614013671875, -0.0015339808305725455, 2864.361083984375, 0.0, 2868.861572265625);(0.0, 0.0, 0.0, 0.0, 0.0, 0.0, 0.0, 0.0);(0.0, 40.35000228881836, -69.94000244140625, 5.380000114440918, 10.760000228881836, -5.380000114440918, 0.0, 0.0)
2024/05/03/13:24:46.346414;209796;1714767886;379538447;;['BL_Position', 'BL_Wheel', 'BR_Position', 'BR_Wheel', 'FL_Position', 'FL_Wheel', 'FR_Position', 'FR_Wheel'];(0.0, 2865.988525390625, 0.006135923322290182, 2864.612548828125, -0.0015339808305725455, 2864.361083984375, 0.0, 2868.86328125);(0.0, 0.0, 0.0, 0.0, 0.0, 0.0, 0.0, 0.0);(0.0, 40.35000228881836, -69.94000244140625, 5.380000114440918, 13.450000762939453, -5.380000114440918, 0.0, 0.0)
2024/05/03/13:24:46.363954;209797;1714767886;395556132;;['BL_Position', 'BL_Wheel', 'BR_Position', 'BR_Wheel', 'FL_Position', 'FL_Wheel', 'FR_Position', 'FR_Wheel'];(0.0, 2865.988525390625, 0.006135923322290182, 2864.614013671875, -0.0015339808305725455, 2864.361083984375, 0.0, 2868.86328125);(0.0, 0.0, 0.0, 0.0, 0.0, 0.0, 0.0, 0.0);(0.0, 40.35000228881836, -67.25, 5.380000114440918, 5.380000114440918, -5.380000114440918, 0.0, 0.0)
2024/05/03/13:24:46.380333;209798;1714767886;411537002;;['BL_Position', 'BL_Wheel', 'BR_Position', 'BR_Wheel', 'FL_Position', 'FL_Wheel', 'FR_Position', 'FR_Wheel'];(0.0015339808305725455, 2865.988525390625, 0.006135923322290182, 2864.614013671875, -0.0015339808305725455, 2864.361083984375, 0.0, 2868.861572265625);(0.0, 0.0, 0.0, 0.0, 0.0, 0.0, 0.0, 0.0);(2.690000057220459, 40.35000228881836, -69.94000244140625, 5.380000114440918, 24.21000099182129, -5.380000114440918, 0.0, 0.0)
2024/05/03/13:24:46.405850;209799;1714767886;427498335;;['BL_Position', 'BL_Wheel', 'BR_Position', 'BR_Wheel', 'FL_Position', 'FL_Wheel', 'FR_Position', 'FR_Wheel'];(0.0015339808305725455, 2865.988525390625, 0.006135923322290182, 2864.612548828125, -0.0015339808305725455, 2864.361083984375, 0.0, 2868.861572265625);(0.0, 0.0, 0.0, 0.0, 0.0, 0.0, 0.0, 0.0);(0.0, 40.35000228881836, -69.94000244140625, 5.380000114440918, 18.829999923706055, -5.380000114440918, 0.0, 0.0)
2024/05/03/13:24:46.410101;209800;1714767886;443506650;;['BL_Position', 'BL_Wheel', 'BR_Position', 'BR_Wheel', 'FL_Position', 'FL_Wheel', 'FR_Position', 'FR_Wheel'];(0.0, 2865.988525390625, 0.006135923322290182, 2864.614013671875, -0.0015339808305725455, 2864.361083984375, 0.0, 2868.86328125);(0.0, 0.0, 0.0, 0.0, 0.0, 0.0, 0.0, 0.0);(0.0, 40.35000228881836, -69.94000244140625, 5.380000114440918, 29.59000015258789, -5.380000114440918, 0.0, 0.0)
2024/05/03/13:24:46.431612;209801;1714767886;459527668;;['BL_Position', 'BL_Wheel', 'BR_Position', 'BR_Wheel', 'FL_Position', 'FL_Wheel', 'FR_Position', 'FR_Wheel'];(0.0, 2865.988525390625, 0.006135923322290182, 2864.612548828125, -0.0015339808305725455, 2864.361083984375, 0.0, 2868.86328125);(0.0, 0.0, 0.0, 0.0, 0.0, 0.0, 0.0, 0.0);(0.0, 40.35000228881836, -69.94000244140625, 5.380000114440918, 24.21000099182129, -5.380000114440918, 0.0, 0.0)
2024/05/03/13:24:46.444132;209802;1714767886;475547964;;['BL_Position', 'BL_Wheel', 'BR_Position', 'BR_Wheel', 'FL_Position', 'FL_Wheel', 'FR_Position', 'FR_Wheel'];(0.0, 2865.988525390625, 0.006135923322290182, 2864.614013671875, -0.0015339808305725455, 2864.361083984375, 0.0, 2868.861572265625);(0.0, 0.0, 0.0, 0.0, 0.0, 0.0, 0.0, 0.0);(0.0, 40.35000228881836, -67.25, 5.380000114440918, 34.970001220703125, -5.380000114440918, 0.0, 0.0)
2024/05/03/13:24:46.459488;209803;1714767886;491497056;;['BL_Position', 'BL_Wheel', 'BR_Position', 'BR_Wheel', 'FL_Position', 'FL_Wheel', 'FR_Position', 'FR_Wheel'];(0.0, 2865.988525390625, 0.006135923322290182, 2864.614013671875, -0.0015339808305725455, 2864.361083984375, 0.0, 2868.86328125);(0.0, 0.0, 0.0, 0.0, 0.0, 0.0, 0.0, 0.0);(0.0, 40.35000228881836, -67.25, 5.380000114440918, 18.829999923706055, -5.380000114440918, 0.0, 0.0)
2024/05/03/13:24:46.475722;209804;1714767886;507480241;;['BL_Position', 'BL_Wheel', 'BR_Position', 'BR_Wheel', 'FL_Position', 'FL_Wheel', 'FR_Position', 'FR_Wheel'];(0.0, 2865.988525390625, 0.006135923322290182, 2864.612548828125, -0.0015339808305725455, 2864.361083984375, 0.0, 2868.86328125);(0.0, 0.0, 0.0, 0.0, 0.0, 0.0, 0.0, 0.0);(0.0, 40.35000228881836, -69.94000244140625, 5.380000114440918, 8.069999694824219, -5.380000114440918, 0.0, 0.0)
2024/05/03/13:24:46.492599;209805;1714767886;523510537;;['BL_Position', 'BL_Wheel', 'BR_Position', 'BR_Wheel', 'FL_Position', 'FL_Wheel', 'FR_Position', 'FR_Wheel'];(0.0, 2865.988525390625, 0.006135923322290182, 2864.614013671875, -0.0015339808305725455, 2864.361083984375, 0.0, 2868.861572265625);(0.0, 0.0, 0.0, 0.0, 0.0, 0.0, 0.0, 0.0);(0.0, 40.35000228881836, -69.94000244140625, 5.380000114440918, 10.760000228881836, -5.380000114440918, 0.0, 0.0)
2024/05/03/13:24:46.508711;209806;1714767886;539490036;;['BL_Position', 'BL_Wheel', 'BR_Position', 'BR_Wheel', 'FL_Position', 'FL_Wheel', 'FR_Position', 'FR_Wheel'];(0.0, 2865.988525390625, 0.006135923322290182, 2864.612548828125, -0.0015339808305725455, 2864.361083984375, 0.0, 2868.86328125);(0.0, 0.0, 0.0, 0.0, 0.0, 0.0, 0.0, 0.0);(0.0, 40.35000228881836, -69.94000244140625, 5.380000114440918, 10.760000228881836, -5.380000114440918, 0.0, 0.0)
2024/05/03/13:24:46.532809;209807;1714767886;555476591;;['BL_Position', 'BL_Wheel', 'BR_Position', 'BR_Wheel', 'FL_Position', 'FL_Wheel', 'FR_Position', 'FR_Wheel'];(0.0, 2865.988525390625, 0.006135923322290182, 2864.614013671875, -0.003067961661145091, 2864.361083984375, 0.0, 2868.86328125);(0.0, 0.0, 0.0, 0.0, 0.0, 0.0, 0.0, 0.0);(0.0, 40.35000228881836, -69.94000244140625, 5.380000114440918, 32.279998779296875, -5.380000114440918, 0.0, 0.0)
2024/05/03/13:24:46.541326;209808;1714767886;571506610;;['BL_Position', 'BL_Wheel', 'BR_Position', 'BR_Wheel', 'FL_Position', 'FL_Wheel', 'FR_Position', 'FR_Wheel'];(0.0, 2865.988525390625, 0.006135923322290182, 2864.614013671875, -0.0015339808305725455, 2864.361083984375, 0.0, 2868.86328125);(0.0, 0.0, 0.0, 0.0, 0.0, 0.0, 0.0, 0.0);(0.0, 40.35000228881836, -69.94000244140625, 5.380000114440918, 53.80000305175781, -5.380000114440918, 0.0, 0.0)
2024/05/03/13:24:46.556167;209809;1714767886;587502665;;['BL_Position', 'BL_Wheel', 'BR_Position', 'BR_Wheel', 'FL_Position', 'FL_Wheel', 'FR_Position', 'FR_Wheel'];(0.0015339808305725455, 2865.988525390625, 0.006135923322290182, 2864.612548828125, -0.0015339808305725455, 2864.361083984375, 0.0, 2868.86328125);(0.0, 0.0, 0.0, 0.0, 0.0, 0.0, 0.0, 0.0);(0.0, 40.35000228881836, -72.6300048828125, 5.380000114440918, 24.21000099182129, -5.380000114440918, 0.0, 0.0)
2024/05/03/13:24:46.572071;209810;1714767886;603481368;;['BL_Position', 'BL_Wheel', 'BR_Position', 'BR_Wheel', 'FL_Position', 'FL_Wheel', 'FR_Position', 'FR_Wheel'];(0.0, 2865.988525390625, 0.006135923322290182, 2864.612548828125, -0.003067961661145091, 2864.361083984375, 0.0, 2868.86328125);(0.0, 0.0, 0.0, 0.0, 0.0, 0.0, 0.0, 0.0);(0.0, 40.35000228881836, -69.94000244140625, 5.380000114440918, 18.829999923706055, -5.380000114440918, 0.0, 0.0)
2024/05/03/13:24:46.587812;209811;1714767886;619509535;;['BL_Position', 'BL_Wheel', 'BR_Position', 'BR_Wheel', 'FL_Position', 'FL_Wheel', 'FR_Position', 'FR_Wheel'];(0.0, 2865.988525390625, 0.0076699042692780495, 2864.614013671875, -0.0015339808305725455, 2864.361083984375, 0.0, 2868.86328125);(0.0, 0.0, 0.0, 0.0, 0.0, 0.0, 0.0, 0.0);(0.0, 40.35000228881836, -69.94000244140625, 5.380000114440918, 18.829999923706055, -5.380000114440918, 0.0, 0.0)
2024/05/03/13:24:46.610990;209812;1714767886;635519756;;['BL_Position', 'BL_Wheel', 'BR_Position', 'BR_Wheel', 'FL_Position', 'FL_Wheel', 'FR_Position', 'FR_Wheel'];(0.0015339808305725455, 2865.988525390625, 0.006135923322290182, 2864.614013671875, -0.0015339808305725455, 2864.361083984375, 0.0, 2868.86328125);(0.0, 0.0, 0.0, 0.0, 0.0, 0.0, 0.0, 0.0);(0.0, 40.35000228881836, -67.25, 5.380000114440918, 8.069999694824219, -5.380000114440918, 0.0, 0.0)
2024/05/03/13:24:46.619818;209813;1714767886;651491645;;['BL_Position', 'BL_Wheel', 'BR_Position', 'BR_Wheel', 'FL_Position', 'FL_Wheel', 'FR_Position', 'FR_Wheel'];(0.0015339808305725455, 2865.988525390625, 0.006135923322290182, 2864.612548828125, -0.0015339808305725455, 2864.361083984375, 0.0, 2868.86328125);(0.0, 0.0, 0.0, 0.0, 0.0, 0.0, 0.0, 0.0);(0.0, 40.35000228881836, -75.31999969482422, 5.380000114440918, 16.139999389648438, -5.380000114440918, 0.0, 0.0)
2024/05/03/13:24:46.643762;209814;1714767886;667485589;;['BL_Position', 'BL_Wheel', 'BR_Position', 'BR_Wheel', 'FL_Position', 'FL_Wheel', 'FR_Position', 'FR_Wheel'];(0.0, 2865.988525390625, 0.006135923322290182, 2864.614013671875, -0.003067961661145091, 2864.361083984375, 0.0, 2868.861572265625);(0.0, 0.0, 0.0, 0.0, 0.0, 0.0, 0.0, 0.0);(0.0, 40.35000228881836, -69.94000244140625, 5.380000114440918, 34.970001220703125, -5.380000114440918, 0.0, 0.0)
2024/05/03/13:24:46.654140;209815;1714767886;683495163;;['BL_Position', 'BL_Wheel', 'BR_Position', 'BR_Wheel', 'FL_Position', 'FL_Wheel', 'FR_Position', 'FR_Wheel'];(0.0, 2865.988525390625, 0.006135923322290182, 2864.614013671875, -0.0015339808305725455, 2864.361083984375, 0.0, 2868.86328125);(0.0, 0.0, 0.0, 0.0, 0.0, 0.0, 0.0, 0.0);(0.0, 40.35000228881836, -67.25, 5.380000114440918, 26.900001525878906, -5.380000114440918, 0.0, 0.0)
2024/05/03/13:24:46.667877;209816;1714767886;699485348;;['BL_Position', 'BL_Wheel', 'BR_Position', 'BR_Wheel', 'FL_Position', 'FL_Wheel', 'FR_Position', 'FR_Wheel'];(0.0, 2865.988525390625, 0.006135923322290182, 2864.612548828125, -0.0015339808305725455, 2864.361083984375, 0.0, 2868.86328125);(0.0, 0.0, 0.0, 0.0, 0.0, 0.0, 0.0, 0.0);(0.0, 40.35000228881836, -72.6300048828125, 5.380000114440918, 24.21000099182129, -5.380000114440918, 0.0, 0.0)
2024/05/03/13:24:46.683956;209817;1714767886;715495681;;['BL_Position', 'BL_Wheel', 'BR_Position', 'BR_Wheel', 'FL_Position', 'FL_Wheel', 'FR_Position', 'FR_Wheel'];(0.0, 2865.988525390625, 0.0076699042692780495, 2864.612548828125, -0.003067961661145091, 2864.361083984375, 0.0, 2868.86328125);(0.0, 0.0, 0.0, 0.0, 0.0, 0.0, 0.0, 0.0);(0.0, 40.35000228881836, -67.25, 5.380000114440918, 8.069999694824219, -5.380000114440918, 0.0, 0.0)
2024/05/03/13:24:46.700055;209818;1714767886;731467143;;['BL_Position', 'BL_Wheel', 'BR_Position', 'BR_Wheel', 'FL_Position', 'FL_Wheel', 'FR_Position', 'FR_Wheel'];(0.0, 2865.988525390625, 0.006135923322290182, 2864.612548828125, -0.0015339808305725455, 2864.361083984375, 0.0, 2868.861572265625);(0.0, 0.0, 0.0, 0.0, 0.0, 0.0, 0.0, 0.0);(0.0, 40.35000228881836, -69.94000244140625, 5.380000114440918, 8.069999694824219, -5.380000114440918, 0.0, 0.0)
2024/05/03/13:24:46.715840;209819;1714767886;747476272;;['BL_Position', 'BL_Wheel', 'BR_Position', 'BR_Wheel', 'FL_Position', 'FL_Wheel', 'FR_Position', 'FR_Wheel'];(0.0, 2865.988525390625, 0.006135923322290182, 2864.614013671875, -0.0015339808305725455, 2864.361083984375, 0.0, 2868.86328125);(0.0, 0.0, 0.0, 0.0, 0.0, 0.0, 0.0, 0.0);(0.0, 40.35000228881836, -75.31999969482422, 5.380000114440918, 26.900001525878906, -5.380000114440918, 0.0, 0.0)
2024/05/03/13:24:46.735387;209820;1714767886;763490568;;['BL_Position', 'BL_Wheel', 'BR_Position', 'BR_Wheel', 'FL_Position', 'FL_Wheel', 'FR_Position', 'FR_Wheel'];(0.0015339808305725455, 2865.988525390625, 0.006135923322290182, 2864.614013671875, -0.0015339808305725455, 2864.361083984375, 0.0, 2868.86328125);(0.0, 0.0, 0.0, 0.0, 0.0, 0.0, 0.0, 0.0);(0.0, 40.35000228881836, -69.94000244140625, 5.380000114440918, 40.35000228881836, -5.380000114440918, 0.0, 0.0)
2024/05/03/13:24:46.747952;209821;1714767886;779479716;;['BL_Position', 'BL_Wheel', 'BR_Position', 'BR_Wheel', 'FL_Position', 'FL_Wheel', 'FR_Position', 'FR_Wheel'];(0.0, 2865.988525390625, 0.0076699042692780495, 2864.614013671875, -0.0015339808305725455, 2864.361083984375, 0.0, 2868.86328125);(0.0, 0.0, 0.0, 0.0, 0.0, 0.0, 0.0, 0.0);(0.0, 40.35000228881836, -67.25, 5.380000114440918, 16.139999389648438, -5.380000114440918, 0.0, 0.0)
2024/05/03/13:24:46.763896;209822;1714767886;795464290;;['BL_Position', 'BL_Wheel', 'BR_Position', 'BR_Wheel', 'FL_Position', 'FL_Wheel', 'FR_Position', 'FR_Wheel'];(0.0, 2865.988525390625, 0.006135923322290182, 2864.614013671875, -0.0015339808305725455, 2864.361083984375, 0.0, 2868.86328125);(0.0, 0.0, 0.0, 0.0, 0.0, 0.0, 0.0, 0.0);(0.0, 40.35000228881836, -69.94000244140625, 5.380000114440918, 5.380000114440918, -5.380000114440918, 0.0, 0.0)
2024/05/03/13:24:46.779903;209823;1714767886;811482808;;['BL_Position', 'BL_Wheel', 'BR_Position', 'BR_Wheel', 'FL_Position', 'FL_Wheel', 'FR_Position', 'FR_Wheel'];(0.0, 2865.988525390625, 0.006135923322290182, 2864.614013671875, -0.003067961661145091, 2864.361083984375, 0.0, 2868.86328125);(0.0, 0.0, 0.0, 0.0, 0.0, 0.0, 0.0, 0.0);(0.0, 40.35000228881836, -69.94000244140625, 5.380000114440918, 32.279998779296875, -5.380000114440918, 0.0, 0.0)
2024/05/03/13:24:46.796322;209824;1714767886;827543900;;['BL_Position', 'BL_Wheel', 'BR_Position', 'BR_Wheel', 'FL_Position', 'FL_Wheel', 'FR_Position', 'FR_Wheel'];(0.0, 2865.988525390625, 0.006135923322290182, 2864.612548828125, -0.0015339808305725455, 2864.361083984375, 0.0, 2868.86328125);(0.0, 0.0, 0.0, 0.0, 0.0, 0.0, 0.0, 0.0);(0.0, 40.35000228881836, -67.25, 5.380000114440918, 40.35000228881836, -5.380000114440918, 0.0, 0.0)
2024/05/03/13:24:46.816049;209825;1714767886;843543215;;['BL_Position', 'BL_Wheel', 'BR_Position', 'BR_Wheel', 'FL_Position', 'FL_Wheel', 'FR_Position', 'FR_Wheel'];(0.0, 2865.988525390625, 0.006135923322290182, 2864.614013671875, -0.003067961661145091, 2864.361083984375, 0.0, 2868.86328125);(0.0, 0.0, 0.0, 0.0, 0.0, 0.0, 0.0, 0.0);(0.0, 40.35000228881836, -72.6300048828125, 5.380000114440918, 16.139999389648438, -5.380000114440918, 0.0, 0.0)
2024/05/03/13:24:46.838573;209826;1714767886;859509714;;['BL_Position', 'BL_Wheel', 'BR_Position', 'BR_Wheel', 'FL_Position', 'FL_Wheel', 'FR_Position', 'FR_Wheel'];(0.0, 2865.988525390625, 0.0076699042692780495, 2864.614013671875, -0.0015339808305725455, 2864.361083984375, 0.0, 2868.86328125);(0.0, 0.0, 0.0, 0.0, 0.0, 0.0, 0.0, 0.0);(0.0, 40.35000228881836, -72.6300048828125, 5.380000114440918, 8.069999694824219, -5.380000114440918, 0.0, 0.0)
2024/05/03/13:24:46.848857;209827;1714767886;875540547;;['BL_Position', 'BL_Wheel', 'BR_Position', 'BR_Wheel', 'FL_Position', 'FL_Wheel', 'FR_Position', 'FR_Wheel'];(0.0, 2865.988525390625, 0.006135923322290182, 2864.614013671875, -0.0015339808305725455, 2864.361083984375, 0.0, 2868.86328125);(0.0, 0.0, 0.0, 0.0, 0.0, 0.0, 0.0, 0.0);(0.0, 40.35000228881836, -69.94000244140625, 5.380000114440918, 10.760000228881836, -5.380000114440918, 0.0, 0.0)
2024/05/03/13:24:46.860278;209828;1714767886;891495973;;['BL_Position', 'BL_Wheel', 'BR_Position', 'BR_Wheel', 'FL_Position', 'FL_Wheel', 'FR_Position', 'FR_Wheel'];(0.0015339808305725455, 2865.988525390625, 0.006135923322290182, 2864.612548828125, -0.0015339808305725455, 2864.361083984375, 0.0, 2868.86328125);(0.0, 0.0, 0.0, 0.0, 0.0, 0.0, 0.0, 0.0);(0.0, 40.35000228881836, -69.94000244140625, 5.380000114440918, 34.970001220703125, -5.380000114440918, 0.0, 0.0)
2024/05/03/13:24:46.876029;209829;1714767886;907499676;;['BL_Position', 'BL_Wheel', 'BR_Position', 'BR_Wheel', 'FL_Position', 'FL_Wheel', 'FR_Position', 'FR_Wheel'];(0.0015339808305725455, 2865.988525390625, 0.006135923322290182, 2864.612548828125, -0.0015339808305725455, 2864.361083984375, 0.0, 2868.86328125);(0.0, 0.0, 0.0, 0.0, 0.0, 0.0, 0.0, 0.0);(0.0, 40.35000228881836, -69.94000244140625, 5.380000114440918, 24.21000099182129, -5.380000114440918, 0.0, 0.0)
2024/05/03/13:24:46.891072;209830;1714767886;923477509;;['BL_Position', 'BL_Wheel', 'BR_Position', 'BR_Wheel', 'FL_Position', 'FL_Wheel', 'FR_Position', 'FR_Wheel'];(0.0, 2865.988525390625, 0.006135923322290182, 2864.612548828125, -0.0015339808305725455, 2864.361083984375, 0.0, 2868.861572265625);(0.0, 0.0, 0.0, 0.0, 0.0, 0.0, 0.0, 0.0);(0.0, 40.35000228881836, -75.31999969482422, 5.380000114440918, 37.65999984741211, -5.380000114440918, 0.0, 0.0)
2024/05/03/13:24:46.917952;209831;1714767886;939476546;;['BL_Position', 'BL_Wheel', 'BR_Position', 'BR_Wheel', 'FL_Position', 'FL_Wheel', 'FR_Position', 'FR_Wheel'];(0.0, 2865.988525390625, 0.006135923322290182, 2864.614013671875, -0.0015339808305725455, 2864.361083984375, 0.0, 2868.86328125);(0.0, 0.0, 0.0, 0.0, 0.0, 0.0, 0.0, 0.0);(0.0, 40.35000228881836, -69.94000244140625, 5.380000114440918, 40.35000228881836, -5.380000114440918, 0.0, 0.0)
2024/05/03/13:24:46.923967;209832;1714767886;955480638;;['BL_Position', 'BL_Wheel', 'BR_Position', 'BR_Wheel', 'FL_Position', 'FL_Wheel', 'FR_Position', 'FR_Wheel'];(0.0015339808305725455, 2865.988525390625, 0.006135923322290182, 2864.614013671875, -0.0015339808305725455, 2864.361083984375, 0.0, 2868.86328125);(0.0, 0.0, 0.0, 0.0, 0.0, 0.0, 0.0, 0.0);(0.0, 40.35000228881836, -67.25, 5.380000114440918, 26.900001525878906, -5.380000114440918, 0.0, 0.0)
2024/05/03/13:24:46.944023;209833;1714767886;971474527;;['BL_Position', 'BL_Wheel', 'BR_Position', 'BR_Wheel', 'FL_Position', 'FL_Wheel', 'FR_Position', 'FR_Wheel'];(0.0015339808305725455, 2865.988525390625, 0.006135923322290182, 2864.614013671875, -0.0015339808305725455, 2864.361083984375, 0.0, 2868.86328125);(0.0, 0.0, 0.0, 0.0, 0.0, 0.0, 0.0, 0.0);(2.690000057220459, 40.35000228881836, -69.94000244140625, 5.380000114440918, 24.21000099182129, -5.380000114440918, 0.0, 0.0)
2024/05/03/13:24:46.956472;209834;1714767886;987488378;;['BL_Position', 'BL_Wheel', 'BR_Position', 'BR_Wheel', 'FL_Position', 'FL_Wheel', 'FR_Position', 'FR_Wheel'];(0.0, 2865.988525390625, 0.006135923322290182, 2864.612548828125, -0.0015339808305725455, 2864.361083984375, 0.0, 2868.86328125);(0.0, 0.0, 0.0, 0.0, 0.0, 0.0, 0.0, 0.0);(0.0, 40.35000228881836, -72.6300048828125, 5.380000114440918, 24.21000099182129, -5.380000114440918, 0.0, 0.0)
2024/05/03/13:24:46.970741;209835;1714767887;3461952;;['BL_Position', 'BL_Wheel', 'BR_Position', 'BR_Wheel', 'FL_Position', 'FL_Wheel', 'FR_Position', 'FR_Wheel'];(0.0, 2865.988525390625, 0.006135923322290182, 2864.612548828125, -0.0015339808305725455, 2864.361083984375, 0.0, 2868.86328125);(0.0, 0.0, 0.0, 0.0, 0.0, 0.0, 0.0, 0.0);(0.0, 40.35000228881836, -69.94000244140625, 5.380000114440918, 8.069999694824219, -5.380000114440918, 0.0, 0.0)
2024/05/03/13:24:46.988408;209836;1714767887;19517674;;['BL_Position', 'BL_Wheel', 'BR_Position', 'BR_Wheel', 'FL_Position', 'FL_Wheel', 'FR_Position', 'FR_Wheel'];(0.0, 2865.988525390625, 0.006135923322290182, 2864.614013671875, -0.0015339808305725455, 2864.361083984375, 0.0, 2868.86328125);(0.0, 0.0, 0.0, 0.0, 0.0, 0.0, 0.0, 0.0);(0.0, 40.35000228881836, -69.94000244140625, 5.380000114440918, 21.520000457763672, -5.380000114440918, 0.0, 0.0)
2024/05/03/13:24:47.004003;209837;1714767887;35472396;;['BL_Position', 'BL_Wheel', 'BR_Position', 'BR_Wheel', 'FL_Position', 'FL_Wheel', 'FR_Position', 'FR_Wheel'];(0.0, 2865.988525390625, 0.0076699042692780495, 2864.612548828125, -0.0015339808305725455, 2864.361083984375, 0.0, 2868.86328125);(0.0, 0.0, 0.0, 0.0, 0.0, 0.0, 0.0, 0.0);(0.0, 40.35000228881836, -69.94000244140625, 5.380000114440918, 45.72999954223633, -5.380000114440918, 0.0, 0.0)
2024/05/03/13:24:47.020800;209838;1714767887;51483043;;['BL_Position', 'BL_Wheel', 'BR_Position', 'BR_Wheel', 'FL_Position', 'FL_Wheel', 'FR_Position', 'FR_Wheel'];(0.0, 2865.988525390625, 0.0076699042692780495, 2864.612548828125, -0.0015339808305725455, 2864.361083984375, 0.0, 2868.86328125);(0.0, 0.0, 0.0, 0.0, 0.0, 0.0, 0.0, 0.0);(0.0, 40.35000228881836, -69.94000244140625, 5.380000114440918, 24.21000099182129, -5.380000114440918, 0.0, 0.0)
2024/05/03/13:24:47.045185;209839;1714767887;67544228;;['BL_Position', 'BL_Wheel', 'BR_Position', 'BR_Wheel', 'FL_Position', 'FL_Wheel', 'FR_Position', 'FR_Wheel'];(0.0, 2865.988525390625, 0.006135923322290182, 2864.614013671875, -0.0015339808305725455, 2864.361083984375, 0.0, 2868.86328125);(0.0, 0.0, 0.0, 0.0, 0.0, 0.0, 0.0, 0.0);(0.0, 40.35000228881836, -67.25, 5.380000114440918, 13.450000762939453, -5.380000114440918, 0.0, 0.0)
2024/05/03/13:24:47.055121;209840;1714767887;83483691;;['BL_Position', 'BL_Wheel', 'BR_Position', 'BR_Wheel', 'FL_Position', 'FL_Wheel', 'FR_Position', 'FR_Wheel'];(0.0, 2865.988525390625, 0.006135923322290182, 2864.614013671875, -0.003067961661145091, 2864.361083984375, 0.0, 2868.86328125);(0.0, 0.0, 0.0, 0.0, 0.0, 0.0, 0.0, 0.0);(0.0, 40.35000228881836, -69.94000244140625, 5.380000114440918, 13.450000762939453, -5.380000114440918, 0.0, 0.0)
2024/05/03/13:24:47.067896;209841;1714767887;99508931;;['BL_Position', 'BL_Wheel', 'BR_Position', 'BR_Wheel', 'FL_Position', 'FL_Wheel', 'FR_Position', 'FR_Wheel'];(0.0015339808305725455, 2865.988525390625, 0.006135923322290182, 2864.612548828125, -0.0015339808305725455, 2864.361083984375, 0.0, 2868.86328125);(0.0, 0.0, 0.0, 0.0, 0.0, 0.0, 0.0, 0.0);(0.0, 40.35000228881836, -67.25, 5.380000114440918, 10.760000228881836, -5.380000114440918, 0.0, 0.0)
2024/05/03/13:24:47.084343;209842;1714767887;115492172;;['BL_Position', 'BL_Wheel', 'BR_Position', 'BR_Wheel', 'FL_Position', 'FL_Wheel', 'FR_Position', 'FR_Wheel'];(0.0015339808305725455, 2865.988525390625, 0.006135923322290182, 2864.612548828125, -0.003067961661145091, 2864.361083984375, 0.0, 2868.861572265625);(0.0, 0.0, 0.0, 0.0, 0.0, 0.0, 0.0, 0.0);(0.0, 40.35000228881836, -67.25, 5.380000114440918, 8.069999694824219, -5.380000114440918, 0.0, 0.0)
2024/05/03/13:24:47.100191;209843;1714767887;131512986;;['BL_Position', 'BL_Wheel', 'BR_Position', 'BR_Wheel', 'FL_Position', 'FL_Wheel', 'FR_Position', 'FR_Wheel'];(0.0, 2865.988525390625, 0.006135923322290182, 2864.614013671875, -0.0015339808305725455, 2864.361083984375, 0.0, 2868.86328125);(0.0, 0.0, 0.0, 0.0, 0.0, 0.0, 0.0, 0.0);(0.0, 40.35000228881836, -69.94000244140625, 5.380000114440918, 8.069999694824219, -5.380000114440918, 0.0, 0.0)
2024/05/03/13:24:47.122777;209844;1714767887;147449467;;['BL_Position', 'BL_Wheel', 'BR_Position', 'BR_Wheel', 'FL_Position', 'FL_Wheel', 'FR_Position', 'FR_Wheel'];(0.0, 2865.988525390625, 0.006135923322290182, 2864.614013671875, -0.0015339808305725455, 2864.361083984375, 0.0, 2868.86328125);(0.0, 0.0, 0.0, 0.0, 0.0, 0.0, 0.0, 0.0);(0.0, 40.35000228881836, -69.94000244140625, 5.380000114440918, 13.450000762939453, -5.380000114440918, 0.0, 0.0)
2024/05/03/13:24:47.132027;209845;1714767887;163495115;;['BL_Position', 'BL_Wheel', 'BR_Position', 'BR_Wheel', 'FL_Position', 'FL_Wheel', 'FR_Position', 'FR_Wheel'];(0.0, 2865.988525390625, 0.006135923322290182, 2864.612548828125, -0.003067961661145091, 2864.361083984375, 0.0, 2868.86328125);(0.0, 0.0, 0.0, 0.0, 0.0, 0.0, 0.0, 0.0);(0.0, 40.35000228881836, -67.25, 5.380000114440918, 10.760000228881836, -5.380000114440918, 0.0, 0.0)
2024/05/03/13:24:47.152970;209846;1714767887;179465948;;['BL_Position', 'BL_Wheel', 'BR_Position', 'BR_Wheel', 'FL_Position', 'FL_Wheel', 'FR_Position', 'FR_Wheel'];(0.0015339808305725455, 2865.988525390625, 0.006135923322290182, 2864.612548828125, -0.0015339808305725455, 2864.361083984375, 0.0, 2868.86328125);(0.0, 0.0, 0.0, 0.0, 0.0, 0.0, 0.0, 0.0);(0.0, 40.35000228881836, -69.94000244140625, 5.380000114440918, 16.139999389648438, -5.380000114440918, 0.0, 0.0)
2024/05/03/13:24:47.165983;209847;1714767887;195438059;;['BL_Position', 'BL_Wheel', 'BR_Position', 'BR_Wheel', 'FL_Position', 'FL_Wheel', 'FR_Position', 'FR_Wheel'];(0.0, 2865.988525390625, 0.0076699042692780495, 2864.612548828125, -0.0015339808305725455, 2864.361083984375, 0.0, 2868.86328125);(0.0, 0.0, 0.0, 0.0, 0.0, 0.0, 0.0, 0.0);(0.0, 40.35000228881836, -67.25, 5.380000114440918, 21.520000457763672, -5.380000114440918, 0.0, 0.0)
2024/05/03/13:24:47.180458;209848;1714767887;211467318;;['BL_Position', 'BL_Wheel', 'BR_Position', 'BR_Wheel', 'FL_Position', 'FL_Wheel', 'FR_Position', 'FR_Wheel'];(0.0, 2865.988525390625, 0.006135923322290182, 2864.612548828125, -0.003067961661145091, 2864.361083984375, 0.0, 2868.86328125);(0.0, 0.0, 0.0, 0.0, 0.0, 0.0, 0.0, 0.0);(0.0, 40.35000228881836, -69.94000244140625, 5.380000114440918, 16.139999389648438, -5.380000114440918, 0.0, 0.0)
2024/05/03/13:24:47.195928;209849;1714767887;227533317;;['BL_Position', 'BL_Wheel', 'BR_Position', 'BR_Wheel', 'FL_Position', 'FL_Wheel', 'FR_Position', 'FR_Wheel'];(0.0, 2865.988525390625, 0.006135923322290182, 2864.612548828125, -0.0015339808305725455, 2864.361083984375, 0.0, 2868.861572265625);(0.0, 0.0, 0.0, 0.0, 0.0, 0.0, 0.0, 0.0);(0.0, 40.35000228881836, -69.94000244140625, 5.380000114440918, 16.139999389648438, -5.380000114440918, 0.0, 0.0)
2024/05/03/13:24:47.212146;209850;1714767887;243496280;;['BL_Position', 'BL_Wheel', 'BR_Position', 'BR_Wheel', 'FL_Position', 'FL_Wheel', 'FR_Position', 'FR_Wheel'];(0.0, 2865.988525390625, 0.006135923322290182, 2864.612548828125, -0.0015339808305725455, 2864.361083984375, 0.0, 2868.86328125);(0.0, 0.0, 0.0, 0.0, 0.0, 0.0, 0.0, 0.0);(0.0, 40.35000228881836, -67.25, 5.380000114440918, 16.139999389648438, -5.380000114440918, 0.0, 0.0)
2024/05/03/13:24:47.228612;209851;1714767887;259496168;;['BL_Position', 'BL_Wheel', 'BR_Position', 'BR_Wheel', 'FL_Position', 'FL_Wheel', 'FR_Position', 'FR_Wheel'];(0.0, 2865.988525390625, 0.006135923322290182, 2864.614013671875, -0.0015339808305725455, 2864.361083984375, 0.0, 2868.86328125);(0.0, 0.0, 0.0, 0.0, 0.0, 0.0, 0.0, 0.0);(0.0, 40.35000228881836, -69.94000244140625, 5.380000114440918, 21.520000457763672, -5.380000114440918, 0.0, 0.0)
2024/05/03/13:24:47.249721;209852;1714767887;275513779;;['BL_Position', 'BL_Wheel', 'BR_Position', 'BR_Wheel', 'FL_Position', 'FL_Wheel', 'FR_Position', 'FR_Wheel'];(0.0, 2865.988525390625, 0.006135923322290182, 2864.614013671875, -0.003067961661145091, 2864.361083984375, 0.0, 2868.86328125);(0.0, 0.0, 0.0, 0.0, 0.0, 0.0, 0.0, 0.0);(0.0, 40.35000228881836, -67.25, 5.380000114440918, 26.900001525878906, -5.380000114440918, 0.0, 0.0)
2024/05/03/13:24:47.261489;209853;1714767887;291461557;;['BL_Position', 'BL_Wheel', 'BR_Position', 'BR_Wheel', 'FL_Position', 'FL_Wheel', 'FR_Position', 'FR_Wheel'];(0.0, 2865.988525390625, 0.0076699042692780495, 2864.614013671875, -0.003067961661145091, 2864.361083984375, 0.0, 2868.861572265625);(0.0, 0.0, 0.0, 0.0, 0.0, 0.0, 0.0, 0.0);(0.0, 40.35000228881836, -69.94000244140625, 5.380000114440918, 32.279998779296875, -5.380000114440918, 0.0, 0.0)
2024/05/03/13:24:47.276501;209854;1714767887;307511056;;['BL_Position', 'BL_Wheel', 'BR_Position', 'BR_Wheel', 'FL_Position', 'FL_Wheel', 'FR_Position', 'FR_Wheel'];(0.0015339808305725455, 2865.988525390625, 0.006135923322290182, 2864.614013671875, -0.003067961661145091, 2864.361083984375, 0.0, 2868.86328125);(0.0, 0.0, 0.0, 0.0, 0.0, 0.0, 0.0, 0.0);(0.0, 40.35000228881836, -72.6300048828125, 5.380000114440918, 26.900001525878906, -5.380000114440918, 0.0, 0.0)
2024/05/03/13:24:47.292365;209855;1714767887;323700834;;['BL_Position', 'BL_Wheel', 'BR_Position', 'BR_Wheel', 'FL_Position', 'FL_Wheel', 'FR_Position', 'FR_Wheel'];(0.0, 2865.988525390625, 0.006135923322290182, 2864.612548828125, -0.003067961661145091, 2864.361083984375, 0.0, 2868.86328125);(0.0, 0.0, 0.0, 0.0, 0.0, 0.0, 0.0, 0.0);(0.0, 40.35000228881836, -69.94000244140625, 5.380000114440918, 29.59000015258789, -5.380000114440918, 0.0, 0.0)
2024/05/03/13:24:47.308076;209856;1714767887;339516963;;['BL_Position', 'BL_Wheel', 'BR_Position', 'BR_Wheel', 'FL_Position', 'FL_Wheel', 'FR_Position', 'FR_Wheel'];(0.0, 2865.988525390625, 0.006135923322290182, 2864.614013671875, -0.003067961661145091, 2864.361083984375, 0.0, 2868.861572265625);(0.0, 0.0, 0.0, 0.0, 0.0, 0.0, 0.0, 0.0);(0.0, 40.35000228881836, -72.6300048828125, 5.380000114440918, 2.690000057220459, -5.380000114440918, 0.0, 0.0)
2024/05/03/13:24:47.328216;209857;1714767887;355540851;;['BL_Position', 'BL_Wheel', 'BR_Position', 'BR_Wheel', 'FL_Position', 'FL_Wheel', 'FR_Position', 'FR_Wheel'];(0.0, 2865.988525390625, 0.006135923322290182, 2864.614013671875, -0.003067961661145091, 2864.361083984375, 0.0, 2868.86328125);(0.0, 0.0, 0.0, 0.0, 0.0, 0.0, 0.0, 0.0);(0.0, 40.35000228881836, -69.94000244140625, 5.380000114440918, 2.690000057220459, -5.380000114440918, 0.0, 0.0)
2024/05/03/13:24:47.353244;209858;1714767887;371541740;;['BL_Position', 'BL_Wheel', 'BR_Position', 'BR_Wheel', 'FL_Position', 'FL_Wheel', 'FR_Position', 'FR_Wheel'];(0.0, 2865.988525390625, 0.006135923322290182, 2864.614013671875, -0.0015339808305725455, 2864.361083984375, 0.0, 2868.86328125);(0.0, 0.0, 0.0, 0.0, 0.0, 0.0, 0.0, 0.0);(0.0, 40.35000228881836, -67.25, 5.380000114440918, 8.069999694824219, -5.380000114440918, 0.0, 0.0)
2024/05/03/13:24:47.362376;209859;1714767887;387454999;;['BL_Position', 'BL_Wheel', 'BR_Position', 'BR_Wheel', 'FL_Position', 'FL_Wheel', 'FR_Position', 'FR_Wheel'];(0.0015339808305725455, 2865.988525390625, 0.006135923322290182, 2864.614013671875, -0.003067961661145091, 2864.361083984375, 0.0, 2868.86328125);(0.0, 0.0, 0.0, 0.0, 0.0, 0.0, 0.0, 0.0);(0.0, 40.35000228881836, -69.94000244140625, 5.380000114440918, 16.139999389648438, -5.380000114440918, 0.0, 0.0)
2024/05/03/13:24:47.371078;209860;1714767887;403536091;;['BL_Position', 'BL_Wheel', 'BR_Position', 'BR_Wheel', 'FL_Position', 'FL_Wheel', 'FR_Position', 'FR_Wheel'];(0.0015339808305725455, 2865.988525390625, 0.006135923322290182, 2864.614013671875, -0.0015339808305725455, 2864.361083984375, 0.0, 2868.86328125);(0.0, 0.0, 0.0, 0.0, 0.0, 0.0, 0.0, 0.0);(0.0, 40.35000228881836, -67.25, 5.380000114440918, 40.35000228881836, -5.380000114440918, 0.0, 0.0)
2024/05/03/13:24:47.387852;209861;1714767887;419542665;;['BL_Position', 'BL_Wheel', 'BR_Position', 'BR_Wheel', 'FL_Position', 'FL_Wheel', 'FR_Position', 'FR_Wheel'];(0.0, 2865.988525390625, 0.006135923322290182, 2864.612548828125, -0.0015339808305725455, 2864.361083984375, 0.0, 2868.86328125);(0.0, 0.0, 0.0, 0.0, 0.0, 0.0, 0.0, 0.0);(0.0, 40.35000228881836, -67.25, 5.380000114440918, 29.59000015258789, -5.380000114440918, 0.0, 0.0)
2024/05/03/13:24:47.404062;209862;1714767887;435517757;;['BL_Position', 'BL_Wheel', 'BR_Position', 'BR_Wheel', 'FL_Position', 'FL_Wheel', 'FR_Position', 'FR_Wheel'];(0.0015339808305725455, 2865.988525390625, 0.006135923322290182, 2864.614013671875, -0.0015339808305725455, 2864.361083984375, 0.0, 2868.86328125);(0.0, 0.0, 0.0, 0.0, 0.0, 0.0, 0.0, 0.0);(2.690000057220459, 40.35000228881836, -69.94000244140625, 5.380000114440918, 26.900001525878906, -5.380000114440918, 0.0, 0.0)
